t,is_crashed,roll,pitch,yaw,p,q,r,throttle,p_cmd,q_cmd,r_cmd,roll_cmd,pitch_cmd,yaw_cmd,roll_pid_out,pitch_pid_out,yaw_pid_out,motor_fl,motor_bl,motor_fr,motor_br,pwm_fl,pwm_bl,pwm_fr,pwm_br
6942,0,0.028362,-0.008727,0.000000,0.00,-0.00,-0.000015,0.004000,0.000576,0.000439,0.000000,0.000000,0.000000,0.000000,-0.000491,0.000629,0.000002,0.000000,0.000000,0.000000,0.000000,0,0,0,0
6962,0,0.000000,0.000000,0.000000,-0.00,0.00,0.000012,0.004000,0.000009,0.000003,0.000000,0.000000,0.000000,0.000000,-0.000022,0.000081,-0.000002,0.000000,0.000000,0.000000,0.000000,819,819,819,819
6982,0,0.000000,0.000000,0.000000,0.00,0.00,0.000018,0.004000,-0.000000,0.000000,0.000000,0.000000,0.000000,0.000000,-0.000014,0.000077,-0.000003,0.000000,0.000000,0.000000,0.000000,819,819,819,819
7009,0,0.000000,0.000000,0.000000,0.00,0.00,-0.000012,0.004000,-0.000000,0.000000,0.000000,0.000000,0.000000,0.000000,-0.000014,0.000077,0.000002,0.000000,0.000000,0.000000,0.000000,819,819,819,819
7031,0,0.000000,0.000000,0.000000,0.00,0.00,0.000013,0.004000,-0.000000,0.000000,0.000000,0.000000,0.000000,0.000000,-0.000014,0.000077,-0.000002,0.000000,0.000000,0.000000,0.000000,819,819,819,819
7052,0,0.000000,0.000000,0.000000,0.00,0.00,-0.000013,0.004000,-0.000000,0.000000,0.000000,0.000000,0.000000,0.000000,-0.000014,0.000077,0.000002,0.000000,0.000000,0.000000,0.000000,819,819,819,819
7072,0,0.000000,0.000000,0.000000,0.00,0.00,0.000013,0.004000,-0.000000,0.000000,0.000000,0.000000,0.000000,0.000000,-0.000014,0.000077,-0.000002,0.000000,0.000000,0.000000,0.000000,819,819,819,819
7092,0,0.000000,0.000000,0.000000,0.00,0.00,0.000018,0.004000,-0.000000,0.000000,0.000000,0.000000,0.000000,0.000000,-0.000014,0.000077,-0.000003,0.000000,0.000000,0.000000,0.000000,819,819,819,819
7112,0,0.000000,0.000000,0.000000,0.00,0.00,-0.000012,0.005000,-0.000000,0.000000,0.000000,0.000000,0.000000,0.000000,-0.000014,0.000077,0.000002,0.000000,0.000000,0.000000,0.000000,819,819,819,819
7132,0,0.000000,0.000000,0.000000,0.00,0.00,0.000013,0.005000,-0.000000,0.000000,0.000000,0.000000,0.000000,0.000000,-0.000014,0.000077,-0.000002,0.000000,0.000000,0.000000,0.000000,819,819,819,819
7152,0,0.000000,0.000000,0.000000,0.00,0.00,0.000003,0.004000,-0.000000,0.000000,0.000000,0.000000,0.000000,0.000000,-0.000014,0.000077,-0.000000,0.000000,0.000000,0.000000,0.000000,819,819,819,819
7172,0,0.000000,0.000000,0.000000,0.00,0.00,-0.000015,0.005000,-0.000000,0.000000,0.000000,0.000000,0.000000,0.000000,-0.000014,0.000077,0.000002,0.000000,0.000000,0.000000,0.000000,819,819,819,819
7192,0,0.000000,0.000000,0.000000,0.00,0.00,0.000028,0.005000,-0.000000,0.000000,0.000000,0.000000,0.000000,0.000000,-0.000014,0.000077,-0.000004,0.000000,0.000000,0.000000,0.000000,819,819,819,819
7213,0,0.000000,0.000000,0.000000,0.00,0.00,0.000066,0.004000,-0.000000,0.000000,0.000000,0.000000,0.000000,0.000000,-0.000014,0.000077,-0.000010,0.000000,0.000000,0.000000,0.000000,819,819,819,819
7233,0,0.000000,0.000000,0.000000,0.00,0.00,0.000029,0.004000,-0.000000,0.000000,0.000000,0.000000,0.000000,0.000000,-0.000014,0.000077,-0.000005,0.000000,0.000000,0.000000,0.000000,819,819,819,819
7253,0,0.000000,0.000000,0.000000,0.00,0.00,0.000021,0.004000,-0.000000,0.000000,0.000000,0.000000,0.000000,0.000000,-0.000014,0.000077,-0.000004,0.000000,0.000000,0.000000,0.000000,819,819,819,819
7273,0,0.000000,0.000000,0.000000,0.00,0.00,0.000035,0.004000,-0.000000,0.000000,0.000000,0.000000,0.000000,0.000000,-0.000014,0.000077,-0.000006,0.000000,0.000000,0.000000,0.000000,819,819,819,819
7293,0,0.000000,0.000000,0.000000,0.00,0.00,0.000037,0.004000,-0.000000,0.000000,0.000000,0.000000,0.000000,0.000000,-0.000014,0.000077,-0.000006,0.000000,0.000000,0.000000,0.000000,819,819,819,819
7313,0,0.000000,0.000000,0.000000,0.00,0.00,0.000023,0.004000,-0.000000,0.000000,0.000000,0.000000,0.000000,0.000000,-0.000014,0.000077,-0.000004,0.000000,0.000000,0.000000,0.000000,819,819,819,819
7333,0,0.000000,0.000000,0.000000,0.00,0.00,-0.000011,0.004000,-0.000000,0.000000,0.000000,0.000000,0.000000,0.000000,-0.000014,0.000077,0.000000,0.000000,0.000000,0.000000,0.000000,819,819,819,819
7353,0,0.000000,0.000000,0.000000,0.00,0.00,0.000044,0.004000,-0.000000,0.000000,0.000000,0.000000,0.000000,0.000000,-0.000014,0.000077,-0.000007,0.000000,0.000000,0.000000,0.000000,819,819,819,819
7373,0,0.000000,0.000000,0.000000,0.00,0.00,0.000009,0.004000,-0.000000,0.000000,0.000000,0.000000,0.000000,0.000000,-0.000014,0.000077,-0.000002,0.000000,0.000000,0.000000,0.000000,819,819,819,819
7393,0,0.000000,0.000000,0.000000,0.00,0.00,0.000002,0.004000,-0.000000,0.000000,0.000000,0.000000,0.000000,0.000000,-0.000014,0.000077,-0.000001,0.000000,0.000000,0.000000,0.000000,819,819,819,819
7413,0,0.000000,0.000000,0.000000,0.00,0.00,0.000016,0.004000,-0.000000,0.000000,0.000000,0.000000,0.000000,0.000000,-0.000014,0.000077,-0.000003,0.000000,0.000000,0.000000,0.000000,819,819,819,819
7433,0,0.000000,0.000000,0.000000,0.00,0.00,0.000018,0.004000,-0.000000,0.000000,0.000000,0.000000,0.000000,0.000000,-0.000014,0.000077,-0.000004,0.000000,0.000000,0.000000,0.000000,819,819,819,819
7453,0,0.000000,0.000000,0.000000,0.00,0.00,0.000004,0.004000,-0.000000,0.000000,0.000000,0.000000,0.000000,0.000000,-0.000014,0.000077,-0.000002,0.000000,0.000000,0.000000,0.000000,819,819,819,819
7473,0,0.000000,0.000000,0.000000,0.00,0.00,0.000046,0.004000,-0.000000,0.000000,0.000000,0.000000,0.000000,0.000000,-0.000014,0.000077,-0.000008,0.000000,0.000000,0.000000,0.000000,819,819,819,819
7493,0,0.000000,0.000000,0.000000,0.00,0.00,0.000009,0.004000,-0.000000,0.000000,0.000000,0.000000,0.000000,0.000000,-0.000014,0.000077,-0.000003,0.000000,0.000000,0.000000,0.000000,819,819,819,819
7513,0,0.000000,0.000000,0.000000,0.00,0.00,0.000017,0.004000,-0.000000,0.000000,0.000000,0.000000,0.000000,0.000000,-0.000014,0.000077,-0.000004,0.000000,0.000000,0.000000,0.000000,819,819,819,819
7533,0,0.000000,0.000000,0.000000,0.00,0.00,0.000034,0.004000,-0.000000,0.000000,0.000000,0.000000,0.000000,0.000000,-0.000014,0.000077,-0.000006,0.000000,0.000000,0.000000,0.000000,819,819,819,819
7553,0,0.000000,0.000000,0.000000,0.00,0.00,0.000022,0.004000,-0.000000,0.000000,0.000000,0.000000,0.000000,0.000000,-0.000014,0.000077,-0.000005,0.000000,0.000000,0.000000,0.000000,819,819,819,819
7573,0,0.000000,0.000000,0.000000,0.00,0.00,0.000020,0.005000,-0.000000,0.000000,0.000000,0.000000,0.000000,0.000000,-0.000014,0.000077,-0.000005,0.000000,0.000000,0.000000,0.000000,819,819,819,819
7593,0,0.000000,0.000000,0.000000,0.00,0.00,0.000004,0.005000,-0.000000,0.000000,0.000000,0.000000,0.000000,0.000000,-0.000014,0.000077,-0.000002,0.000000,0.000000,0.000000,0.000000,819,819,819,819
7613,0,0.000000,0.000000,0.000000,0.00,0.00,-0.000075,0.005000,-0.000000,0.000000,0.000000,0.000000,0.000000,0.000000,-0.000014,0.000077,0.000009,0.000000,0.000000,0.000000,0.000000,819,819,819,819
7638,0,0.000000,0.000000,0.000000,0.00,0.00,0.000031,0.005000,-0.000000,0.000000,0.000000,0.000000,0.000000,0.000000,-0.000014,0.000077,-0.000006,0.000000,0.000000,0.000000,0.000000,819,819,819,819
7660,0,0.000000,0.000000,0.000000,0.00,0.00,-0.000024,0.004000,-0.000000,0.000000,0.000000,0.000000,0.000000,0.000000,-0.000014,0.000077,0.000002,0.000000,0.000000,0.000000,0.000000,819,819,819,819
7681,0,0.000000,0.000000,0.000000,0.00,0.00,0.000026,0.004000,-0.000000,0.000000,0.000000,0.000000,0.000000,0.000000,-0.000014,0.000077,-0.000005,0.000000,0.000000,0.000000,0.000000,819,819,819,819
7702,0,0.000000,0.000000,0.000000,0.00,0.00,-0.000010,0.004000,-0.000000,0.000000,0.000000,0.000000,0.000000,0.000000,-0.000014,0.000077,-0.000000,0.000000,0.000000,0.000000,0.000000,819,819,819,819
7723,0,0.000000,0.000000,0.000000,0.00,0.00,-0.000032,0.004000,-0.000000,0.000000,0.000000,0.000000,0.000000,0.000000,-0.000014,0.000077,0.000003,0.000000,0.000000,0.000000,0.000000,819,819,819,819
7743,0,0.000000,0.000000,0.000000,0.00,0.00,-0.000037,0.004000,-0.000000,0.000000,0.000000,0.000000,0.000000,0.000000,-0.000014,0.000077,0.000004,0.000000,0.000000,0.000000,0.000000,819,819,819,819
7763,0,0.000000,0.000000,0.000000,0.00,0.00,-0.000038,0.004000,-0.000000,0.000000,0.000000,0.000000,0.000000,0.000000,-0.000014,0.000077,0.000004,0.000000,0.000000,0.000000,0.000000,819,819,819,819
7784,0,0.000000,0.000000,0.000000,0.00,0.00,0.000008,0.004000,-0.000000,0.000000,0.000000,0.000000,0.000000,0.000000,-0.000014,0.000077,-0.000002,0.000000,0.000000,0.000000,0.000000,819,819,819,819
7804,0,0.000000,0.000000,0.000000,0.00,0.00,0.000047,0.004000,-0.000000,0.000000,0.000000,0.000000,0.000000,0.000000,-0.000014,0.000077,-0.000008,0.000000,0.000000,0.000000,0.000000,819,819,819,819
7824,0,0.000000,0.000000,0.000000,0.00,0.00,-0.000021,0.004000,-0.000000,0.000000,0.000000,0.000000,0.000000,0.000000,-0.000014,0.000077,0.000002,0.000000,0.000000,0.000000,0.000000,819,819,819,819
7844,0,0.000000,0.000000,0.000000,0.00,0.00,0.000026,0.004000,-0.000000,0.000000,0.000000,0.000000,0.000000,0.000000,-0.000014,0.000077,-0.000005,0.000000,0.000000,0.000000,0.000000,819,819,819,819
7864,0,0.000000,0.000000,0.000000,0.00,0.00,0.000036,0.004000,-0.000000,0.000000,0.000000,0.000000,0.000000,0.000000,-0.000014,0.000077,-0.000007,0.000000,0.000000,0.000000,0.000000,819,819,819,819
7884,0,0.000000,0.000000,0.000000,0.00,0.00,0.000022,0.004000,-0.000000,0.000000,0.000000,0.000000,0.000000,0.000000,-0.000014,0.000077,-0.000005,0.000000,0.000000,0.000000,0.000000,819,819,819,819
7904,0,0.000000,0.000000,0.000000,0.00,0.00,0.000020,0.004000,-0.000000,0.000000,0.000000,0.000000,0.000000,0.000000,-0.000014,0.000077,-0.000004,0.000000,0.000000,0.000000,0.000000,819,819,819,819
7924,0,0.000000,0.000000,0.000000,0.00,0.00,0.000034,0.004000,-0.000000,0.000000,0.000000,0.000000,0.000000,0.000000,-0.000014,0.000077,-0.000007,0.000000,0.000000,0.000000,0.000000,819,819,819,819
7944,0,0.000000,0.000000,0.000000,0.00,0.00,-0.000039,0.004000,-0.000000,0.000000,0.000000,0.000000,0.000000,0.000000,-0.000014,0.000077,0.000004,0.000000,0.000000,0.000000,0.000000,819,819,819,819
7964,0,0.000000,0.000000,0.000000,0.00,0.00,0.000023,0.004000,-0.000000,0.000000,0.000000,0.000000,0.000000,0.000000,-0.000014,0.000077,-0.000005,0.000000,0.000000,0.000000,0.000000,819,819,819,819
7984,0,0.000000,0.000000,0.000000,0.00,0.00,0.000035,0.004000,-0.000000,0.000000,0.000000,0.000000,0.000000,0.000000,-0.000014,0.000077,-0.000007,0.000000,0.000000,0.000000,0.000000,819,819,819,819
8004,0,0.000000,0.000000,0.000000,0.00,0.00,0.000022,0.004000,-0.000000,0.000000,0.000000,0.000000,0.000000,0.000000,-0.000014,0.000077,-0.000005,0.000000,0.000000,0.000000,0.000000,819,819,819,819
8024,0,0.000000,0.000000,0.000000,0.00,0.00,-0.000026,0.004000,-0.000000,0.000000,0.000000,0.000000,0.000000,0.000000,-0.000014,0.000077,0.000002,0.000000,0.000000,0.000000,0.000000,819,819,819,819
8044,0,0.000000,0.000000,0.000000,0.00,0.00,0.000010,0.004000,-0.000000,0.000000,0.000000,0.000000,0.000000,0.000000,-0.000014,0.000077,-0.000003,0.000000,0.000000,0.000000,0.000000,819,819,819,819
8064,0,0.000000,0.000000,0.000000,0.00,0.00,0.000017,0.004000,-0.000000,0.000000,0.000000,0.000000,0.000000,0.000000,-0.000014,0.000077,-0.000004,0.000000,0.000000,0.000000,0.000000,819,819,819,819
8084,0,0.000000,0.000000,0.000000,0.00,0.00,0.000019,0.004000,-0.000000,0.000000,0.000000,0.000000,0.000000,0.000000,-0.000014,0.000077,-0.000005,0.000000,0.000000,0.000000,0.000000,819,819,819,819
8104,0,0.000000,0.000000,0.000000,0.00,0.00,0.000019,0.005000,-0.000000,0.000000,0.000000,0.000000,0.000000,0.000000,-0.000014,0.000077,-0.000005,0.000000,0.000000,0.000000,0.000000,819,819,819,819
8125,0,0.000000,0.000000,0.000000,0.00,0.00,-0.000011,0.005000,-0.000000,0.000000,0.000000,0.000000,0.000000,0.000000,-0.000014,0.000077,-0.000000,0.000000,0.000000,0.000000,0.000000,819,819,819,819
8144,0,0.000000,0.000000,0.000000,0.00,0.00,-0.000033,0.004000,-0.000000,0.000000,0.000000,0.000000,0.000000,0.000000,-0.000014,0.000077,0.000002,0.000000,0.000000,0.000000,0.000000,819,819,819,819
8164,0,0.000000,0.000000,0.000000,0.00,0.00,0.000024,0.004000,-0.000000,0.000000,0.000000,0.000000,0.000000,0.000000,-0.000014,0.000077,-0.000005,0.000000,0.000000,0.000000,0.000000,819,819,819,819
8185,0,0.000000,0.000000,0.000000,0.00,0.00,0.000020,0.004000,-0.000000,0.000000,0.000000,0.000000,0.000000,0.000000,-0.000014,0.000077,-0.000005,0.000000,0.000000,0.000000,0.000000,819,819,819,819
8205,0,0.000000,0.000000,0.000000,0.00,0.00,-0.000026,0.004000,-0.000000,0.000000,0.000000,0.000000,0.000000,0.000000,-0.000014,0.000077,0.000002,0.000000,0.000000,0.000000,0.000000,819,819,819,819
8225,0,0.000000,0.000000,0.000000,0.00,0.00,0.000056,0.004000,-0.000000,0.000000,0.000000,0.000000,0.000000,0.000000,-0.000014,0.000077,-0.000010,0.000000,0.000000,0.000000,0.000000,819,819,819,819
8245,0,0.000000,0.000000,0.000000,0.00,0.00,0.000026,0.004000,-0.000000,0.000000,0.000000,0.000000,0.000000,0.000000,-0.000014,0.000077,-0.000006,0.000000,0.000000,0.000000,0.000000,819,819,819,819
8271,0,0.000000,0.000000,0.000000,0.00,0.00,-0.000071,0.004000,-0.000000,0.000000,0.000000,0.000000,0.000000,0.000000,-0.000014,0.000077,0.000008,0.000000,0.000000,0.000000,0.000000,819,819,819,819
8291,0,0.000000,0.000000,0.000000,0.00,0.00,-0.000075,0.004000,-0.000000,0.000000,0.000000,0.000000,0.000000,0.000000,-0.000014,0.000077,0.000008,0.000000,0.000000,0.000000,0.000000,819,819,819,819
8312,0,0.000000,0.000000,0.000000,0.00,0.00,0.000076,0.004000,-0.000000,0.000000,0.000000,0.000000,0.000000,0.000000,-0.000014,0.000077,-0.000013,0.000000,0.000000,0.000000,0.000000,819,819,819,819
8333,0,0.000000,0.000000,0.000000,0.00,0.00,0.000107,0.004000,-0.000000,0.000000,0.000000,0.000000,0.000000,0.000000,-0.000014,0.000077,-0.000017,0.000000,0.000000,0.000000,0.000000,819,819,819,819
8354,0,0.000000,0.000000,0.000000,0.00,0.00,0.000006,0.004000,-0.000000,0.000000,0.000000,0.000000,0.000000,0.000000,-0.000014,0.000077,-0.000003,0.000000,0.000000,0.000000,0.000000,819,819,819,819
8375,0,0.000000,0.000000,0.000000,0.00,0.00,0.000032,0.004000,-0.000000,0.000000,0.000000,0.000000,0.000000,0.000000,-0.000014,0.000077,-0.000007,0.000000,0.000000,0.000000,0.000000,819,819,819,819
8395,0,0.000000,0.000000,0.000000,0.00,0.00,0.000022,0.004000,-0.000000,0.000000,0.000000,0.000000,0.000000,0.000000,-0.000014,0.000077,-0.000006,0.000000,0.000000,0.000000,0.000000,819,819,819,819
8415,0,0.000000,0.000000,0.000000,0.00,0.00,0.000035,0.004000,-0.000000,0.000000,0.000000,0.000000,0.000000,0.000000,-0.000014,0.000077,-0.000008,0.000000,0.000000,0.000000,0.000000,819,819,819,819
8435,0,0.000000,0.000000,0.000000,0.00,0.00,0.000098,0.004000,-0.000000,0.000000,0.000000,0.000000,0.000000,0.000000,-0.000014,0.000077,-0.000017,0.000000,0.000000,0.000000,0.000000,819,819,819,819
8455,0,0.000000,0.000000,0.000000,0.00,0.00,0.000096,0.004000,-0.000000,0.000000,0.000000,0.000000,0.000000,0.000000,-0.000014,0.000077,-0.000017,0.000000,0.000000,0.000000,0.000000,819,819,819,819
8475,0,0.000000,0.000000,0.000000,0.00,0.00,-0.000118,0.005000,-0.000000,0.000000,0.000000,0.000000,0.000000,0.000000,-0.000014,0.000077,0.000013,0.000000,0.000000,0.000000,0.000000,819,819,819,819
8495,0,0.000000,0.000000,0.000000,0.00,0.00,-0.000085,0.005000,-0.000000,0.000000,0.000000,0.000000,0.000000,0.000000,-0.000014,0.000077,0.000008,0.000000,0.000000,0.000000,0.000000,819,819,819,819
8515,0,0.000000,0.000000,0.000000,0.00,0.00,0.000044,0.004000,-0.000000,0.000000,0.000000,0.000000,0.000000,0.000000,-0.000014,0.000077,-0.000009,0.000000,0.000000,0.000000,0.000000,819,819,819,819
8536,0,0.000000,0.000000,0.000000,0.00,0.00,0.000054,0.005000,-0.000000,0.000000,0.000000,0.000000,0.000000,0.000000,-0.000014,0.000077,-0.000011,0.000000,0.000000,0.000000,0.000000,819,819,819,819
8555,0,0.000000,0.000000,0.000000,0.00,0.00,0.000011,0.005000,-0.000000,0.000000,0.000000,0.000000,0.000000,0.000000,-0.000014,0.000077,-0.000005,0.000000,0.000000,0.000000,0.000000,819,819,819,819
8575,0,0.000000,0.000000,0.000000,0.00,0.00,-0.000059,0.004000,-0.000000,0.000000,0.000000,0.000000,0.000000,0.000000,-0.000014,0.000077,0.000005,0.000000,0.000000,0.000000,0.000000,819,819,819,819
8595,0,0.000000,0.000000,0.000000,0.00,0.00,-0.000073,0.004000,-0.000000,0.000000,0.000000,0.000000,0.000000,0.000000,-0.000014,0.000077,0.000007,0.000000,0.000000,0.000000,0.000000,819,819,819,819
8617,0,0.000000,0.000000,0.000000,0.00,0.00,0.000077,0.004000,-0.000000,0.000000,0.000000,0.000000,0.000000,0.000000,-0.000014,0.000077,-0.000014,0.000000,0.000000,0.000000,0.000000,819,819,819,819
8636,0,0.000000,0.000000,0.000000,0.00,0.00,0.000000,0.004000,-0.000000,0.000000,0.000000,0.000000,0.000000,0.000000,-0.000014,0.000077,-0.000003,0.000000,0.000000,0.000000,0.000000,819,819,819,819
8656,0,0.000000,0.000000,0.000000,0.00,0.00,-0.000076,0.004000,-0.000000,0.000000,0.000000,0.000000,0.000000,0.000000,-0.000014,0.000077,0.000007,0.000000,0.000000,0.000000,0.000000,819,819,819,819
8676,0,0.000000,0.000000,0.000000,0.00,0.00,-0.000030,0.004000,-0.000000,0.000000,0.000000,0.000000,0.000000,0.000000,-0.000014,0.000077,0.000001,0.000000,0.000000,0.000000,0.000000,819,819,819,819
8696,0,0.000000,0.000000,0.000000,0.00,0.00,0.000040,0.004000,-0.000000,0.000000,0.000000,0.000000,0.000000,0.000000,-0.000014,0.000077,-0.000008,0.000000,0.000000,0.000000,0.000000,819,819,819,819
8716,0,0.000000,0.000000,0.000000,0.00,0.00,-0.000023,0.004000,-0.000000,0.000000,0.000000,0.000000,0.000000,0.000000,-0.000014,0.000077,0.000000,0.000000,0.000000,0.000000,0.000000,819,819,819,819
8736,0,0.000000,0.000000,0.000000,0.00,0.00,0.000011,0.004000,-0.000000,0.000000,0.000000,0.000000,0.000000,0.000000,-0.000014,0.000077,-0.000004,0.000000,0.000000,0.000000,0.000000,819,819,819,819
8756,0,0.000000,0.000000,0.000000,0.00,0.00,-0.000028,0.004000,-0.000000,0.000000,0.000000,0.000000,0.000000,0.000000,-0.000014,0.000077,0.000001,0.000000,0.000000,0.000000,0.000000,819,819,819,819
8776,0,0.000000,0.000000,0.000000,0.00,0.00,0.000010,0.004000,-0.000000,0.000000,0.000000,0.000000,0.000000,0.000000,-0.000014,0.000077,-0.000004,0.000000,0.000000,0.000000,0.000000,819,819,819,819
8796,0,0.000000,0.000000,0.000000,0.00,0.00,0.000002,0.004000,-0.000000,0.000000,0.000000,0.000000,0.000000,0.000000,-0.000014,0.000077,-0.000003,0.000000,0.000000,0.000000,0.000000,819,819,819,819
8816,0,0.000000,0.000000,0.000000,0.00,0.00,0.000031,0.004000,-0.000000,0.000000,0.000000,0.000000,0.000000,0.000000,-0.000014,0.000077,-0.000007,0.000000,0.000000,0.000000,0.000000,819,819,819,819
8836,0,0.000000,0.000000,0.000000,0.00,0.00,0.000037,0.004000,-0.000000,0.000000,0.000000,0.000000,0.000000,0.000000,-0.000014,0.000077,-0.000008,0.000000,0.000000,0.000000,0.000000,819,819,819,819
8856,0,0.000000,0.000000,0.000000,0.00,0.00,-0.000008,0.004000,-0.000000,0.000000,0.000000,0.000000,0.000000,0.000000,-0.000014,0.000077,-0.000002,0.000000,0.000000,0.000000,0.000000,819,819,819,819
8883,0,0.000000,0.000000,0.000000,0.00,0.00,-0.000017,0.004000,-0.000000,0.000000,0.000000,0.000000,0.000000,0.000000,-0.000014,0.000077,-0.000000,0.000000,0.000000,0.000000,0.000000,819,819,819,819
8904,0,0.000000,0.000000,0.000000,0.00,0.00,0.000027,0.004000,-0.000000,0.000000,0.000000,0.000000,0.000000,0.000000,-0.000014,0.000077,-0.000007,0.000000,0.000000,0.000000,0.000000,819,819,819,819
8925,0,0.000000,0.000000,0.000000,0.00,0.00,0.000005,0.004000,-0.000000,0.000000,0.000000,0.000000,0.000000,0.000000,-0.000014,0.000077,-0.000004,0.000000,0.000000,0.000000,0.000000,819,819,819,819
8946,0,0.000000,0.000000,0.000000,0.00,0.00,0.000001,0.005000,-0.000000,0.000000,0.000000,0.000000,0.000000,0.000000,-0.000014,0.000077,-0.000003,0.000000,0.000000,0.000000,0.000000,819,819,819,819
8966,0,0.000000,0.000000,0.000000,0.00,0.00,0.000031,0.005000,-0.000000,0.000000,0.000000,0.000000,0.000000,0.000000,-0.000014,0.000077,-0.000007,0.000000,0.000000,0.000000,0.000000,819,819,819,819
8986,0,0.000000,0.000000,0.000000,0.00,0.00,-0.000040,0.005000,-0.000000,0.000000,0.000000,0.000000,0.000000,0.000000,-0.000014,0.000077,0.000002,0.000000,0.000000,0.000000,0.000000,819,819,819,819
9006,0,0.000000,0.000000,0.000000,0.00,0.00,-0.000054,0.004000,-0.000000,0.000000,0.000000,0.000000,0.000000,0.000000,-0.000014,0.000077,0.000004,0.000000,0.000000,0.000000,0.000000,819,819,819,819
9026,0,0.000000,0.000000,0.000000,0.00,0.00,0.000020,0.004000,-0.000000,0.000000,0.000000,0.000000,0.000000,0.000000,-0.000014,0.000077,-0.000006,0.000000,0.000000,0.000000,0.000000,819,819,819,819
9046,0,0.000000,0.000000,0.000000,0.00,0.00,0.000004,0.004000,-0.000000,0.000000,0.000000,0.000000,0.000000,0.000000,-0.000014,0.000077,-0.000003,0.000000,0.000000,0.000000,0.000000,819,819,819,819
9066,0,0.000000,0.000000,0.000000,0.00,0.00,-0.000121,0.004000,-0.000000,0.000000,0.000000,0.000000,0.000000,0.000000,-0.000014,0.000077,0.000014,0.000000,0.000000,0.000000,0.000000,819,819,819,819
9086,0,0.000000,0.000000,0.000000,0.00,0.00,-0.000116,0.004000,-0.000000,0.000000,0.000000,0.000000,0.000000,0.000000,-0.000014,0.000077,0.000014,0.000000,0.000000,0.000000,0.000000,819,819,819,819
9106,0,0.000000,0.000000,0.000000,0.00,0.00,0.000099,0.004000,-0.000000,0.000000,0.000000,0.000000,0.000000,0.000000,-0.000014,0.000077,-0.000015,0.000000,0.000000,0.000000,0.000000,819,819,819,819
9126,0,0.000000,0.000000,0.000000,0.00,0.00,0.000126,0.004000,-0.000000,0.000000,0.000000,0.000000,0.000000,0.000000,-0.000014,0.000077,-0.000020,0.000000,0.000000,0.000000,0.000000,819,819,819,819
9146,0,0.000000,0.000000,0.000000,0.00,0.00,0.000056,0.005000,-0.000000,0.000000,0.000000,0.000000,0.000000,0.000000,-0.000014,0.000077,-0.000011,0.000000,0.000000,0.000000,0.000000,819,819,819,819
9167,0,0.000000,0.001091,0.000000,0.00,0.00,-0.000065,0.004000,-0.000000,-0.000055,0.000000,0.000000,0.000000,0.000000,-0.000014,-0.000004,0.000006,0.000000,0.000000,0.000000,0.000000,819,819,819,819
9187,0,0.000000,0.001091,0.000000,0.00,0.00,-0.000150,0.004000,-0.000000,-0.000055,0.000000,0.000000,0.000000,0.000000,-0.000014,-0.000017,0.000018,0.000000,0.000000,0.000000,0.000000,819,819,819,819
9207,0,0.000000,0.001091,0.000000,0.00,0.00,0.000046,0.004000,-0.000000,-0.000055,0.000000,0.000000,0.000000,0.000000,-0.000014,-0.000030,-0.000008,0.000000,0.000000,0.000000,0.000000,819,819,819,819
9227,0,0.000000,0.001091,0.000000,0.00,0.00,0.000192,0.004000,-0.000000,-0.000055,0.000000,0.000000,0.000000,0.000000,-0.000014,-0.000042,-0.000029,0.000000,0.000000,0.000000,0.000000,819,819,819,819
9247,0,0.000000,0.001091,0.000000,0.00,0.00,0.000115,0.004000,-0.000000,-0.000055,0.000000,0.000000,0.000000,0.000000,-0.000014,-0.000055,-0.000019,0.000000,0.000000,0.000000,0.000000,819,819,819,819
9267,0,0.000000,0.001091,0.000000,0.00,0.00,-0.000068,0.004000,-0.000000,-0.000055,0.000000,0.000000,0.000000,0.000000,-0.000014,-0.000068,0.000006,0.000000,0.000000,0.000000,0.000000,819,819,819,819
9287,0,0.000000,0.001091,0.000000,0.00,0.00,-0.000136,0.004000,-0.000000,-0.000055,0.000000,0.000000,0.000000,0.000000,-0.000014,-0.000081,0.000015,0.000000,0.000000,0.000000,0.000000,819,819,819,819
9307,0,0.000000,0.001091,0.000000,0.00,0.00,-0.000073,0.005000,-0.000000,-0.000055,0.000000,0.000000,0.000000,0.000000,-0.000014,-0.000093,0.000007,0.000000,0.000000,0.000000,0.000000,819,819,819,819
9327,0,0.000000,0.001091,0.000000,0.00,0.00,0.000000,0.005000,-0.000000,-0.000055,0.000000,0.000000,0.000000,0.000000,-0.000014,-0.000106,-0.000003,0.000000,0.000000,0.000000,0.000000,819,819,819,819
9347,0,0.000000,0.001091,0.000000,0.00,0.00,-0.000046,0.005000,-0.000000,-0.000055,0.000000,0.000000,0.000000,0.000000,-0.000014,-0.000119,0.000004,0.000000,0.000000,0.000000,0.000000,819,819,819,819
9367,0,0.000000,0.001091,0.000000,0.00,0.00,-0.000131,0.006000,-0.000000,-0.000055,0.000000,0.000000,0.000000,0.000000,-0.000014,-0.000132,0.000016,0.000000,0.000000,0.000000,0.000000,819,819,819,819
9387,0,0.000000,0.001091,0.000000,0.00,0.00,-0.000102,0.006000,-0.000000,-0.000055,0.000000,0.000000,0.000000,0.000000,-0.000014,-0.000145,0.000012,0.000000,0.000000,0.000000,0.000000,819,819,819,819
9407,0,0.000000,0.001091,0.000000,0.00,0.00,-0.000142,0.045000,-0.000000,-0.000055,0.000000,0.000000,0.000000,0.000000,-0.000014,-0.000158,0.000018,0.044875,0.045154,0.044810,0.045162,855,897,872,897
9427,0,0.000000,0.001091,0.000000,0.00,0.00,-0.000120,0.045000,-0.000000,-0.000056,0.000000,0.000000,0.000000,0.000000,-0.000014,-0.000172,0.000016,0.044859,0.045170,0.044798,0.045173,855,897,872,897
9447,0,0.000000,0.001091,0.000000,0.00,0.00,-0.000085,0.091000,-0.000000,-0.000056,0.000000,0.000000,0.000000,0.000000,-0.000014,-0.000185,0.000012,0.090840,0.091188,0.090789,0.091183,893,934,909,934
9467,0,0.000000,0.001091,0.000000,0.00,0.00,-0.000139,0.119000,-0.000000,-0.000057,0.000000,0.000000,0.000000,0.000000,-0.000014,-0.000199,0.000019,0.118834,0.119194,0.118767,0.119205,916,957,932,957
9487,0,0.000000,0.001091,0.000000,0.00,0.00,-0.000089,0.119000,-0.000000,-0.000057,0.000000,0.000000,0.000000,0.000000,-0.000014,-0.000214,0.000013,0.118814,0.119215,0.118759,0.119213,916,957,932,957
9515,0,0.000000,0.001091,0.000000,0.00,0.00,-0.000003,0.127000,-0.000000,-0.000058,0.000000,0.000000,0.000000,0.000000,-0.000014,-0.000228,0.000002,0.126788,0.127240,0.126756,0.127216,923,964,939,964
9536,0,-0.001091,0.001091,0.000000,-0.00,0.00,0.000060,0.127000,-0.000022,-0.000058,0.000000,0.000000,0.000000,0.000000,0.000005,-0.000242,-0.000007,0.126746,0.127244,0.126769,0.127241,922,964,939,964
9557,0,-0.001091,0.001091,0.000000,0.00,0.00,0.000682,0.128000,-0.000023,-0.000059,0.000000,0.000000,0.000000,0.000000,0.000006,-0.000257,-0.000092,0.127645,0.128343,0.127840,0.128171,923,965,940,965
9577,0,-0.001091,0.001091,0.000000,0.00,0.00,0.000182,0.127000,-0.000023,-0.000059,0.000000,0.000000,0.000000,0.000000,0.000007,-0.000272,-0.000027,0.126694,0.127292,0.126762,0.127252,922,964,939,964
9598,0,-0.001091,0.001091,-0.001091,0.00,0.00,-0.000101,0.127000,-0.000024,-0.000060,0.000000,0.000000,0.000000,0.000000,0.000008,-0.000287,0.000011,0.126716,0.127268,0.126711,0.127306,922,964,939,964
9618,0,-0.001091,0.001091,-0.001091,0.00,0.00,-0.000005,0.127000,-0.000024,-0.000060,0.000000,0.000000,0.000000,0.000000,0.000010,-0.000302,-0.000002,0.126687,0.127294,0.126709,0.127310,922,964,939,964
9638,0,-0.001091,0.001091,-0.001091,0.00,0.00,-0.000001,0.127000,-0.000025,-0.000061,0.000000,0.000000,0.000000,0.000000,0.000011,-0.000317,-0.000002,0.126670,0.127309,0.126696,0.127326,922,964,939,964
9658,0,-0.001091,0.001091,-0.002182,0.00,0.00,-0.001082,0.127000,-0.000025,-0.000061,0.000000,0.000000,0.000000,0.000000,0.000012,-0.000333,0.000145,0.126800,0.127176,0.126535,0.127489,923,964,939,964
9678,0,0.000000,0.001091,-0.001091,0.00,0.00,0.000972,0.125000,-0.000003,-0.000062,0.000000,0.000000,0.000000,0.000000,-0.000006,-0.000348,-0.000129,0.124528,0.125483,0.124775,0.125213,921,962,937,962
9698,0,-0.002182,0.001091,0.001091,-0.00,0.00,0.000255,0.125000,-0.000048,-0.000062,0.000000,0.000000,0.000000,0.000000,0.000032,-0.000364,-0.000037,0.124567,0.125368,0.124705,0.125360,921,962,937,962
9718,0,-0.001091,0.001091,0.002182,0.00,0.00,-0.000421,0.125000,-0.000027,-0.000063,0.000000,0.000000,0.000000,0.000000,0.000016,-0.000380,0.000054,0.124658,0.125310,0.124582,0.125450,921,962,937,962
9738,0,-0.001091,0.001091,0.003272,0.00,0.00,-0.000374,0.124000,-0.000027,-0.000063,0.000000,0.000000,0.000000,0.000000,0.000017,-0.000396,0.000050,0.123636,0.124329,0.123571,0.124463,920,961,936,962
9758,0,-0.001091,0.001091,0.003272,0.00,0.00,0.000641,0.124000,-0.000028,-0.000064,0.000000,0.000000,0.000000,0.000000,0.000018,-0.000412,-0.000086,0.123483,0.124480,0.123692,0.124345,920,962,936,961
9778,0,-0.001091,0.001091,0.003272,0.00,0.00,0.000128,0.125000,-0.000028,-0.000064,0.000000,0.000000,0.000000,0.000000,0.000020,-0.000429,-0.000020,0.124532,0.125429,0.124611,0.125429,921,962,937,962
9798,0,-0.001091,0.001091,0.003272,0.00,0.00,-0.000096,0.124000,-0.000028,-0.000065,0.000000,0.000000,0.000000,0.000000,0.000021,-0.000445,0.000010,0.123543,0.124414,0.123566,0.124477,920,962,936,962
9818,0,-0.002182,0.001091,0.003272,-0.00,0.00,0.000316,0.124000,-0.000051,-0.000066,0.000000,0.000000,0.000000,0.000000,0.000042,-0.000462,-0.000045,0.123451,0.124466,0.123625,0.124459,920,962,936,962
9838,0,-0.002182,0.001091,0.003272,0.00,0.00,-0.000241,0.124000,-0.000052,-0.000066,0.000000,0.000000,0.000000,0.000000,0.000044,-0.000479,0.000029,0.123505,0.124406,0.123536,0.124552,920,962,936,962
9858,0,-0.001091,0.001091,0.003272,0.00,0.00,-0.000307,0.124000,-0.000031,-0.000067,0.000000,0.000000,0.000000,0.000000,0.000028,-0.000496,0.000039,0.123515,0.124430,0.123493,0.124563,920,962,936,962
9878,0,-0.001091,0.001091,0.003272,0.00,0.00,0.000121,0.125000,-0.000031,-0.000067,0.000000,0.000000,0.000000,0.000000,0.000029,-0.000513,-0.000018,0.124440,0.125502,0.124534,0.125525,921,962,937,962
9898,0,-0.001091,0.001091,0.003272,0.00,0.00,-0.000159,0.124000,-0.000032,-0.000068,0.000000,0.000000,0.000000,0.000000,0.000031,-0.000531,0.000019,0.123458,0.124481,0.123480,0.124581,920,962,936,962
9918,0,-0.002182,0.001091,0.003272,-0.00,0.00,0.000517,0.124000,-0.000055,-0.000068,0.000000,0.000000,0.000000,0.000000,0.000051,-0.000548,-0.000071,0.123329,0.124568,0.123574,0.124529,920,962,936,962
9939,0,-0.002182,0.001091,0.003272,0.00,0.00,0.000423,0.077000,-0.000056,-0.000069,0.000000,0.000000,0.000000,0.000000,0.000054,-0.000566,-0.000061,0.076319,0.077573,0.076549,0.077559,881,923,898,923
9959,0,-0.002182,0.001091,0.003272,0.00,0.00,-0.000601,0.077000,-0.000057,-0.000069,0.000000,0.000000,0.000000,0.000000,0.000057,-0.000584,0.000075,0.076434,0.077452,0.076397,0.077716,881,923,898,923
9979,0,-0.001091,0.001091,0.003272,0.00,0.00,-0.000775,0.077000,-0.000035,-0.000070,0.000000,0.000000,0.000000,0.000000,0.000041,-0.000602,0.000102,0.076459,0.077460,0.076336,0.077745,881,923,898,923
9999,0,-0.001091,0.001091,0.003272,0.00,0.00,-0.000536,0.070000,-0.000036,-0.000070,0.000000,0.000000,0.000000,0.000000,0.000042,-0.000621,0.000073,0.069411,0.070505,0.069348,0.070736,876,917,892,918
10019,0,-0.001091,0.001091,0.003272,0.00,0.00,0.000517,0.070000,-0.000036,-0.000071,0.000000,0.000000,0.000000,0.000000,0.000044,-0.000639,-0.000066,0.069251,0.070661,0.069471,0.070617,875,917,892,917
10039,0,-0.001091,0.001091,0.003272,0.00,0.00,0.000499,0.070000,-0.000037,-0.000072,0.000000,0.000000,0.000000,0.000000,0.000046,-0.000658,-0.000066,0.069231,0.070678,0.069454,0.070637,875,918,892,917
10059,0,-0.002182,0.001091,0.003272,-0.00,0.00,0.000024,0.070000,-0.000060,-0.000072,0.000000,0.000000,0.000000,0.000000,0.000066,-0.000676,-0.000005,0.069253,0.070615,0.069395,0.070738,875,917,892,918
10079,0,-0.001091,0.001091,0.003272,0.00,0.00,-0.000787,0.070000,-0.000038,-0.000073,0.000000,0.000000,0.000000,0.000000,0.000050,-0.000695,0.000105,0.069359,0.070541,0.069250,0.070850,875,917,892,918
10099,0,-0.001091,0.001091,0.003272,0.00,0.00,-0.000812,0.070000,-0.000039,-0.000073,0.000000,0.000000,0.000000,0.000000,0.000052,-0.000715,0.000112,0.069345,0.070551,0.069226,0.070878,875,917,892,918
10119,0,0.000000,0.001091,0.003272,0.00,0.00,-0.000421,0.070000,-0.000017,-0.000074,0.000000,0.000000,0.000000,0.000000,0.000035,-0.000734,0.000063,0.069295,0.070636,0.069238,0.070832,875,917,892,918
10144,0,0.000000,0.000000,0.003272,0.00,-0.00,0.000098,0.070000,-0.000017,-0.000019,0.000000,0.000000,0.000000,0.000000,0.000035,-0.000671,-0.000005,0.069289,0.070640,0.069369,0.070702,875,917,892,918
10166,0,0.000000,0.000000,0.003272,0.00,0.00,0.000507,0.070000,-0.000017,-0.000019,0.000000,0.000000,0.000000,0.000000,0.000036,-0.000676,-0.000060,0.069228,0.070700,0.069420,0.070652,875,918,892,917
10188,0,-0.001091,0.000000,0.003272,-0.00,0.00,0.000543,0.071000,-0.000039,-0.000019,0.000000,0.000000,0.000000,0.000000,0.000056,-0.000681,-0.000067,0.070196,0.071693,0.070442,0.071669,876,918,893,918
10209,0,-0.001091,0.000000,0.002182,0.00,0.00,-0.000150,0.071000,-0.000040,-0.000019,0.000000,0.000000,0.000000,0.000000,0.000057,-0.000686,0.000023,0.070280,0.071605,0.070349,0.071766,876,918,893,918
10229,0,0.000000,0.000000,0.002182,0.00,0.00,-0.000213,0.072000,-0.000018,-0.000019,0.000000,0.000000,0.000000,0.000000,0.000040,-0.000691,0.000032,0.071301,0.072618,0.071317,0.072763,877,919,893,919
10249,0,0.000000,0.000000,0.002182,0.00,0.00,0.000110,0.072000,-0.000018,-0.000019,0.000000,0.000000,0.000000,0.000000,0.000041,-0.000696,-0.000010,0.071254,0.072665,0.071355,0.072726,877,919,893,919
10269,0,0.000000,0.000000,0.002182,0.00,0.00,0.000205,0.072000,-0.000018,-0.000019,0.000000,0.000000,0.000000,0.000000,0.000041,-0.000701,-0.000023,0.071235,0.072682,0.071364,0.072719,877,919,893,919
10291,0,0.000000,0.000000,0.002182,0.00,0.00,0.000056,0.072000,-0.000018,-0.000019,0.000000,0.000000,0.000000,0.000000,0.000042,-0.000705,-0.000004,0.071248,0.072668,0.071341,0.072743,877,919,893,919
10311,0,0.000000,0.000000,0.002182,0.00,0.00,-0.000034,0.072000,-0.000018,-0.000019,0.000000,0.000000,0.000000,0.000000,0.000043,-0.000710,0.000007,0.071254,0.072660,0.071325,0.072761,877,919,893,919
10330,0,-0.001091,0.000000,0.002182,-0.00,0.00,0.000145,0.072000,-0.000040,-0.000019,0.000000,0.000000,0.000000,0.000000,0.000063,-0.000715,-0.000017,0.071206,0.072669,0.071364,0.072761,877,919,893,919
10350,0,-0.001091,0.000000,0.002182,0.00,0.00,0.000151,0.072000,-0.000041,-0.000019,0.000000,0.000000,0.000000,0.000000,0.000064,-0.000720,-0.000018,0.071197,0.072674,0.071362,0.072767,877,919,893,919
10370,0,-0.001091,0.001091,0.002182,0.00,0.00,0.000320,0.072000,-0.000041,-0.000074,0.000000,0.000000,0.000000,0.000000,0.000066,-0.000808,-0.000041,0.071084,0.072783,0.071300,0.072833,877,919,893,919
10390,0,-0.001091,0.001091,0.002182,0.00,0.00,0.000033,0.072000,-0.000042,-0.000075,0.000000,0.000000,0.000000,0.000000,0.000068,-0.000828,-0.000005,0.071099,0.072764,0.071245,0.072892,877,919,893,919
10410,0,-0.001091,0.001091,0.002182,0.00,0.00,-0.000298,0.072000,-0.000042,-0.000075,0.000000,0.000000,0.000000,0.000000,0.000070,-0.000848,0.000040,0.071121,0.072739,0.071182,0.072958,877,919,893,919
10430,0,-0.001091,0.001091,0.002182,0.00,0.00,-0.000319,0.072000,-0.000043,-0.000076,0.000000,0.000000,0.000000,0.000000,0.000072,-0.000869,0.000044,0.071103,0.072753,0.071160,0.072985,877,919,893,919
10450,0,0.000000,0.001091,0.002182,0.00,0.00,-0.000048,0.072000,-0.000021,-0.000077,0.000000,0.000000,0.000000,0.000000,0.000055,-0.000889,0.000009,0.071065,0.072825,0.071156,0.072954,877,919,893,919
10470,0,0.000000,0.001091,0.002182,0.00,0.00,0.000112,0.072000,-0.000021,-0.000077,0.000000,0.000000,0.000000,0.000000,0.000056,-0.000910,-0.000012,0.071022,0.072866,0.071157,0.072954,877,919,893,919
10490,0,0.000000,0.001091,0.002182,0.00,0.00,0.000022,0.073000,-0.000021,-0.000078,0.000000,0.000000,0.000000,0.000000,0.000057,-0.000931,-0.000000,0.072011,0.073875,0.072126,0.073988,878,920,894,920
10510,0,0.000000,0.001091,0.002182,0.00,0.00,-0.000239,0.078000,-0.000021,-0.000078,0.000000,0.000000,0.000000,0.000000,0.000057,-0.000953,0.000034,0.077024,0.078861,0.077070,0.079045,882,924,898,924
10530,0,0.000000,0.001091,0.002182,0.00,0.00,-0.000170,0.099000,-0.000021,-0.000079,0.000000,0.000000,0.000000,0.000000,0.000058,-0.000974,0.000026,0.097994,0.099890,0.098058,0.100059,899,941,915,942
10550,0,0.000000,0.001091,0.002182,0.00,0.00,0.000057,0.099000,-0.000021,-0.000079,0.000000,0.000000,0.000000,0.000000,0.000059,-0.000996,-0.000003,0.097942,0.099940,0.098066,0.100052,899,941,915,942
10570,0,0.000000,0.001091,0.002182,0.00,0.00,0.000103,0.121000,-0.000021,-0.000080,0.000000,0.000000,0.000000,0.000000,0.000060,-0.001018,-0.000010,0.119913,0.121968,0.120052,0.122068,917,960,933,960
10590,0,0.000000,0.001091,0.002182,0.00,0.00,-0.000056,0.121000,-0.000021,-0.000081,0.000000,0.000000,0.000000,0.000000,0.000060,-0.001040,0.000011,0.119911,0.121968,0.120010,0.122111,917,960,933,960
10610,0,0.000000,0.001091,0.002182,0.00,0.00,-0.000057,0.134000,-0.000021,-0.000081,0.000000,0.000000,0.000000,0.000000,0.000061,-0.001062,0.000012,0.132888,0.134989,0.132988,0.135135,928,970,944,970
10630,0,0.000000,0.001091,0.002182,0.00,0.00,-0.000027,0.134000,-0.000021,-0.000082,0.000000,0.000000,0.000000,0.000000,0.000062,-0.001084,0.000008,0.132861,0.135015,0.132970,0.135154,927,970,944,970
10650,0,0.000000,0.001091,0.002182,0.00,0.00,-0.000127,0.134000,-0.000021,-0.000082,0.000000,0.000000,0.000000,0.000000,0.000063,-0.001107,0.000021,0.132852,0.135023,0.132934,0.135191,927,970,944,970
10670,0,-0.001091,0.001091,0.002182,-0.00,0.00,0.000401,0.134000,-0.000043,-0.000083,0.000000,0.000000,0.000000,0.000000,0.000083,-0.001130,-0.000048,0.132739,0.135096,0.133001,0.135164,927,970,944,970
10690,0,-0.001091,0.000000,0.002182,0.00,-0.00,0.000842,0.134000,-0.000044,-0.000028,0.000000,0.000000,0.000000,0.000000,0.000085,-0.001070,-0.000109,0.132736,0.135095,0.133124,0.135045,927,970,944,970
10710,0,-0.002182,0.000000,0.002182,-0.00,0.00,0.000839,0.134000,-0.000067,-0.000028,0.000000,0.000000,0.000000,0.000000,0.000106,-0.001078,-0.000113,0.132703,0.135085,0.133142,0.135070,927,970,944,970
10730,0,-0.003272,0.000000,0.003272,-0.00,0.00,-0.000381,0.134000,-0.000090,-0.000028,0.000000,0.000000,0.000000,0.000000,0.000129,-0.001085,0.000045,0.132831,0.134912,0.132999,0.135258,927,970,944,970
10755,0,-0.001091,0.001091,0.004363,0.00,0.00,-0.001356,0.134000,-0.000047,-0.000083,0.000000,0.000000,0.000000,0.000000,0.000095,-0.001176,0.000177,0.132906,0.134904,0.132743,0.135447,928,970,944,971
10777,0,0.001091,0.001091,0.004363,0.00,0.00,-0.001490,0.133000,-0.000003,-0.000084,0.000000,0.000000,0.000000,0.000000,0.000059,-0.001199,0.000202,0.131944,0.133938,0.131658,0.134460,927,969,943,970
10796,0,0.000000,0.000000,0.004363,-0.00,-0.00,0.000220,0.133000,-0.000025,-0.000030,0.000000,0.000000,0.000000,0.000000,0.000078,-0.001140,-0.000018,0.131765,0.134080,0.131956,0.134199,927,969,943,970
10818,0,-0.001091,0.000000,0.004363,-0.00,0.00,0.001552,0.134000,-0.000047,-0.000030,0.000000,0.000000,0.000000,0.000000,0.000098,-0.001148,-0.000196,0.132558,0.135246,0.133147,0.135049,927,970,944,970
10840,0,-0.002182,0.000000,0.004363,-0.00,0.00,0.000600,0.134000,-0.000070,-0.000030,0.000000,0.000000,0.000000,0.000000,0.000119,-0.001156,-0.000078,0.132647,0.135115,0.133042,0.135197,927,970,944,970
10860,0,-0.002182,0.000000,0.003272,0.00,0.00,-0.000489,0.134000,-0.000071,-0.000030,0.000000,0.000000,0.000000,0.000000,0.000123,-0.001164,0.000064,0.132777,0.134977,0.132896,0.135350,927,970,944,970
10880,0,-0.001091,0.000000,0.003272,0.00,0.00,-0.001362,0.134000,-0.000050,-0.000030,0.000000,0.000000,0.000000,0.000000,0.000107,-0.001172,0.000182,0.132903,0.134882,0.132753,0.135461,928,970,944,971
10901,0,0.000000,0.000000,0.003272,0.00,0.00,-0.000196,0.134000,-0.000028,-0.000030,0.000000,0.000000,0.000000,0.000000,0.000090,-0.001180,0.000035,0.132764,0.135055,0.132876,0.135305,927,970,944,970
10921,0,0.000000,0.000000,0.003272,0.00,0.00,0.000875,0.134000,-0.000028,-0.000030,0.000000,0.000000,0.000000,0.000000,0.000092,-0.001188,-0.000107,0.132614,0.135203,0.133010,0.135173,927,970,944,970
10941,0,-0.001091,0.000000,0.003272,-0.00,0.00,0.000845,0.134000,-0.000050,-0.000030,0.000000,0.000000,0.000000,0.000000,0.000112,-0.001196,-0.000107,0.132585,0.135192,0.133023,0.135200,927,970,944,970
10961,0,-0.001091,0.000000,0.003272,0.00,0.00,0.000413,0.133000,-0.000051,-0.000030,0.000000,0.000000,0.000000,0.000000,0.000114,-0.001204,-0.000055,0.131627,0.134144,0.131965,0.134264,926,969,943,970
10981,0,-0.002182,0.000000,0.003272,-0.00,0.00,0.000326,0.133000,-0.000074,-0.000030,0.000000,0.000000,0.000000,0.000000,0.000136,-0.001212,-0.000045,0.131607,0.134122,0.131969,0.134302,926,969,943,970
11001,0,-0.002182,0.000000,0.003272,0.00,0.00,-0.000605,0.133000,-0.000075,-0.000030,0.000000,0.000000,0.000000,0.000000,0.000139,-0.001220,0.000076,0.131717,0.134004,0.131843,0.134436,927,969,943,970
11021,0,-0.001091,0.000000,0.003272,0.00,0.00,-0.001187,0.133000,-0.000053,-0.000030,0.000000,0.000000,0.000000,0.000000,0.000124,-0.001228,0.000157,0.131805,0.133947,0.131739,0.134510,927,969,943,970
11041,0,0.000000,0.000000,0.003272,0.00,0.00,-0.000938,0.133000,-0.000032,-0.000030,0.000000,0.000000,0.000000,0.000000,0.000107,-0.001236,0.000131,0.131787,0.133999,0.131740,0.134474,927,969,943,970
11061,0,0.001091,0.000000,0.003272,0.00,0.00,-0.000081,0.133000,-0.000009,-0.000030,0.000000,0.000000,0.000000,0.000000,0.000090,-0.001245,0.000022,0.131688,0.134133,0.131823,0.134356,927,969,943,970
11081,0,0.001091,0.000000,0.003272,0.00,0.00,0.000045,0.133000,-0.000009,-0.000030,0.000000,0.000000,0.000000,0.000000,0.000089,-0.001253,0.000006,0.131663,0.134158,0.131831,0.134348,927,970,943,970
11101,0,0.001091,0.000000,0.003272,0.00,0.00,0.001182,0.132000,-0.000008,-0.000030,0.000000,0.000000,0.000000,0.000000,0.000089,-0.001261,-0.000145,0.130504,0.133317,0.130973,0.133205,926,969,942,969
11121,0,-0.001091,0.000000,0.003272,-0.00,0.00,0.001074,0.132000,-0.000052,-0.000030,0.000000,0.000000,0.000000,0.000000,0.000127,-0.001269,-0.000137,0.130466,0.133279,0.130996,0.133259,926,969,942,969
11141,0,-0.002182,0.000000,0.003272,-0.00,0.00,0.000215,0.132000,-0.000075,-0.000030,0.000000,0.000000,0.000000,0.000000,0.000149,-0.001277,-0.000030,0.130544,0.133158,0.130901,0.133397,926,969,942,969
11161,0,-0.002182,0.000000,0.003272,0.00,0.00,-0.000764,0.132000,-0.000076,-0.000030,0.000000,0.000000,0.000000,0.000000,0.000153,-0.001286,0.000099,0.130660,0.133034,0.130768,0.133538,926,969,942,969
11181,0,-0.001091,0.000000,0.003272,0.00,0.00,-0.001128,0.132000,-0.000055,-0.000030,0.000000,0.000000,0.000000,0.000000,0.000138,-0.001294,0.000151,0.130720,0.133005,0.130693,0.133583,926,969,942,969
11201,0,0.000000,0.000000,0.003272,0.00,0.00,0.000003,0.132000,-0.000033,-0.000030,0.000000,0.000000,0.000000,0.000000,0.000121,-0.001302,0.000008,0.130584,0.133173,0.130811,0.133431,926,969,942,969
11221,0,0.000000,0.000000,0.003272,0.00,0.00,0.000884,0.132000,-0.000033,-0.000030,0.000000,0.000000,0.000000,0.000000,0.000123,-0.001311,-0.000109,0.130458,0.133297,0.130921,0.133324,926,969,942,969
11242,0,-0.001091,0.000000,0.003272,-0.00,0.00,0.000070,0.132000,-0.000056,-0.000030,0.000000,0.000000,0.000000,0.000000,0.000143,-0.001319,-0.000006,0.130532,0.133182,0.130830,0.133456,926,969,942,969
11261,0,0.000000,0.000000,0.003272,0.00,0.00,0.000151,0.132000,-0.000034,-0.000030,0.000000,0.000000,0.000000,0.000000,0.000127,-0.001327,-0.000017,0.130529,0.133218,0.130816,0.133437,926,969,942,969
11282,0,0.000000,0.000000,0.002182,0.00,0.00,-0.000122,0.132000,-0.000034,-0.000030,0.000000,0.000000,0.000000,0.000000,0.000128,-0.001335,0.000018,0.130555,0.133189,0.130774,0.133482,926,969,942,969
11301,0,0.000000,0.000000,0.002182,0.00,0.00,-0.000755,0.131000,-0.000034,-0.000030,0.000000,0.000000,0.000000,0.000000,0.000129,-0.001344,0.000103,0.129630,0.132112,0.129683,0.132576,925,968,941,968
11321,0,0.001091,0.000000,0.002182,0.00,0.00,-0.000562,0.131000,-0.000011,-0.000030,0.000000,0.000000,0.000000,0.000000,0.000111,-0.001352,0.000081,0.129618,0.132160,0.129678,0.132545,925,968,941,968
11342,0,0.001091,0.000000,0.002182,0.00,0.00,-0.000052,0.132000,-0.000011,-0.000030,0.000000,0.000000,0.000000,0.000000,0.000111,-0.001361,0.000017,0.130545,0.133232,0.130734,0.133489,926,969,942,969
11362,0,0.001091,0.000000,0.002182,0.00,0.00,0.000508,0.132000,-0.000010,-0.000030,0.000000,0.000000,0.000000,0.000000,0.000111,-0.001369,-0.000057,0.130463,0.133314,0.130799,0.133424,926,969,942,969
11389,0,0.000000,0.000000,0.002182,-0.00,0.00,0.000894,0.132000,-0.000032,-0.000030,0.000000,0.000000,0.000000,0.000000,0.000130,-0.001377,-0.000110,0.130382,0.133357,0.130863,0.133397,925,969,942,969
11411,0,-0.001091,0.000000,0.002182,-0.00,0.00,0.000316,0.132000,-0.000055,-0.000030,0.000000,0.000000,0.000000,0.000000,0.000151,-0.001386,-0.000039,0.130424,0.133274,0.130804,0.133497,925,969,942,969
11431,0,0.000000,0.000000,0.002182,0.00,0.00,0.000124,0.132000,-0.000033,-0.000030,0.000000,0.000000,0.000000,0.000000,0.000134,-0.001394,-0.000016,0.130456,0.133276,0.130756,0.133513,926,969,942,969
11451,0,0.000000,0.000000,0.002182,0.00,0.00,0.000314,0.132000,-0.000033,-0.000030,0.000000,0.000000,0.000000,0.000000,0.000136,-0.001403,-0.000041,0.130420,0.133308,0.130774,0.133497,925,969,942,969
11471,0,0.000000,0.000000,0.002182,0.00,0.00,0.000200,0.132000,-0.000033,-0.000030,0.000000,0.000000,0.000000,0.000000,0.000137,-0.001411,-0.000028,0.130424,0.133302,0.130754,0.133520,925,969,942,969
11492,0,-0.001091,0.001091,0.002182,-0.00,0.00,0.000619,0.132000,-0.000055,-0.000085,0.000000,0.000000,0.000000,0.000000,0.000157,-0.001504,-0.000085,0.130254,0.133431,0.130738,0.133576,925,969,942,969
11512,0,-0.001091,0.001091,0.002182,0.00,0.00,0.000398,0.132000,-0.000056,-0.000085,0.000000,0.000000,0.000000,0.000000,0.000160,-0.001529,-0.000059,0.130252,0.133428,0.130690,0.133630,925,969,942,969
11532,0,-0.002182,0.001091,0.002182,-0.00,0.00,0.000902,0.132000,-0.000079,-0.000086,0.000000,0.000000,0.000000,0.000000,0.000182,-0.001554,-0.000128,0.130136,0.133500,0.130755,0.133609,925,969,942,969
11551,0,-0.002182,0.001091,0.002182,0.00,0.00,0.000805,0.132000,-0.000080,-0.000087,0.000000,0.000000,0.000000,0.000000,0.000186,-0.001580,-0.000120,0.130114,0.133514,0.130726,0.133646,925,969,942,969
11572,0,-0.002182,0.001091,0.002182,0.00,0.00,-0.000098,0.132000,-0.000081,-0.000087,0.000000,0.000000,0.000000,0.000000,0.000190,-0.001606,-0.000006,0.130198,0.133422,0.130590,0.133791,925,969,942,969
11592,0,-0.002182,0.000000,0.002182,0.00,-0.00,-0.000416,0.132000,-0.000082,-0.000033,0.000000,0.000000,0.000000,0.000000,0.000195,-0.001548,0.000037,0.130294,0.133317,0.130610,0.133780,925,969,942,969
11612,0,-0.002182,0.000000,0.002182,0.00,0.00,-0.000220,0.132000,-0.000083,-0.000033,0.000000,0.000000,0.000000,0.000000,0.000199,-0.001558,0.000013,0.130256,0.133346,0.130628,0.133770,925,969,942,969
11632,0,-0.001091,0.001091,0.002182,0.00,0.00,-0.000257,0.132000,-0.000062,-0.000088,0.000000,0.000000,0.000000,0.000000,0.000184,-0.001652,0.000019,0.130184,0.133448,0.130513,0.133855,925,969,942,969
11652,0,-0.001091,0.001091,0.002182,0.00,0.00,-0.000097,0.132000,-0.000062,-0.000088,0.000000,0.000000,0.000000,0.000000,0.000187,-0.001678,-0.000000,0.130135,0.133491,0.130509,0.133865,925,969,942,969
11672,0,-0.001091,0.000000,0.002182,0.00,-0.00,-0.000141,0.132000,-0.000063,-0.000034,0.000000,0.000000,0.000000,0.000000,0.000190,-0.001621,0.000006,0.130195,0.133424,0.130563,0.133817,925,969,942,969
11693,0,-0.001091,0.000000,0.002182,0.00,0.00,0.000261,0.132000,-0.000064,-0.000034,0.000000,0.000000,0.000000,0.000000,0.000193,-0.001631,-0.000046,0.130130,0.133483,0.130609,0.133778,925,969,942,969
11713,0,-0.002182,0.000000,0.002182,-0.00,0.00,0.000966,0.132000,-0.000087,-0.000034,0.000000,0.000000,0.000000,0.000000,0.000216,-0.001641,-0.000140,0.130004,0.133565,0.130715,0.133716,925,969,942,969
11733,0,-0.003272,0.000000,0.001091,-0.00,0.00,0.001366,0.132000,-0.000110,-0.000034,0.000000,0.000000,0.000000,0.000000,0.000239,-0.001650,-0.000198,0.129912,0.133609,0.130787,0.133692,925,969,942,969
11752,0,-0.004363,-0.001091,0.001091,-0.00,-0.00,0.000837,0.132000,-0.000134,0.000021,0.000000,0.000000,0.000000,0.000000,0.000265,-0.001576,-0.000137,0.130023,0.133448,0.130825,0.133704,925,969,942,969
11773,0,-0.005454,0.000000,0.001091,-0.00,0.00,0.001614,0.132000,-0.000159,-0.000033,0.000000,0.000000,0.000000,0.000000,0.000291,-0.001653,-0.000244,0.129812,0.133606,0.130882,0.133701,925,969,942,969
11793,0,-0.007636,0.000000,0.001091,-0.00,0.00,0.001541,0.132000,-0.000207,-0.000033,0.000000,0.000000,0.000000,0.000000,0.000339,-0.001663,-0.000244,0.129755,0.133568,0.130919,0.133758,925,969,942,969
11813,0,-0.009817,0.000000,0.000000,-0.00,0.00,0.001588,0.132000,-0.000255,-0.000033,0.000000,0.000000,0.000000,0.000000,0.000389,-0.001673,-0.000259,0.129679,0.133542,0.130975,0.133803,925,969,942,969
11833,0,-0.010908,-0.001091,0.001091,-0.00,-0.00,0.000104,0.132000,-0.000283,0.000022,0.000000,0.000000,0.000000,0.000000,0.000424,-0.001598,-0.000073,0.129905,0.133248,0.130899,0.133949,925,969,942,969
11853,0,-0.010908,0.000000,0.001091,0.00,0.00,0.000615,0.132000,-0.000289,-0.000033,0.000000,0.000000,0.000000,0.000000,0.000440,-0.001675,-0.000141,0.129744,0.133376,0.130906,0.133975,925,969,942,969
11873,0,-0.011999,0.001091,0.003272,-0.00,0.00,0.001311,0.132000,-0.000317,-0.000088,0.000000,0.000000,0.000000,0.000000,0.000477,-0.001769,-0.000236,0.129518,0.133529,0.130943,0.134010,925,969,942,969
11893,0,-0.013090,0.000000,0.004363,-0.00,-0.00,0.000095,0.132000,-0.000346,-0.000033,0.000000,0.000000,0.000000,0.000000,0.000514,-0.001712,-0.000084,0.129689,0.133282,0.130886,0.134142,925,969,942,969
11913,0,-0.013090,0.000000,0.005454,0.00,0.00,0.000461,0.132000,-0.000353,-0.000033,0.000000,0.000000,0.000000,0.000000,0.000535,-0.001722,-0.000133,0.129611,0.133320,0.130946,0.134124,925,969,942,969
11935,0,-0.014181,0.000000,0.006545,-0.00,0.00,0.000793,0.132000,-0.000382,-0.000033,0.000000,0.000000,0.000000,0.000000,0.000575,-0.001732,-0.000179,0.129514,0.133336,0.131022,0.134128,925,969,942,969
11955,0,-0.015272,0.000000,0.007636,-0.00,0.00,0.000996,0.132000,-0.000412,-0.000033,0.000000,0.000000,0.000000,0.000000,0.000617,-0.001742,-0.000210,0.129431,0.133335,0.131085,0.134148,925,969,942,969
11974,0,-0.017453,-0.001091,0.008727,-0.00,-0.00,0.001707,0.132000,-0.000466,0.000022,0.000000,0.000000,0.000000,0.000000,0.000679,-0.001667,-0.000309,0.129344,0.133297,0.131322,0.134037,925,969,943,969
11999,0,-0.019635,-0.001091,0.009817,-0.00,0.00,0.001925,0.132000,-0.000520,0.000023,0.000000,0.000000,0.000000,0.000000,0.000746,-0.001660,-0.000348,0.129247,0.133262,0.131434,0.134057,925,969,943,969
12021,0,-0.020726,-0.001091,0.010908,-0.00,0.00,0.001573,0.132000,-0.000553,0.000023,0.000000,0.000000,0.000000,0.000000,0.000796,-0.001652,-0.000313,0.129239,0.133170,0.131457,0.134134,925,969,943,969
12043,0,-0.022907,-0.001091,0.011999,-0.00,0.00,0.001838,0.132000,-0.000609,0.000024,0.000000,0.000000,0.000000,0.000000,0.000867,-0.001644,-0.000357,0.129131,0.133134,0.131581,0.134154,924,969,943,969
12063,0,-0.023998,-0.001091,0.013090,-0.00,0.00,0.001540,0.132000,-0.000644,0.000025,0.000000,0.000000,0.000000,0.000000,0.000923,-0.001636,-0.000330,0.129112,0.133042,0.131617,0.134229,924,969,943,970
12083,0,-0.026180,-0.001091,0.015272,-0.00,0.00,0.002197,0.132000,-0.000702,0.000025,0.000000,0.000000,0.000000,0.000000,0.001000,-0.001627,-0.000425,0.128948,0.133052,0.131797,0.134202,924,969,943,970
12103,0,-0.027271,-0.002182,0.016362,-0.00,-0.00,-0.000109,0.132000,-0.000738,0.000081,0.000000,0.000000,0.000000,0.000000,0.001061,-0.001534,-0.000136,0.129269,0.132609,0.131663,0.134459,925,968,943,970
12123,0,-0.027271,-0.001091,0.018544,0.00,0.00,-0.001012,0.132000,-0.000753,0.000027,0.000000,0.000000,0.000000,0.000000,0.001105,-0.001592,-0.000017,0.129285,0.132505,0.131530,0.134680,925,968,943,970
12144,0,-0.026180,-0.001091,0.020726,0.00,0.00,0.000270,0.132000,-0.000746,0.000028,0.000000,0.000000,0.000000,0.000000,0.001131,-0.001583,-0.000179,0.129108,0.132631,0.131727,0.134534,924,968,943,970
12164,0,-0.026180,-0.001091,0.022907,0.00,0.00,-0.001027,0.132000,-0.000760,0.000028,0.000000,0.000000,0.000000,0.000000,0.001175,-0.001573,-0.000011,0.129241,0.132410,0.131612,0.134737,925,968,943,970
12184,0,-0.023998,-0.002182,0.025089,0.00,-0.00,-0.000921,0.132000,-0.000729,0.000084,0.000000,0.000000,0.000000,0.000000,0.001181,-0.001479,-0.000019,0.129322,0.132317,0.131721,0.134641,925,968,943,970
12204,0,-0.022907,-0.002182,0.028362,0.00,0.00,-0.001220,0.132000,-0.000720,0.000086,0.000000,0.000000,0.000000,0.000000,0.001204,-0.001451,0.000026,0.129371,0.132221,0.131727,0.134681,925,968,943,970
12224,0,-0.021817,-0.002182,0.031634,0.00,0.00,-0.003077,0.132000,-0.000710,0.000087,0.000000,0.000000,0.000000,0.000000,0.001226,-0.001423,0.000276,0.129627,0.131920,0.131528,0.134925,925,968,943,970
12244,0,-0.017453,-0.002182,0.034907,0.00,0.00,-0.002245,0.132000,-0.000633,0.000088,0.000000,0.000000,0.000000,0.000000,0.001190,-0.001394,0.000186,0.129602,0.132018,0.131610,0.134770,925,968,943,970
12264,0,-0.016362,-0.003272,0.037088,0.00,-0.00,-0.001363,0.132000,-0.000620,0.000145,0.000000,0.000000,0.000000,0.000000,0.001206,-0.001280,0.000085,0.129598,0.131989,0.131842,0.134571,925,968,943,970
12284,0,-0.014181,-0.003272,0.040361,0.00,0.00,-0.002984,0.132000,-0.000584,0.000147,0.000000,0.000000,0.000000,0.000000,0.001202,-0.001232,0.000304,0.129870,0.131726,0.131665,0.134739,925,968,943,970
12303,0,-0.009817,-0.003272,0.043633,0.00,0.00,-0.002622,0.132000,-0.000502,0.000149,0.000000,0.000000,0.000000,0.000000,0.001157,-0.001184,0.000276,0.129935,0.131752,0.131697,0.134617,925,968,943,970
12324,0,-0.007636,-0.003272,0.045815,0.00,0.00,-0.002413,0.132000,-0.000463,0.000151,0.000000,0.000000,0.000000,0.000000,0.001145,-0.001135,0.000264,0.129984,0.131726,0.131745,0.134544,925,968,943,970
12344,0,-0.004363,-0.002182,0.047997,0.00,0.00,-0.003651,0.132000,-0.000400,0.000098,0.000000,0.000000,0.000000,0.000000,0.001111,-0.001171,0.000441,0.130159,0.131619,0.131499,0.134722,925,967,943,970
12364,0,-0.001091,-0.002182,0.047997,0.00,0.00,-0.002482,0.132000,-0.000335,0.000099,0.000000,0.000000,0.000000,0.000000,0.001072,-0.001138,0.000310,0.130100,0.131756,0.131623,0.134521,925,968,943,970
12384,0,0.000000,-0.003272,0.047997,0.00,-0.00,-0.000039,0.132000,-0.000313,0.000156,0.000000,0.000000,0.000000,0.000000,0.001068,-0.001020,0.000007,0.129919,0.131945,0.132040,0.134095,925,968,943,969
12404,0,-0.001091,-0.003272,0.046906,-0.00,0.00,0.002475,0.132000,-0.000336,0.000158,0.000000,0.000000,0.000000,0.000000,0.001101,-0.000969,-0.000320,0.129610,0.132189,0.132452,0.133749,925,968,944,969
12424,0,-0.004363,-0.004363,0.045815,-0.00,-0.00,0.002307,0.132000,-0.000404,0.000215,0.000000,0.000000,0.000000,0.000000,0.001174,-0.000832,-0.000314,0.129681,0.131972,0.132656,0.133692,925,968,944,969
12444,0,-0.006545,-0.004363,0.044724,-0.00,0.00,0.000477,0.132000,-0.000451,0.000218,0.000000,0.000000,0.000000,0.000000,0.001232,-0.000761,-0.000089,0.129918,0.131618,0.132561,0.133903,925,967,944,969
12464,0,-0.005454,-0.004363,0.044724,0.00,0.00,-0.001367,0.132000,-0.000432,0.000220,0.000000,0.000000,0.000000,0.000000,0.001235,-0.000689,0.000148,0.130224,0.131305,0.132399,0.134072,925,967,943,969
12484,0,-0.003272,-0.003272,0.044724,0.00,0.00,-0.002208,0.132000,-0.000390,0.000168,0.000000,0.000000,0.000000,0.000000,0.001218,-0.000701,0.000266,0.130347,0.131217,0.132252,0.134185,925,967,943,970
12504,0,0.000000,-0.003272,0.043633,0.00,0.00,-0.001721,0.132000,-0.000325,0.000170,0.000000,0.000000,0.000000,0.000000,0.001179,-0.000645,0.000216,0.130392,0.131250,0.132318,0.134041,925,967,943,969
12525,0,0.001091,-0.003272,0.043633,0.00,0.00,-0.000466,0.132000,-0.000302,0.000172,0.000000,0.000000,0.000000,0.000000,0.001174,-0.000589,0.000063,0.130300,0.131351,0.132522,0.133826,925,967,944,969
12545,0,0.000000,-0.003272,0.042542,-0.00,0.00,0.000760,0.132000,-0.000324,0.000174,0.000000,0.000000,0.000000,0.000000,0.001206,-0.000532,-0.000093,0.130169,0.131419,0.132768,0.133645,925,967,944,969
12565,0,-0.001091,-0.003272,0.042542,-0.00,0.00,0.001477,0.132000,-0.000347,0.000176,0.000000,0.000000,0.000000,0.000000,0.001240,-0.000474,-0.000191,0.130095,0.131426,0.132957,0.133522,925,967,944,969
12585,0,-0.002182,-0.003272,0.042542,-0.00,0.00,0.001453,0.132000,-0.000370,0.000178,0.000000,0.000000,0.000000,0.000000,0.001275,-0.000415,-0.000197,0.130112,0.131338,0.133057,0.133493,925,967,944,969
12604,0,-0.003272,-0.003272,0.042542,-0.00,0.00,0.000397,0.132000,-0.000393,0.000180,0.000000,0.000000,0.000000,0.000000,0.001311,-0.000356,-0.000069,0.130263,0.131114,0.133025,0.133598,925,967,944,969
12631,0,-0.002182,-0.003272,0.042542,0.00,0.00,-0.000377,0.132000,-0.000373,0.000182,0.000000,0.000000,0.000000,0.000000,0.001311,-0.000296,0.000029,0.130422,0.130956,0.132986,0.133636,925,967,944,969
12651,0,-0.002182,-0.003272,0.042542,0.00,0.00,-0.001111,0.132000,-0.000374,0.000184,0.000000,0.000000,0.000000,0.000000,0.001329,-0.000235,0.000127,0.130563,0.130780,0.132967,0.133691,926,967,944,969
12673,0,-0.001091,-0.003272,0.042542,0.00,0.00,-0.001090,0.132000,-0.000353,0.000186,0.000000,0.000000,0.000000,0.000000,0.001327,-0.000174,0.000131,0.130631,0.130715,0.133022,0.133632,926,967,944,969
12694,0,0.000000,-0.003272,0.042542,0.00,0.00,-0.000614,0.132000,-0.000331,0.000188,0.000000,0.000000,0.000000,0.000000,0.001324,-0.000111,0.000076,0.130641,0.130711,0.133137,0.133511,926,967,944,969
12715,0,0.000000,-0.003272,0.042542,0.00,0.00,0.000258,0.132000,-0.000331,0.000191,0.000000,0.000000,0.000000,0.000000,0.001339,-0.000048,-0.000033,0.130580,0.130743,0.133324,0.133353,926,967,944,969
12735,0,0.000000,-0.003272,0.042542,0.00,0.00,0.000219,0.132000,-0.000331,0.000193,0.000000,0.000000,0.000000,0.000000,0.001353,0.000016,-0.000030,0.130633,0.130661,0.133399,0.133308,926,967,944,969
12755,0,0.000000,-0.003272,0.041452,0.00,0.00,-0.000428,0.132000,-0.000331,0.000195,0.000000,0.000000,0.000000,0.000000,0.001368,0.000081,0.000053,0.130765,0.130498,0.133396,0.133340,926,967,944,969
12775,0,0.000000,-0.003272,0.041452,0.00,0.00,-0.000771,0.132000,-0.000331,0.000197,0.000000,0.000000,0.000000,0.000000,0.001383,0.000146,0.000100,0.130863,0.130371,0.133429,0.133337,926,966,944,969
12795,0,0.001091,-0.003272,0.041452,0.00,0.00,0.000440,0.132000,-0.000309,0.000199,0.000000,0.000000,0.000000,0.000000,0.001378,0.000212,-0.000052,0.130781,0.130462,0.133643,0.133114,926,966,945,969
12815,0,0.000000,-0.002182,0.041452,-0.00,0.00,0.000850,0.132000,-0.000330,0.000146,0.000000,0.000000,0.000000,0.000000,0.001411,0.000193,-0.000108,0.130674,0.130504,0.133713,0.133109,926,967,945,969
12835,0,-0.001091,-0.003272,0.041452,-0.00,-0.00,0.001008,0.132000,-0.000353,0.000202,0.000000,0.000000,0.000000,0.000000,0.001445,0.000328,-0.000134,0.130749,0.130361,0.133908,0.132983,926,966,945,969
12855,0,-0.002182,-0.002182,0.041452,-0.00,0.00,0.000902,0.132000,-0.000376,0.000149,0.000000,0.000000,0.000000,0.000000,0.001481,0.000311,-0.000127,0.130703,0.130335,0.133919,0.133043,926,966,945,969
12875,0,-0.003272,-0.002182,0.041452,-0.00,0.00,0.000165,0.132000,-0.000400,0.000151,0.000000,0.000000,0.000000,0.000000,0.001518,0.000361,-0.000037,0.130805,0.130158,0.133916,0.133120,926,966,945,969
12896,0,-0.002182,-0.002182,0.041452,0.00,0.00,-0.000256,0.132000,-0.000379,0.000152,0.000000,0.000000,0.000000,0.000000,0.001519,0.000412,0.000016,0.130909,0.130053,0.133914,0.133123,926,966,945,969
12916,0,-0.002182,-0.002182,0.041452,0.00,0.00,-0.000767,0.132000,-0.000380,0.000154,0.000000,0.000000,0.000000,0.000000,0.001537,0.000463,0.000084,0.131010,0.129916,0.133915,0.133158,926,966,945,969
12936,0,-0.001091,-0.002182,0.041452,0.00,0.00,-0.000351,0.132000,-0.000359,0.000155,0.000000,0.000000,0.000000,0.000000,0.001536,0.000515,0.000035,0.131014,0.129914,0.134015,0.133056,926,966,945,969
12956,0,-0.001091,-0.002182,0.041452,0.00,0.00,0.000112,0.132000,-0.000360,0.000156,0.000000,0.000000,0.000000,0.000000,0.001553,0.000567,-0.000022,0.130992,0.129903,0.134142,0.132963,926,966,945,969
12976,0,-0.001091,-0.002182,0.041452,0.00,0.00,-0.000069,0.132000,-0.000360,0.000158,0.000000,0.000000,0.000000,0.000000,0.001570,0.000620,0.000000,0.131051,0.129810,0.134189,0.132950,926,966,945,969
