t,is_crashed,roll,pitch,yaw,p,q,r,throttle,p_cmd,q_cmd,r_cmd,roll_cmd,pitch_cmd,yaw_cmd,roll_pid_out,pitch_pid_out,yaw_pid_out,motor_fl,motor_bl,motor_fr,motor_br,pwm_fl,pwm_bl,pwm_fr,pwm_br
6964,0,0.007418,0.005236,1.256419,0.00,-0.00,-0.000004,0.005000,-0.000371,-0.000262,0.000000,0.000000,0.000000,0.000000,0.000093,-0.000000,0.000000,0.000000,0.000000,0.000000,0.000000,0,0,0,0
6982,0,0.011868,0.008378,2.261554,0.00,0.00,-0.000001,0.005000,-0.000494,-0.000376,0.000000,0.000000,0.000000,0.000000,0.000433,-0.000004,0.000000,0.000000,0.000000,0.000000,0.000000,819,819,819,819
6994,0,0.015429,0.010891,3.065662,0.00,0.00,-0.000003,0.005000,-0.000563,-0.000453,0.000000,0.000000,0.000000,0.000000,0.000791,-0.000007,0.000000,0.000000,0.000000,0.000000,0.000000,819,819,819,819
7004,0,0.018277,0.012901,-2.574237,0.00,0.00,-0.000005,0.005000,-0.000613,-0.000513,0.000000,0.000000,0.000000,0.000000,0.001095,-0.000009,0.000000,0.000000,0.000000,0.000000,0.000000,819,819,819,819
7014,0,0.020556,0.014510,-2.059607,0.00,0.00,-0.000002,0.005000,-0.000666,-0.000566,0.000000,0.000000,0.000000,0.000000,0.001298,-0.000011,0.000000,0.000000,0.000000,0.000000,0.000000,819,819,819,819
7025,0,0.022379,0.015797,-1.647904,0.00,0.00,-0.000004,0.005000,-0.000726,-0.000617,0.000000,0.000000,0.000000,0.000000,0.001409,-0.000012,0.000000,0.000000,0.000000,0.000000,0.000000,819,819,819,819
7035,0,0.023837,0.016826,-1.318541,0.00,0.00,-0.000004,0.005000,-0.000780,-0.000660,0.000000,0.000000,0.000000,0.000000,0.001482,-0.000013,0.000000,0.000000,0.000000,0.000000,0.000000,819,819,819,819
7045,0,0.025004,0.017650,-1.055051,0.00,0.00,-0.000003,0.005000,-0.000833,-0.000699,0.000000,0.000000,0.000000,0.000000,0.001513,-0.000013,0.000000,0.000000,0.000000,0.000000,0.000000,819,819,819,819
7055,0,0.025937,0.018309,-0.844259,0.00,0.00,-0.000007,0.005000,-0.000884,-0.000734,0.000000,0.000000,0.000000,0.000000,0.001513,-0.000013,0.000000,0.000000,0.000000,0.000000,0.000000,819,819,819,819
7065,0,0.026684,0.018836,-0.675626,0.00,0.00,-0.000010,0.005000,-0.000933,-0.000765,0.000000,0.000000,0.000000,0.000000,0.001488,-0.000013,0.000000,0.000000,0.000000,0.000000,0.000000,819,819,819,819
7075,0,0.027281,0.019257,-0.540719,0.00,0.00,-0.000009,0.005000,-0.000979,-0.000794,0.000000,0.000000,0.000000,0.000000,0.001448,-0.000012,0.000000,0.000000,0.000000,0.000000,0.000000,819,819,819,819
7085,0,0.027759,0.019595,-0.432793,0.00,0.00,-0.000010,0.005000,-0.001022,-0.000819,0.000000,0.000000,0.000000,0.000000,0.001399,-0.000012,0.000000,0.000000,0.000000,0.000000,0.000000,819,819,819,819
7095,0,0.028141,0.019865,-0.346453,0.00,0.00,-0.000007,0.005000,-0.001062,-0.000841,0.000000,0.000000,0.000000,0.000000,0.001344,-0.000011,0.000000,0.000000,0.000000,0.000000,0.000000,819,819,819,819
7105,0,0.028447,0.020080,-0.277381,0.00,0.00,-0.000004,0.005000,-0.001099,-0.000862,0.000000,0.000000,0.000000,0.000000,0.001284,-0.000011,0.000000,0.000000,0.000000,0.000000,0.000000,819,819,819,819
7115,0,0.028692,0.020253,-0.222123,0.00,0.00,-0.000002,0.005000,-0.001134,-0.000880,0.000000,0.000000,0.000000,0.000000,0.001222,-0.000010,0.000000,0.000000,0.000000,0.000000,0.000000,819,819,819,819
7125,0,0.028888,0.020391,-0.177917,0.00,0.00,0.000003,0.005000,-0.001166,-0.000897,0.000000,0.000000,0.000000,0.000000,0.001161,-0.000010,-0.000000,0.000000,0.000000,0.000000,0.000000,819,819,819,819
7135,0,0.029044,0.020502,-0.142552,0.00,0.00,0.000001,0.005000,-0.001196,-0.000912,0.000000,0.000000,0.000000,0.000000,0.001100,-0.000009,-0.000000,0.000000,0.000000,0.000000,0.000000,819,819,819,819
7145,0,0.029170,0.020590,-0.114260,0.00,0.00,-0.000002,0.005000,-0.001223,-0.000926,0.000000,0.000000,0.000000,0.000000,0.001041,-0.000009,0.000000,0.000000,0.000000,0.000000,0.000000,819,819,819,819
7155,0,0.029270,0.020661,-0.091626,0.00,0.00,-0.000008,0.004000,-0.001248,-0.000938,0.000000,0.000000,0.000000,0.000000,0.000986,-0.000008,0.000000,0.000000,0.000000,0.000000,0.000000,819,819,819,819
7165,0,0.029350,0.020718,-0.073519,0.00,0.00,-0.000011,0.005000,-0.001270,-0.000949,0.000000,0.000000,0.000000,0.000000,0.000934,-0.000008,0.000000,0.000000,0.000000,0.000000,0.000000,819,819,819,819
7175,0,0.029414,0.020763,-0.059034,0.00,0.00,-0.000011,0.005000,-0.001291,-0.000958,0.000000,0.000000,0.000000,0.000000,0.000885,-0.000007,0.000000,0.000000,0.000000,0.000000,0.000000,819,819,819,819
7185,0,0.029465,0.020799,-0.047445,0.00,0.00,-0.000010,0.005000,-0.001309,-0.000967,0.000000,0.000000,0.000000,0.000000,0.000839,-0.000007,0.000000,0.000000,0.000000,0.000000,0.000000,819,819,819,819
7195,0,0.029506,0.020828,-0.038174,0.00,0.00,-0.000002,0.005000,-0.001326,-0.000975,0.000000,0.000000,0.000000,0.000000,0.000797,-0.000007,0.000000,0.000000,0.000000,0.000000,0.000000,819,819,819,819
7205,0,0.029539,0.020851,-0.030758,0.00,0.00,0.000002,0.005000,-0.001342,-0.000982,0.000000,0.000000,0.000000,0.000000,0.000758,-0.000006,-0.000000,0.000000,0.000000,0.000000,0.000000,819,819,819,819
7215,0,0.029566,0.020870,-0.024824,0.00,0.00,0.000002,0.005000,-0.001356,-0.000989,0.000000,0.000000,0.000000,0.000000,0.000722,-0.000006,-0.000000,0.000000,0.000000,0.000000,0.000000,819,819,819,819
7225,0,0.029587,0.020885,-0.020078,0.00,0.00,0.000001,0.005000,-0.001368,-0.000995,0.000000,0.000000,0.000000,0.000000,0.000689,-0.000006,-0.000000,0.000000,0.000000,0.000000,0.000000,819,819,819,819
7235,0,0.029603,0.020896,-0.016280,0.00,0.00,0.000001,0.005000,-0.001380,-0.001000,0.000000,0.000000,0.000000,0.000000,0.000659,-0.000005,-0.000000,0.000000,0.000000,0.000000,0.000000,819,819,819,819
7245,0,0.029617,0.020906,-0.013243,0.00,0.00,-0.000002,0.005000,-0.001390,-0.001004,0.000000,0.000000,0.000000,0.000000,0.000633,-0.000005,0.000000,0.000000,0.000000,0.000000,0.000000,819,819,819,819
7255,0,0.029628,0.020914,-0.010812,0.00,0.00,-0.000006,0.005000,-0.001399,-0.001008,0.000000,0.000000,0.000000,0.000000,0.000608,-0.000005,0.000000,0.000000,0.000000,0.000000,0.000000,819,819,819,819
7265,0,0.029636,0.020920,-0.008868,0.00,0.00,-0.000005,0.005000,-0.001407,-0.001012,0.000000,0.000000,0.000000,0.000000,0.000584,-0.000005,0.000000,0.000000,0.000000,0.000000,0.000000,819,819,819,819
7275,0,0.029643,0.020925,-0.007313,0.00,0.00,-0.000008,0.005000,-0.001415,-0.001016,0.000000,0.000000,0.000000,0.000000,0.000563,-0.000005,0.000000,0.000000,0.000000,0.000000,0.000000,819,819,819,819
7285,0,0.029649,0.020928,-0.006069,0.00,0.00,-0.000011,0.005000,-0.001422,-0.001019,0.000000,0.000000,0.000000,0.000000,0.000544,-0.000004,0.000000,0.000000,0.000000,0.000000,0.000000,819,819,819,819
7301,0,0.029653,0.020932,-0.005073,0.00,0.00,-0.000010,0.005000,-0.001428,-0.001022,0.000000,0.000000,0.000000,0.000000,0.000527,-0.000004,0.000000,0.000000,0.000000,0.000000,0.000000,819,819,819,819
7314,0,0.029656,0.020934,-0.004277,0.00,0.00,-0.000007,0.005000,-0.001434,-0.001025,0.000000,0.000000,0.000000,0.000000,0.000512,-0.000004,0.000000,0.000000,0.000000,0.000000,0.000000,819,819,819,819
7326,0,0.029659,0.020936,-0.003640,0.00,0.00,-0.000001,0.005000,-0.001438,-0.001027,0.000000,0.000000,0.000000,0.000000,0.000499,-0.000004,0.000000,0.000000,0.000000,0.000000,0.000000,819,819,819,819
7336,0,0.029662,0.020938,-0.003130,0.00,0.00,0.000002,0.005000,-0.001443,-0.001029,0.000000,0.000000,0.000000,0.000000,0.000487,-0.000004,-0.000000,0.000000,0.000000,0.000000,0.000000,819,819,819,819
7345,0,0.029663,0.020939,-0.002722,0.00,0.00,-0.000001,0.005000,-0.001447,-0.001031,0.000000,0.000000,0.000000,0.000000,0.000475,-0.000004,0.000000,0.000000,0.000000,0.000000,0.000000,819,819,819,819
7355,0,0.029665,0.020940,-0.002396,0.00,0.00,-0.000003,0.005000,-0.001451,-0.001032,0.000000,0.000000,0.000000,0.000000,0.000465,-0.000004,0.000000,0.000000,0.000000,0.000000,0.000000,819,819,819,819
7365,0,0.029666,0.020941,-0.002135,0.00,0.00,-0.000000,0.005000,-0.001454,-0.001034,0.000000,0.000000,0.000000,0.000000,0.000456,-0.000004,0.000000,0.000000,0.000000,0.000000,0.000000,819,819,819,819
7375,0,0.029667,0.020941,-0.001927,0.00,0.00,-0.000004,0.005000,-0.001457,-0.001035,0.000000,0.000000,0.000000,0.000000,0.000447,-0.000004,0.000000,0.000000,0.000000,0.000000,0.000000,819,819,819,819
7386,0,0.029668,0.020942,-0.001759,0.00,0.00,-0.000002,0.005000,-0.001460,-0.001036,0.000000,0.000000,0.000000,0.000000,0.000439,-0.000004,0.000000,0.000000,0.000000,0.000000,0.000000,819,819,819,819
7395,0,0.029668,0.020942,-0.001626,0.00,0.00,0.000002,0.005000,-0.001462,-0.001037,0.000000,0.000000,0.000000,0.000000,0.000432,-0.000003,-0.000000,0.000000,0.000000,0.000000,0.000000,819,819,819,819
7405,0,0.029669,0.020943,-0.001519,0.00,0.00,0.000003,0.005000,-0.001464,-0.001038,0.000000,0.000000,0.000000,0.000000,0.000426,-0.000003,-0.000000,0.000000,0.000000,0.000000,0.000000,819,819,819,819
7415,0,0.029669,0.020943,-0.001433,0.00,0.00,0.000005,0.005000,-0.001466,-0.001039,0.000000,0.000000,0.000000,0.000000,0.000421,-0.000003,-0.000000,0.000000,0.000000,0.000000,0.000000,819,819,819,819
7426,0,0.029669,0.020943,-0.001365,0.00,0.00,0.000000,0.005000,-0.001468,-0.001040,0.000000,0.000000,0.000000,0.000000,0.000416,-0.000003,-0.000000,0.000000,0.000000,0.000000,0.000000,819,819,819,819
7436,0,0.029670,0.020943,-0.001310,0.00,0.00,0.000002,0.005000,-0.001469,-0.001040,0.000000,0.000000,0.000000,0.000000,0.000411,-0.000003,-0.000000,0.000000,0.000000,0.000000,0.000000,819,819,819,819
7446,0,0.029670,0.020943,-0.001267,0.00,0.00,0.000006,0.005000,-0.001471,-0.001041,0.000000,0.000000,0.000000,0.000000,0.000407,-0.000003,-0.000000,0.000000,0.000000,0.000000,0.000000,819,819,819,819
7456,0,0.029670,0.020944,-0.001231,0.00,0.00,0.000002,0.005000,-0.001472,-0.001042,0.000000,0.000000,0.000000,0.000000,0.000403,-0.000003,-0.000000,0.000000,0.000000,0.000000,0.000000,819,819,819,819
7466,0,0.029670,0.020944,-0.001203,0.00,0.00,-0.000000,0.005000,-0.001474,-0.001043,0.000000,0.000000,0.000000,0.000000,0.000399,-0.000003,0.000000,0.000000,0.000000,0.000000,0.000000,819,819,819,819
7476,0,0.029670,0.020944,-0.001181,0.00,0.00,-0.000000,0.005000,-0.001475,-0.001043,0.000000,0.000000,0.000000,0.000000,0.000396,-0.000003,0.000000,0.000000,0.000000,0.000000,0.000000,819,819,819,819
7486,0,0.029670,0.020944,-0.001163,0.00,0.00,-0.000004,0.005000,-0.001476,-0.001043,0.000000,0.000000,0.000000,0.000000,0.000394,-0.000003,0.000000,0.000000,0.000000,0.000000,0.000000,819,819,819,819
7496,0,0.029670,0.020944,-0.001148,0.00,0.00,-0.000004,0.005000,-0.001476,-0.001044,0.000000,0.000000,0.000000,0.000000,0.000392,-0.000003,0.000000,0.000000,0.000000,0.000000,0.000000,819,819,819,819
7506,0,0.029670,0.020944,-0.001137,0.00,0.00,-0.000005,0.005000,-0.001477,-0.001045,0.000000,0.000000,0.000000,0.000000,0.000389,-0.000003,0.000000,0.000000,0.000000,0.000000,0.000000,819,819,819,819
7516,0,0.029670,0.020944,-0.001128,0.00,0.00,-0.000005,0.005000,-0.001478,-0.001045,0.000000,0.000000,0.000000,0.000000,0.000387,-0.000003,0.000000,0.000000,0.000000,0.000000,0.000000,819,819,819,819
7526,0,0.029670,0.020944,-0.001121,0.00,0.00,-0.000006,0.005000,-0.001478,-0.001045,0.000000,0.000000,0.000000,0.000000,0.000385,-0.000003,0.000000,0.000000,0.000000,0.000000,0.000000,819,819,819,819
7536,0,0.029670,0.020944,-0.001115,0.00,0.00,-0.000004,0.005000,-0.001479,-0.001045,0.000000,0.000000,0.000000,0.000000,0.000384,-0.000003,0.000000,0.000000,0.000000,0.000000,0.000000,819,819,819,819
7546,0,0.029671,0.020944,-0.001110,0.00,0.00,-0.000001,0.005000,-0.001480,-0.001045,0.000000,0.000000,0.000000,0.000000,0.000381,-0.000003,0.000000,0.000000,0.000000,0.000000,0.000000,819,819,819,819
7556,0,0.029671,0.020944,-0.001106,0.00,0.00,-0.000003,0.005000,-0.001480,-0.001045,0.000000,0.000000,0.000000,0.000000,0.000380,-0.000003,0.000000,0.000000,0.000000,0.000000,0.000000,819,819,819,819
7566,0,0.029671,0.020944,-0.001103,0.00,0.00,-0.000005,0.005000,-0.001481,-0.001046,0.000000,0.000000,0.000000,0.000000,0.000380,-0.000003,0.000000,0.000000,0.000000,0.000000,0.000000,819,819,819,819
7576,0,0.029671,0.020944,-0.001101,0.00,0.00,-0.000004,0.005000,-0.001481,-0.001046,0.000000,0.000000,0.000000,0.000000,0.000379,-0.000003,0.000000,0.000000,0.000000,0.000000,0.000000,819,819,819,819
7586,0,0.029671,0.020944,-0.001099,0.00,0.00,0.000002,0.005000,-0.001481,-0.001046,0.000000,0.000000,0.000000,0.000000,0.000378,-0.000003,-0.000000,0.000000,0.000000,0.000000,0.000000,819,819,819,819
7596,0,0.029671,0.020944,-0.001097,0.00,0.00,0.000003,0.005000,-0.001481,-0.001046,0.000000,0.000000,0.000000,0.000000,0.000377,-0.000003,-0.000000,0.000000,0.000000,0.000000,0.000000,819,819,819,819
7606,0,0.029671,0.020944,-0.001096,0.00,0.00,0.000005,0.005000,-0.001482,-0.001046,0.000000,0.000000,0.000000,0.000000,0.000376,-0.000003,-0.000000,0.000000,0.000000,0.000000,0.000000,819,819,819,819
7620,0,0.029671,0.020944,-0.001095,0.00,0.00,0.000010,0.005000,-0.001482,-0.001046,0.000000,0.000000,0.000000,0.000000,0.000375,-0.000003,-0.000000,0.000000,0.000000,0.000000,0.000000,819,819,819,819
7634,0,0.029671,0.020944,-0.001095,0.00,0.00,0.000007,0.005000,-0.001482,-0.001047,0.000000,0.000000,0.000000,0.000000,0.000375,-0.000003,-0.000000,0.000000,0.000000,0.000000,0.000000,819,819,819,819
7646,0,0.029671,0.020944,-0.001094,0.00,0.00,0.000008,0.005000,-0.001482,-0.001047,0.000000,0.000000,0.000000,0.000000,0.000375,-0.000003,-0.000000,0.000000,0.000000,0.000000,0.000000,819,819,819,819
7656,0,0.029671,0.020944,-0.001093,0.00,0.00,0.000009,0.005000,-0.001482,-0.001046,0.000000,0.000000,0.000000,0.000000,0.000374,-0.000003,-0.000000,0.000000,0.000000,0.000000,0.000000,819,819,819,819
7666,0,0.029671,0.020944,-0.001093,0.00,0.00,0.000014,0.005000,-0.001482,-0.001047,0.000000,0.000000,0.000000,0.000000,0.000374,-0.000003,-0.000000,0.000000,0.000000,0.000000,0.000000,819,819,819,819
7676,0,0.029671,0.020944,-0.001092,0.00,0.00,0.000018,0.005000,-0.001482,-0.001047,0.000000,0.000000,0.000000,0.000000,0.000374,-0.000003,-0.000000,0.000000,0.000000,0.000000,0.000000,819,819,819,819
7686,0,0.029671,0.020944,-0.001092,0.00,0.00,0.000022,0.005000,-0.001482,-0.001047,0.000000,0.000000,0.000000,0.000000,0.000374,-0.000003,-0.000000,0.000000,0.000000,0.000000,0.000000,819,819,819,819
7696,0,0.029671,0.020944,-0.001092,0.00,0.00,0.000021,0.005000,-0.001483,-0.001047,0.000000,0.000000,0.000000,0.000000,0.000373,-0.000003,-0.000000,0.000000,0.000000,0.000000,0.000000,819,819,819,819
7706,0,0.029671,0.020944,-0.001092,0.00,0.00,0.000012,0.005000,-0.001483,-0.001047,0.000000,0.000000,0.000000,0.000000,0.000373,-0.000003,-0.000000,0.000000,0.000000,0.000000,0.000000,819,819,819,819
7716,0,0.029671,0.020944,-0.001092,0.00,0.00,0.000013,0.005000,-0.001483,-0.001047,0.000000,0.000000,0.000000,0.000000,0.000372,-0.000003,-0.000000,0.000000,0.000000,0.000000,0.000000,819,819,819,819
7726,0,0.029671,0.020944,-0.001092,0.00,0.00,0.000012,0.005000,-0.001483,-0.001047,0.000000,0.000000,0.000000,0.000000,0.000372,-0.000003,-0.000000,0.000000,0.000000,0.000000,0.000000,819,819,819,819
7737,0,0.029671,0.020944,-0.001092,0.00,0.00,0.000009,0.005000,-0.001483,-0.001047,0.000000,0.000000,0.000000,0.000000,0.000372,-0.000003,-0.000000,0.000000,0.000000,0.000000,0.000000,819,819,819,819
7746,0,0.029671,0.020944,-0.001092,0.00,0.00,0.000011,0.005000,-0.001483,-0.001047,0.000000,0.000000,0.000000,0.000000,0.000371,-0.000003,-0.000000,0.000000,0.000000,0.000000,0.000000,819,819,819,819
7756,0,0.029671,0.020944,-0.001092,-0.00,0.00,0.000010,0.005000,-0.001484,-0.001047,0.000000,0.000000,0.000000,0.000000,0.000370,-0.000003,-0.000000,0.000000,0.000000,0.000000,0.000000,819,819,819,819
7766,0,0.029671,0.020944,-0.001092,-0.00,0.00,0.000008,0.005000,-0.001484,-0.001047,0.000000,0.000000,0.000000,0.000000,0.000369,-0.000003,-0.000000,0.000000,0.000000,0.000000,0.000000,819,819,819,819
7776,0,0.029671,0.020944,-0.001092,-0.00,0.00,0.000003,0.005000,-0.001484,-0.001047,0.000000,0.000000,0.000000,0.000000,0.000370,-0.000003,-0.000000,0.000000,0.000000,0.000000,0.000000,819,819,819,819
7787,0,0.029671,0.020944,-0.001092,-0.00,0.00,0.000005,0.005000,-0.001484,-0.001047,0.000000,0.000000,0.000000,0.000000,0.000370,-0.000003,-0.000000,0.000000,0.000000,0.000000,0.000000,819,819,819,819
7797,0,0.029671,0.020944,-0.001092,-0.00,0.00,0.000008,0.005000,-0.001484,-0.001047,0.000000,0.000000,0.000000,0.000000,0.000370,-0.000003,-0.000000,0.000000,0.000000,0.000000,0.000000,819,819,819,819
7809,0,0.029671,0.020944,-0.001092,-0.00,0.00,0.000014,0.005000,-0.001484,-0.001047,0.000000,0.000000,0.000000,0.000000,0.000369,-0.000003,-0.000000,0.000000,0.000000,0.000000,0.000000,819,819,819,819
7818,0,0.029671,0.020944,-0.001092,-0.00,0.00,0.000015,0.005000,-0.001484,-0.001047,0.000000,0.000000,0.000000,0.000000,0.000368,-0.000003,-0.000000,0.000000,0.000000,0.000000,0.000000,819,819,819,819
7827,0,0.029671,0.020944,-0.001092,-0.00,0.00,0.000010,0.005000,-0.001484,-0.001047,0.000000,0.000000,0.000000,0.000000,0.000369,-0.000003,-0.000000,0.000000,0.000000,0.000000,0.000000,819,819,819,819
7837,0,0.029671,0.020944,-0.001092,-0.00,0.00,0.000009,0.005000,-0.001484,-0.001046,0.000000,0.000000,0.000000,0.000000,0.000368,-0.000003,-0.000000,0.000000,0.000000,0.000000,0.000000,819,819,819,819
7847,0,0.029671,0.020944,-0.001092,-0.00,0.00,0.000010,0.005000,-0.001484,-0.001046,0.000000,0.000000,0.000000,0.000000,0.000368,-0.000003,-0.000000,0.000000,0.000000,0.000000,0.000000,819,819,819,819
7857,0,0.029671,0.020944,-0.001092,-0.00,0.00,0.000013,0.005000,-0.001484,-0.001046,0.000000,0.000000,0.000000,0.000000,0.000369,-0.000003,-0.000000,0.000000,0.000000,0.000000,0.000000,819,819,819,819
7867,0,0.029671,0.020944,-0.001092,-0.00,0.00,0.000017,0.005000,-0.001484,-0.001046,0.000000,0.000000,0.000000,0.000000,0.000369,-0.000003,-0.000000,0.000000,0.000000,0.000000,0.000000,819,819,819,819
7877,0,0.029671,0.020944,-0.001092,-0.00,0.00,0.000019,0.005000,-0.001484,-0.001047,0.000000,0.000000,0.000000,0.000000,0.000369,-0.000003,-0.000000,0.000000,0.000000,0.000000,0.000000,819,819,819,819
7887,0,0.029671,0.020944,-0.001092,-0.00,0.00,0.000017,0.005000,-0.001484,-0.001046,0.000000,0.000000,0.000000,0.000000,0.000370,-0.000003,-0.000000,0.000000,0.000000,0.000000,0.000000,819,819,819,819
7897,0,0.029671,0.020944,-0.001092,-0.00,0.00,0.000017,0.004000,-0.001484,-0.001047,0.000000,0.000000,0.000000,0.000000,0.000370,-0.000003,-0.000000,0.000000,0.000000,0.000000,0.000000,819,819,819,819
7907,0,0.029671,0.020944,-0.001092,-0.00,0.00,0.000012,0.004000,-0.001484,-0.001046,0.000000,0.000000,0.000000,0.000000,0.000370,-0.000003,-0.000000,0.000000,0.000000,0.000000,0.000000,819,819,819,819
7917,0,0.029671,0.020944,-0.001092,-0.00,0.00,0.000016,0.005000,-0.001484,-0.001047,0.000000,0.000000,0.000000,0.000000,0.000370,-0.000003,-0.000000,0.000000,0.000000,0.000000,0.000000,819,819,819,819
7932,0,0.029671,0.020944,-0.001092,-0.00,0.00,0.000013,0.005000,-0.001484,-0.001047,0.000000,0.000000,0.000000,0.000000,0.000370,-0.000003,-0.000000,0.000000,0.000000,0.000000,0.000000,819,819,819,819
7943,0,0.029671,0.020944,-0.001092,-0.00,0.00,0.000008,0.005000,-0.001484,-0.001047,0.000000,0.000000,0.000000,0.000000,0.000370,-0.000003,-0.000000,0.000000,0.000000,0.000000,0.000000,819,819,819,819
7955,0,0.029671,0.020944,-0.001092,-0.00,0.00,0.000005,0.005000,-0.001484,-0.001047,0.000000,0.000000,0.000000,0.000000,0.000369,-0.000003,-0.000000,0.000000,0.000000,0.000000,0.000000,819,819,819,819
7966,0,0.029671,0.020944,-0.001092,-0.00,0.00,0.000005,0.005000,-0.001484,-0.001047,0.000000,0.000000,0.000000,0.000000,0.000369,-0.000003,-0.000000,0.000000,0.000000,0.000000,0.000000,819,819,819,819
7977,0,0.029671,0.020944,-0.001092,-0.00,0.00,0.000004,0.005000,-0.001484,-0.001047,0.000000,0.000000,0.000000,0.000000,0.000369,-0.000003,-0.000000,0.000000,0.000000,0.000000,0.000000,819,819,819,819
7987,0,0.029671,0.020944,-0.001092,-0.00,0.00,0.000006,0.005000,-0.001484,-0.001047,0.000000,0.000000,0.000000,0.000000,0.000369,-0.000003,-0.000000,0.000000,0.000000,0.000000,0.000000,819,819,819,819
7997,0,0.029671,0.020944,-0.001092,-0.00,0.00,0.000013,0.005000,-0.001484,-0.001047,0.000000,0.000000,0.000000,0.000000,0.000368,-0.000003,-0.000000,0.000000,0.000000,0.000000,0.000000,819,819,819,819
8007,0,0.029671,0.020944,-0.001092,-0.00,0.00,0.000019,0.005000,-0.001484,-0.001047,0.000000,0.000000,0.000000,0.000000,0.000368,-0.000003,-0.000000,0.000000,0.000000,0.000000,0.000000,819,819,819,819
8053,0,0.029671,0.020944,-0.001092,-0.00,0.00,0.000020,0.005000,-0.001484,-0.001047,0.000000,0.000000,0.000000,0.000000,0.000368,-0.000003,-0.000000,0.000000,0.000000,0.000000,0.000000,819,819,819,819
8065,0,0.029671,0.020944,-0.001092,-0.00,0.00,0.000026,0.005000,-0.001484,-0.001046,0.000000,0.000000,0.000000,0.000000,0.000369,-0.000003,-0.000000,0.000000,0.000000,0.000000,0.000000,819,819,819,819
8076,0,0.029671,0.020944,-0.001092,-0.00,0.00,0.000025,0.005000,-0.001484,-0.001047,0.000000,0.000000,0.000000,0.000000,0.000369,-0.000003,-0.000000,0.000000,0.000000,0.000000,0.000000,819,819,819,819
8087,0,0.029671,0.020944,-0.001092,-0.00,0.00,0.000019,0.005000,-0.001484,-0.001047,0.000000,0.000000,0.000000,0.000000,0.000369,-0.000003,-0.000000,0.000000,0.000000,0.000000,0.000000,819,819,819,819
8097,0,0.029671,0.020944,-0.001092,0.00,0.00,0.000010,0.005000,-0.001483,-0.001047,0.000000,0.000000,0.000000,0.000000,0.000371,-0.000003,-0.000000,0.000000,0.000000,0.000000,0.000000,819,819,819,819
8107,0,0.029671,0.020944,-0.001092,0.00,-0.00,0.000000,0.005000,-0.001484,-0.001047,0.000000,0.000000,0.000000,0.000000,0.000371,-0.000003,-0.000000,0.000000,0.000000,0.000000,0.000000,819,819,819,819
8117,0,0.029671,0.020944,-0.001092,-0.00,-0.00,-0.000009,0.005000,-0.001484,-0.001048,0.000000,0.000000,0.000000,0.000000,0.000370,-0.000003,0.000000,0.000000,0.000000,0.000000,0.000000,819,819,819,819
8127,0,0.029671,0.020944,-0.001092,0.00,-0.00,-0.000012,0.005000,-0.001484,-0.001047,0.000000,0.000000,0.000000,0.000000,0.000371,-0.000003,0.000000,0.000000,0.000000,0.000000,0.000000,819,819,819,819
8138,0,0.029671,0.020944,-0.001092,0.00,-0.00,-0.000009,0.005000,-0.001483,-0.001047,0.000000,0.000000,0.000000,0.000000,0.000371,-0.000003,0.000000,0.000000,0.000000,0.000000,0.000000,819,819,819,819
8147,0,0.029671,0.020944,-0.001092,0.00,-0.00,-0.000003,0.005000,-0.001483,-0.001048,0.000000,0.000000,0.000000,0.000000,0.000372,-0.000003,0.000000,0.000000,0.000000,0.000000,0.000000,819,819,819,819
8157,0,0.029671,0.020944,-0.001092,0.00,-0.00,0.000005,0.005000,-0.001483,-0.001048,0.000000,0.000000,0.000000,0.000000,0.000371,-0.000003,-0.000000,0.000000,0.000000,0.000000,0.000000,819,819,819,819
8167,0,0.029671,0.020944,-0.001092,-0.00,-0.00,0.000010,0.005000,-0.001484,-0.001048,0.000000,0.000000,0.000000,0.000000,0.000371,-0.000003,-0.000000,0.000000,0.000000,0.000000,0.000000,819,819,819,819
8177,0,0.029671,0.020944,-0.001092,-0.00,-0.00,0.000011,0.005000,-0.001484,-0.001049,0.000000,0.000000,0.000000,0.000000,0.000371,-0.000003,-0.000000,0.000000,0.000000,0.000000,0.000000,819,819,819,819
8188,0,0.029671,0.020944,-0.001092,-0.00,-0.00,0.000010,0.005000,-0.001484,-0.001048,0.000000,0.000000,0.000000,0.000000,0.000370,-0.000003,-0.000000,0.000000,0.000000,0.000000,0.000000,819,819,819,819
8198,0,0.029671,0.020944,-0.001092,0.00,-0.00,-0.000000,0.005000,-0.001483,-0.001048,0.000000,0.000000,0.000000,0.000000,0.000371,-0.000003,0.000000,0.000000,0.000000,0.000000,0.000000,819,819,819,819
8208,0,0.029671,0.020944,-0.001092,0.00,-0.00,-0.000007,0.005000,-0.001483,-0.001047,0.000000,0.000000,0.000000,0.000000,0.000372,-0.000003,0.000000,0.000000,0.000000,0.000000,0.000000,819,819,819,819
8218,0,0.029671,0.020944,-0.001092,0.00,0.00,-0.000014,0.005000,-0.001483,-0.001047,0.000000,0.000000,0.000000,0.000000,0.000372,-0.000003,0.000000,0.000000,0.000000,0.000000,0.000000,819,819,819,819
8228,0,0.029671,0.020944,-0.001092,0.00,-0.00,-0.000011,0.005000,-0.001483,-0.001047,0.000000,0.000000,0.000000,0.000000,0.000372,-0.000003,0.000000,0.000000,0.000000,0.000000,0.000000,819,819,819,819
8238,0,0.029671,0.020944,-0.001092,0.00,-0.00,-0.000010,0.005000,-0.001483,-0.001047,0.000000,0.000000,0.000000,0.000000,0.000372,-0.000003,0.000000,0.000000,0.000000,0.000000,0.000000,819,819,819,819
8247,0,0.029671,0.020944,-0.001092,0.00,-0.00,0.000000,0.005000,-0.001483,-0.001048,0.000000,0.000000,0.000000,0.000000,0.000372,-0.000003,-0.000000,0.000000,0.000000,0.000000,0.000000,819,819,819,819
8258,0,0.029671,0.020944,-0.001092,0.00,-0.00,0.000004,0.005000,-0.001483,-0.001048,0.000000,0.000000,0.000000,0.000000,0.000373,-0.000003,-0.000000,0.000000,0.000000,0.000000,0.000000,819,819,819,819
8268,0,0.029671,0.020944,-0.001092,0.00,-0.00,0.000002,0.005000,-0.001483,-0.001048,0.000000,0.000000,0.000000,0.000000,0.000373,-0.000003,-0.000000,0.000000,0.000000,0.000000,0.000000,819,819,819,819
8277,0,0.029671,0.020944,-0.001092,0.00,-0.00,-0.000000,0.005000,-0.001483,-0.001048,0.000000,0.000000,0.000000,0.000000,0.000373,-0.000003,0.000000,0.000000,0.000000,0.000000,0.000000,819,819,819,819
8288,0,0.029671,0.020944,-0.001092,0.00,-0.00,-0.000006,0.005000,-0.001483,-0.001048,0.000000,0.000000,0.000000,0.000000,0.000373,-0.000003,0.000000,0.000000,0.000000,0.000000,0.000000,819,819,819,819
8298,0,0.029671,0.020944,-0.001092,0.00,-0.00,-0.000016,0.005000,-0.001483,-0.001048,0.000000,0.000000,0.000000,0.000000,0.000373,-0.000003,0.000000,0.000000,0.000000,0.000000,0.000000,819,819,819,819
8308,0,0.029671,0.020944,-0.001092,0.00,-0.00,-0.000024,0.005000,-0.001483,-0.001048,0.000000,0.000000,0.000000,0.000000,0.000373,-0.000003,0.000000,0.000000,0.000000,0.000000,0.000000,819,819,819,819
8318,0,0.029671,0.020944,-0.001092,0.00,-0.00,-0.000027,0.005000,-0.001482,-0.001048,0.000000,0.000000,0.000000,0.000000,0.000374,-0.000003,0.000000,0.000000,0.000000,0.000000,0.000000,819,819,819,819
8328,0,0.029671,0.020944,-0.001092,0.00,-0.00,-0.000021,0.005000,-0.001483,-0.001048,0.000000,0.000000,0.000000,0.000000,0.000374,-0.000003,0.000000,0.000000,0.000000,0.000000,0.000000,819,819,819,819
8338,0,0.029671,0.020944,-0.001092,0.00,-0.00,-0.000011,0.005000,-0.001483,-0.001048,0.000000,0.000000,0.000000,0.000000,0.000372,-0.000003,0.000000,0.000000,0.000000,0.000000,0.000000,819,819,819,819
8348,0,0.029671,0.020944,-0.001092,0.00,-0.00,-0.000005,0.005000,-0.001483,-0.001048,0.000000,0.000000,0.000000,0.000000,0.000372,-0.000003,0.000000,0.000000,0.000000,0.000000,0.000000,819,819,819,819
8358,0,0.029671,0.020944,-0.001092,0.00,-0.00,-0.000000,0.005000,-0.001483,-0.001048,0.000000,0.000000,0.000000,0.000000,0.000372,-0.000003,0.000000,0.000000,0.000000,0.000000,0.000000,819,819,819,819
8375,0,0.029671,0.020944,-0.001092,0.00,-0.00,-0.000000,0.005000,-0.001483,-0.001048,0.000000,0.000000,0.000000,0.000000,0.000373,-0.000003,0.000000,0.000000,0.000000,0.000000,0.000000,819,819,819,819
8387,0,0.029671,0.020944,-0.001092,0.00,-0.00,-0.000000,0.005000,-0.001483,-0.001048,0.000000,0.000000,0.000000,0.000000,0.000372,-0.000003,0.000000,0.000000,0.000000,0.000000,0.000000,819,819,819,819
8397,0,0.029671,0.020944,-0.001092,0.00,-0.00,-0.000008,0.005000,-0.001483,-0.001048,0.000000,0.000000,0.000000,0.000000,0.000373,-0.000003,0.000000,0.000000,0.000000,0.000000,0.000000,819,819,819,819
8408,0,0.029671,0.020944,-0.001092,0.00,-0.00,-0.000011,0.005000,-0.001483,-0.001048,0.000000,0.000000,0.000000,0.000000,0.000373,-0.000003,0.000000,0.000000,0.000000,0.000000,0.000000,819,819,819,819
8418,0,0.029671,0.020944,-0.001092,0.00,-0.00,-0.000010,0.005000,-0.001483,-0.001048,0.000000,0.000000,0.000000,0.000000,0.000373,-0.000003,0.000000,0.000000,0.000000,0.000000,0.000000,819,819,819,819
8428,0,0.029671,0.020944,-0.001092,0.00,-0.00,-0.000007,0.005000,-0.001483,-0.001048,0.000000,0.000000,0.000000,0.000000,0.000373,-0.000003,0.000000,0.000000,0.000000,0.000000,0.000000,819,819,819,819
8438,0,0.029671,0.020944,-0.001092,0.00,-0.00,-0.000004,0.005000,-0.001483,-0.001048,0.000000,0.000000,0.000000,0.000000,0.000373,-0.000003,0.000000,0.000000,0.000000,0.000000,0.000000,819,819,819,819
8448,0,0.029671,0.020944,-0.001092,0.00,-0.00,0.000001,0.005000,-0.001482,-0.001048,0.000000,0.000000,0.000000,0.000000,0.000374,-0.000003,-0.000000,0.000000,0.000000,0.000000,0.000000,819,819,819,819
8458,0,0.029671,0.020944,-0.001092,0.00,-0.00,0.000003,0.005000,-0.001482,-0.001048,0.000000,0.000000,0.000000,0.000000,0.000374,-0.000003,-0.000000,0.000000,0.000000,0.000000,0.000000,819,819,819,819
8468,0,0.029671,0.020944,-0.001092,0.00,-0.00,-0.000003,0.005000,-0.001482,-0.001048,0.000000,0.000000,0.000000,0.000000,0.000374,-0.000003,0.000000,0.000000,0.000000,0.000000,0.000000,819,819,819,819
8478,0,0.029671,0.020944,-0.001092,0.00,-0.00,-0.000000,0.005000,-0.001483,-0.001048,0.000000,0.000000,0.000000,0.000000,0.000373,-0.000003,0.000000,0.000000,0.000000,0.000000,0.000000,819,819,819,819
8488,0,0.029671,0.020944,-0.001092,0.00,-0.00,0.000001,0.005000,-0.001483,-0.001048,0.000000,0.000000,0.000000,0.000000,0.000373,-0.000003,-0.000000,0.000000,0.000000,0.000000,0.000000,819,819,819,819
8498,0,0.029671,0.020944,-0.001092,0.00,-0.00,-0.000000,0.005000,-0.001483,-0.001048,0.000000,0.000000,0.000000,0.000000,0.000373,-0.000003,0.000000,0.000000,0.000000,0.000000,0.000000,819,819,819,819
8508,0,0.029671,0.020944,-0.001092,0.00,-0.00,-0.000006,0.005000,-0.001482,-0.001048,0.000000,0.000000,0.000000,0.000000,0.000374,-0.000003,0.000000,0.000000,0.000000,0.000000,0.000000,819,819,819,819
8518,0,0.029671,0.020944,-0.001092,0.00,-0.00,-0.000011,0.005000,-0.001482,-0.001048,0.000000,0.000000,0.000000,0.000000,0.000374,-0.000003,0.000000,0.000000,0.000000,0.000000,0.000000,819,819,819,819
8528,0,0.029671,0.020944,-0.001092,0.00,-0.00,-0.000015,0.005000,-0.001482,-0.001048,0.000000,0.000000,0.000000,0.000000,0.000375,-0.000003,0.000000,0.000000,0.000000,0.000000,0.000000,819,819,819,819
8539,0,0.029671,0.020944,-0.001092,0.00,-0.00,-0.000008,0.005000,-0.001482,-0.001048,0.000000,0.000000,0.000000,0.000000,0.000375,-0.000003,0.000000,0.000000,0.000000,0.000000,0.000000,819,819,819,819
8548,0,0.029671,0.020944,-0.001092,0.00,-0.00,-0.000002,0.005000,-0.001482,-0.001048,0.000000,0.000000,0.000000,0.000000,0.000374,-0.000003,0.000000,0.000000,0.000000,0.000000,0.000000,819,819,819,819
8558,0,0.029671,0.020944,-0.001092,0.00,-0.00,0.000002,0.005000,-0.001482,-0.001048,0.000000,0.000000,0.000000,0.000000,0.000374,-0.000003,-0.000000,0.000000,0.000000,0.000000,0.000000,819,819,819,819
8568,0,0.029671,0.020944,-0.001092,0.00,-0.00,0.000005,0.005000,-0.001483,-0.001047,0.000000,0.000000,0.000000,0.000000,0.000374,-0.000003,-0.000000,0.000000,0.000000,0.000000,0.000000,819,819,819,819
8578,0,0.029671,0.020944,-0.001092,0.00,0.00,0.000003,0.005000,-0.001483,-0.001047,0.000000,0.000000,0.000000,0.000000,0.000374,-0.000003,-0.000000,0.000000,0.000000,0.000000,0.000000,819,819,819,819
8589,0,0.029671,0.020944,-0.001092,0.00,-0.00,0.000003,0.005000,-0.001483,-0.001047,0.000000,0.000000,0.000000,0.000000,0.000373,-0.000003,-0.000000,0.000000,0.000000,0.000000,0.000000,819,819,819,819
8599,0,0.029671,0.020944,-0.001092,0.00,-0.00,-0.000003,0.005000,-0.001483,-0.001047,0.000000,0.000000,0.000000,0.000000,0.000373,-0.000003,0.000000,0.000000,0.000000,0.000000,0.000000,819,819,819,819
8608,0,0.029671,0.020944,-0.001092,0.00,0.00,-0.000008,0.005000,-0.001483,-0.001047,0.000000,0.000000,0.000000,0.000000,0.000373,-0.000003,0.000000,0.000000,0.000000,0.000000,0.000000,819,819,819,819
8618,0,0.029671,0.020944,-0.001092,0.00,0.00,-0.000013,0.005000,-0.001483,-0.001046,0.000000,0.000000,0.000000,0.000000,0.000373,-0.000003,0.000000,0.000000,0.000000,0.000000,0.000000,819,819,819,819
8629,0,0.029671,0.020944,-0.001092,0.00,0.00,-0.000008,0.005000,-0.001483,-0.001046,0.000000,0.000000,0.000000,0.000000,0.000372,-0.000003,0.000000,0.000000,0.000000,0.000000,0.000000,819,819,819,819
8639,0,0.029671,0.020944,-0.001092,0.00,0.00,-0.000007,0.005000,-0.001483,-0.001047,0.000000,0.000000,0.000000,0.000000,0.000372,-0.000003,0.000000,0.000000,0.000000,0.000000,0.000000,819,819,819,819
8648,0,0.029671,0.020944,-0.001092,0.00,-0.00,-0.000005,0.005000,-0.001483,-0.001047,0.000000,0.000000,0.000000,0.000000,0.000372,-0.000003,0.000000,0.000000,0.000000,0.000000,0.000000,819,819,819,819
8658,0,0.029671,0.020944,-0.001092,0.00,-0.00,0.000003,0.005000,-0.001483,-0.001048,0.000000,0.000000,0.000000,0.000000,0.000372,-0.000003,-0.000000,0.000000,0.000000,0.000000,0.000000,819,819,819,819
8668,0,0.029671,0.020944,-0.001092,0.00,-0.00,0.000003,0.005000,-0.001483,-0.001048,0.000000,0.000000,0.000000,0.000000,0.000372,-0.000003,-0.000000,0.000000,0.000000,0.000000,0.000000,819,819,819,819
8687,0,0.029671,0.020944,-0.001092,0.00,-0.00,-0.000005,0.005000,-0.001483,-0.001047,0.000000,0.000000,0.000000,0.000000,0.000372,-0.000003,0.000000,0.000000,0.000000,0.000000,0.000000,819,819,819,819
8699,0,0.029671,0.020944,-0.001092,0.00,0.00,-0.000013,0.005000,-0.001483,-0.001047,0.000000,0.000000,0.000000,0.000000,0.000372,-0.000003,0.000000,0.000000,0.000000,0.000000,0.000000,819,819,819,819
8709,0,0.029671,0.020944,-0.001092,0.00,0.00,-0.000016,0.005000,-0.001483,-0.001047,0.000000,0.000000,0.000000,0.000000,0.000372,-0.000003,0.000000,0.000000,0.000000,0.000000,0.000000,819,819,819,819
8719,0,0.029671,0.020944,-0.001092,0.00,-0.00,-0.000011,0.005000,-0.001483,-0.001048,0.000000,0.000000,0.000000,0.000000,0.000371,-0.000002,0.000000,0.000000,0.000000,0.000000,0.000000,819,819,819,819
8729,0,0.029671,0.020944,-0.001092,0.00,-0.00,-0.000002,0.005000,-0.001483,-0.001048,0.000000,0.000000,0.000000,0.000000,0.000372,-0.000002,0.000000,0.000000,0.000000,0.000000,0.000000,819,819,819,819
8739,0,0.029671,0.020944,-0.001092,0.00,-0.00,-0.000002,0.005000,-0.001483,-0.001048,0.000000,0.000000,0.000000,0.000000,0.000372,-0.000002,0.000000,0.000000,0.000000,0.000000,0.000000,819,819,819,819
8749,0,0.029671,0.020944,-0.001092,0.00,-0.00,-0.000002,0.005000,-0.001483,-0.001048,0.000000,0.000000,0.000000,0.000000,0.000371,-0.000002,0.000000,0.000000,0.000000,0.000000,0.000000,819,819,819,819
8759,0,0.029671,0.020944,-0.001092,0.00,-0.00,-0.000005,0.005000,-0.001483,-0.001048,0.000000,0.000000,0.000000,0.000000,0.000372,-0.000002,0.000000,0.000000,0.000000,0.000000,0.000000,819,819,819,819
8770,0,0.029671,0.020944,-0.001092,-0.00,-0.00,-0.000005,0.005000,-0.001484,-0.001047,0.000000,0.000000,0.000000,0.000000,0.000370,-0.000002,0.000000,0.000000,0.000000,0.000000,0.000000,819,819,819,819
8780,0,0.029671,0.020944,-0.001092,-0.00,-0.00,-0.000004,0.005000,-0.001484,-0.001047,0.000000,0.000000,0.000000,0.000000,0.000370,-0.000002,0.000000,0.000000,0.000000,0.000000,0.000000,819,819,819,819
8789,0,0.029671,0.020944,-0.001092,-0.00,-0.00,-0.000009,0.005000,-0.001484,-0.001048,0.000000,0.000000,0.000000,0.000000,0.000370,-0.000002,0.000000,0.000000,0.000000,0.000000,0.000000,819,819,819,819
8799,0,0.029671,0.020944,-0.001092,-0.00,-0.00,-0.000014,0.005000,-0.001484,-0.001048,0.000000,0.000000,0.000000,0.000000,0.000370,-0.000002,0.000000,0.000000,0.000000,0.000000,0.000000,819,819,819,819
8809,0,0.029671,0.020944,-0.001092,-0.00,-0.00,-0.000011,0.005000,-0.001484,-0.001048,0.000000,0.000000,0.000000,0.000000,0.000368,-0.000002,0.000000,0.000000,0.000000,0.000000,0.000000,819,819,819,819
8819,0,0.029671,0.020944,-0.001092,-0.00,-0.00,-0.000004,0.005000,-0.001485,-0.001048,0.000000,0.000000,0.000000,0.000000,0.000368,-0.000002,0.000000,0.000000,0.000000,0.000000,0.000000,819,819,819,819
8829,0,0.029671,0.020944,-0.001092,-0.00,-0.00,-0.000000,0.005000,-0.001484,-0.001048,0.000000,0.000000,0.000000,0.000000,0.000368,-0.000002,0.000000,0.000000,0.000000,0.000000,0.000000,819,819,819,819
8839,0,0.029671,0.020944,-0.001092,-0.00,-0.00,0.000005,0.005000,-0.001484,-0.001048,0.000000,0.000000,0.000000,0.000000,0.000368,-0.000002,-0.000000,0.000000,0.000000,0.000000,0.000000,819,819,819,819
8849,0,0.029671,0.020944,-0.001092,-0.00,-0.00,0.000005,0.005000,-0.001484,-0.001048,0.000000,0.000000,0.000000,0.000000,0.000368,-0.000002,-0.000000,0.000000,0.000000,0.000000,0.000000,819,819,819,819
8859,0,0.029671,0.020944,-0.001092,-0.00,-0.00,-0.000001,0.005000,-0.001484,-0.001047,0.000000,0.000000,0.000000,0.000000,0.000369,-0.000002,0.000000,0.000000,0.000000,0.000000,0.000000,819,819,819,819
8869,0,0.029671,0.020944,-0.001092,-0.00,-0.00,-0.000008,0.005000,-0.001484,-0.001047,0.000000,0.000000,0.000000,0.000000,0.000368,-0.000002,0.000000,0.000000,0.000000,0.000000,0.000000,819,819,819,819
8879,0,0.029671,0.020944,-0.001092,-0.00,-0.00,-0.000013,0.005000,-0.001485,-0.001047,0.000000,0.000000,0.000000,0.000000,0.000367,-0.000002,0.000000,0.000000,0.000000,0.000000,0.000000,819,819,819,819
8889,0,0.029671,0.020944,-0.001092,-0.00,-0.00,-0.000012,0.005000,-0.001484,-0.001047,0.000000,0.000000,0.000000,0.000000,0.000369,-0.000002,0.000000,0.000000,0.000000,0.000000,0.000000,819,819,819,819
8899,0,0.029671,0.020944,-0.001092,-0.00,-0.00,-0.000005,0.005000,-0.001484,-0.001047,0.000000,0.000000,0.000000,0.000000,0.000369,-0.000002,0.000000,0.000000,0.000000,0.000000,0.000000,819,819,819,819
8909,0,0.029671,0.020944,-0.001092,-0.00,-0.00,-0.000003,0.005000,-0.001484,-0.001047,0.000000,0.000000,0.000000,0.000000,0.000369,-0.000002,0.000000,0.000000,0.000000,0.000000,0.000000,819,819,819,819
8919,0,0.029671,0.020944,-0.001092,-0.00,-0.00,-0.000003,0.005000,-0.001484,-0.001047,0.000000,0.000000,0.000000,0.000000,0.000368,-0.000002,0.000000,0.000000,0.000000,0.000000,0.000000,819,819,819,819
8929,0,0.029671,0.020944,-0.001092,-0.00,0.00,-0.000004,0.005000,-0.001484,-0.001047,0.000000,0.000000,0.000000,0.000000,0.000369,-0.000002,0.000000,0.000000,0.000000,0.000000,0.000000,819,819,819,819
8940,0,0.029671,0.020944,-0.001092,-0.00,-0.00,-0.000009,0.005000,-0.001485,-0.001047,0.000000,0.000000,0.000000,0.000000,0.000368,-0.000002,0.000000,0.000000,0.000000,0.000000,0.000000,819,819,819,819
8949,0,0.029671,0.020944,-0.001092,-0.00,-0.00,-0.000010,0.004000,-0.001484,-0.001047,0.000000,0.000000,0.000000,0.000000,0.000369,-0.000002,0.000000,0.000000,0.000000,0.000000,0.000000,819,819,819,819
8959,0,0.029671,0.020944,-0.001092,-0.00,-0.00,-0.000013,0.004000,-0.001484,-0.001047,0.000000,0.000000,0.000000,0.000000,0.000370,-0.000002,0.000000,0.000000,0.000000,0.000000,0.000000,819,819,819,819
8969,0,0.029671,0.020944,-0.001092,-0.00,-0.00,-0.000012,0.004000,-0.001484,-0.001047,0.000000,0.000000,0.000000,0.000000,0.000369,-0.000002,0.000000,0.000000,0.000000,0.000000,0.000000,819,819,819,819
8979,0,0.029671,0.020944,-0.001092,-0.00,-0.00,-0.000010,0.005000,-0.001484,-0.001048,0.000000,0.000000,0.000000,0.000000,0.000369,-0.000002,0.000000,0.000000,0.000000,0.000000,0.000000,819,819,819,819
8990,0,0.029671,0.020944,-0.001092,-0.00,-0.00,-0.000013,0.005000,-0.001484,-0.001048,0.000000,0.000000,0.000000,0.000000,0.000370,-0.000002,0.000000,0.000000,0.000000,0.000000,0.000000,819,819,819,819
9007,0,0.029671,0.020944,-0.001092,-0.00,-0.00,-0.000014,0.005000,-0.001484,-0.001048,0.000000,0.000000,0.000000,0.000000,0.000371,-0.000002,0.000000,0.000000,0.000000,0.000000,0.000000,819,819,819,819
9018,0,0.029671,0.020944,-0.001092,0.00,-0.00,-0.000018,0.005000,-0.001483,-0.001048,0.000000,0.000000,0.000000,0.000000,0.000371,-0.000002,0.000000,0.000000,0.000000,0.000000,0.000000,819,819,819,819
9030,0,0.029671,0.020944,-0.001092,0.00,-0.00,-0.000018,0.005000,-0.001483,-0.001048,0.000000,0.000000,0.000000,0.000000,0.000371,-0.000002,0.000000,0.000000,0.000000,0.000000,0.000000,819,819,819,819
9040,0,0.029671,0.020944,-0.001092,0.00,-0.00,-0.000013,0.005000,-0.001483,-0.001048,0.000000,0.000000,0.000000,0.000000,0.000371,-0.000002,0.000000,0.000000,0.000000,0.000000,0.000000,819,819,819,819
9050,0,0.029671,0.020944,-0.001092,0.00,-0.00,-0.000008,0.005000,-0.001483,-0.001048,0.000000,0.000000,0.000000,0.000000,0.000371,-0.000002,0.000000,0.000000,0.000000,0.000000,0.000000,819,819,819,819
9060,0,0.029671,0.020944,-0.001092,0.00,-0.00,-0.000011,0.005000,-0.001483,-0.001048,0.000000,0.000000,0.000000,0.000000,0.000372,-0.000002,0.000000,0.000000,0.000000,0.000000,0.000000,819,819,819,819
9070,0,0.029671,0.020944,-0.001092,0.00,-0.00,-0.000017,0.005000,-0.001483,-0.001048,0.000000,0.000000,0.000000,0.000000,0.000372,-0.000002,0.000000,0.000000,0.000000,0.000000,0.000000,819,819,819,819
9080,0,0.029671,0.020944,-0.001092,-0.00,-0.00,-0.000021,0.005000,-0.001484,-0.001047,0.000000,0.000000,0.000000,0.000000,0.000371,-0.000002,0.000000,0.000000,0.000000,0.000000,0.000000,819,819,819,819
9090,0,0.029671,0.020944,-0.001092,-0.00,-0.00,-0.000021,0.005000,-0.001484,-0.001047,0.000000,0.000000,0.000000,0.000000,0.000370,-0.000002,0.000000,0.000000,0.000000,0.000000,0.000000,819,819,819,819
9100,0,0.029671,0.020944,-0.001092,-0.00,-0.00,-0.000020,0.005000,-0.001484,-0.001047,0.000000,0.000000,0.000000,0.000000,0.000370,-0.000002,0.000000,0.000000,0.000000,0.000000,0.000000,819,819,819,819
9110,0,0.029671,0.020944,-0.001092,-0.00,-0.00,-0.000018,0.005000,-0.001484,-0.001047,0.000000,0.000000,0.000000,0.000000,0.000370,-0.000002,0.000000,0.000000,0.000000,0.000000,0.000000,819,819,819,819
9120,0,0.029671,0.020944,-0.001092,-0.00,-0.00,-0.000019,0.005000,-0.001484,-0.001047,0.000000,0.000000,0.000000,0.000000,0.000370,-0.000002,0.000000,0.000000,0.000000,0.000000,0.000000,819,819,819,819
9130,0,0.029671,0.020944,-0.001092,-0.00,-0.00,-0.000015,0.005000,-0.001484,-0.001047,0.000000,0.000000,0.000000,0.000000,0.000370,-0.000002,0.000000,0.000000,0.000000,0.000000,0.000000,819,819,819,819
9140,0,0.029671,0.020944,-0.001092,-0.00,-0.00,-0.000014,0.005000,-0.001484,-0.001047,0.000000,0.000000,0.000000,0.000000,0.000370,-0.000002,0.000000,0.000000,0.000000,0.000000,0.000000,819,819,819,819
9150,0,0.029671,0.020944,-0.001092,-0.00,-0.00,-0.000012,0.005000,-0.001484,-0.001047,0.000000,0.000000,0.000000,0.000000,0.000370,-0.000002,0.000000,0.000000,0.000000,0.000000,0.000000,819,819,819,819
9160,0,0.029671,0.020944,-0.001092,-0.00,-0.00,-0.000013,0.005000,-0.001484,-0.001047,0.000000,0.000000,0.000000,0.000000,0.000370,-0.000002,0.000000,0.000000,0.000000,0.000000,0.000000,819,819,819,819
9170,0,0.029671,0.020944,-0.001092,-0.00,-0.00,-0.000017,0.005000,-0.001484,-0.001047,0.000000,0.000000,0.000000,0.000000,0.000370,-0.000002,0.000000,0.000000,0.000000,0.000000,0.000000,819,819,819,819
9180,0,0.029671,0.020944,-0.001092,-0.00,-0.00,-0.000021,0.005000,-0.001484,-0.001047,0.000000,0.000000,0.000000,0.000000,0.000370,-0.000002,0.000000,0.000000,0.000000,0.000000,0.000000,819,819,819,819
9190,0,0.029671,0.020944,-0.001092,0.00,0.00,-0.000021,0.005000,-0.001484,-0.001047,0.000000,0.000000,0.000000,0.000000,0.000371,-0.000002,0.000000,0.000000,0.000000,0.000000,0.000000,819,819,819,819
9200,0,0.029671,0.020944,-0.001092,-0.00,-0.00,-0.000017,0.005000,-0.001484,-0.001047,0.000000,0.000000,0.000000,0.000000,0.000370,-0.000002,0.000000,0.000000,0.000000,0.000000,0.000000,819,819,819,819
9210,0,0.029671,0.020944,-0.001092,-0.00,-0.00,-0.000012,0.005000,-0.001484,-0.001047,0.000000,0.000000,0.000000,0.000000,0.000369,-0.000002,0.000000,0.000000,0.000000,0.000000,0.000000,819,819,819,819
9220,0,0.029671,0.020944,-0.001092,-0.00,-0.00,-0.000009,0.005000,-0.001484,-0.001047,0.000000,0.000000,0.000000,0.000000,0.000369,-0.000002,0.000000,0.000000,0.000000,0.000000,0.000000,819,819,819,819
9230,0,0.029671,0.020944,-0.001092,-0.00,-0.00,-0.000000,0.005000,-0.001484,-0.001047,0.000000,0.000000,0.000000,0.000000,0.000369,-0.000002,0.000000,0.000000,0.000000,0.000000,0.000000,819,819,819,819
9240,0,0.029671,0.020944,-0.001092,-0.00,-0.00,-0.000000,0.005000,-0.001484,-0.001048,0.000000,0.000000,0.000000,0.000000,0.000369,-0.000002,0.000000,0.000000,0.000000,0.000000,0.000000,819,819,819,819
9250,0,0.029671,0.020944,-0.001092,-0.00,-0.00,0.000003,0.005000,-0.001484,-0.001048,0.000000,0.000000,0.000000,0.000000,0.000370,-0.000002,-0.000000,0.000000,0.000000,0.000000,0.000000,819,819,819,819
9260,0,0.029671,0.020944,-0.001092,-0.00,-0.00,-0.000000,0.005000,-0.001484,-0.001048,0.000000,0.000000,0.000000,0.000000,0.000371,-0.000002,0.000000,0.000000,0.000000,0.000000,0.000000,819,819,819,819
9270,0,0.029671,0.020944,-0.001092,-0.00,-0.00,-0.000003,0.005000,-0.001484,-0.001047,0.000000,0.000000,0.000000,0.000000,0.000370,-0.000002,0.000000,0.000000,0.000000,0.000000,0.000000,819,819,819,819
9280,0,0.029671,0.020944,-0.001092,-0.00,0.00,-0.000008,0.005000,-0.001484,-0.001047,0.000000,0.000000,0.000000,0.000000,0.000369,-0.000002,0.000000,0.000000,0.000000,0.000000,0.000000,819,819,819,819
9290,0,0.029671,0.020944,-0.001092,-0.00,-0.00,-0.000011,0.005000,-0.001484,-0.001047,0.000000,0.000000,0.000000,0.000000,0.000369,-0.000002,0.000000,0.000000,0.000000,0.000000,0.000000,819,819,819,819
9300,0,0.029671,0.020944,-0.001092,-0.00,-0.00,-0.000011,0.005000,-0.001484,-0.001047,0.000000,0.000000,0.000000,0.000000,0.000369,-0.000002,0.000000,0.000000,0.000000,0.000000,0.000000,819,819,819,819
9310,0,0.029671,0.020944,-0.001092,-0.00,0.00,-0.000009,0.005000,-0.001484,-0.001047,0.000000,0.000000,0.000000,0.000000,0.000369,-0.000002,0.000000,0.000000,0.000000,0.000000,0.000000,819,819,819,819
9327,0,0.029671,0.020944,-0.001092,-0.00,0.00,-0.000008,0.005000,-0.001484,-0.001047,0.000000,0.000000,0.000000,0.000000,0.000370,-0.000002,0.000000,0.000000,0.000000,0.000000,0.000000,819,819,819,819
9340,0,0.029671,0.020944,-0.001092,-0.00,0.00,-0.000005,0.005000,-0.001484,-0.001047,0.000000,0.000000,0.000000,0.000000,0.000369,-0.000002,0.000000,0.000000,0.000000,0.000000,0.000000,819,819,819,819
9350,0,0.029671,0.020944,-0.001092,-0.00,0.00,-0.000007,0.005000,-0.001484,-0.001047,0.000000,0.000000,0.000000,0.000000,0.000370,-0.000002,0.000000,0.000000,0.000000,0.000000,0.000000,819,819,819,819
9360,0,0.029671,0.020944,-0.001092,-0.00,-0.00,-0.000011,0.005000,-0.001484,-0.001047,0.000000,0.000000,0.000000,0.000000,0.000369,-0.000002,0.000000,0.000000,0.000000,0.000000,0.000000,819,819,819,819
9370,0,0.029671,0.020944,-0.001092,-0.00,-0.00,-0.000012,0.005000,-0.001484,-0.001048,0.000000,0.000000,0.000000,0.000000,0.000369,-0.000002,0.000000,0.000000,0.000000,0.000000,0.000000,819,819,819,819
9380,0,0.029671,0.020944,-0.001092,-0.00,-0.00,-0.000015,0.005000,-0.001484,-0.001048,0.000000,0.000000,0.000000,0.000000,0.000369,-0.000002,0.000000,0.000000,0.000000,0.000000,0.000000,819,819,819,819
9391,0,0.029671,0.020944,-0.001092,-0.00,-0.00,-0.000013,0.005000,-0.001484,-0.001048,0.000000,0.000000,0.000000,0.000000,0.000369,-0.000002,0.000000,0.000000,0.000000,0.000000,0.000000,819,819,819,819
9400,0,0.029671,0.020944,-0.001092,-0.00,-0.00,-0.000014,0.005000,-0.001484,-0.001047,0.000000,0.000000,0.000000,0.000000,0.000369,-0.000002,0.000000,0.000000,0.000000,0.000000,0.000000,819,819,819,819
9410,0,0.029671,0.020944,-0.001092,-0.00,-0.00,-0.000018,0.005000,-0.001485,-0.001047,0.000000,0.000000,0.000000,0.000000,0.000368,-0.000002,0.000000,0.000000,0.000000,0.000000,0.000000,819,819,819,819
9420,0,0.029671,0.020944,-0.001092,-0.00,-0.00,-0.000014,0.005000,-0.001485,-0.001048,0.000000,0.000000,0.000000,0.000000,0.000367,-0.000002,0.000000,0.000000,0.000000,0.000000,0.000000,819,819,819,819
9431,0,0.029671,0.020944,-0.001092,-0.00,-0.00,-0.000013,0.005000,-0.001485,-0.001047,0.000000,0.000000,0.000000,0.000000,0.000367,-0.000002,0.000000,0.000000,0.000000,0.000000,0.000000,819,819,819,819
9441,0,0.029671,0.020944,-0.001092,-0.00,-0.00,-0.000014,0.005000,-0.001484,-0.001047,0.000000,0.000000,0.000000,0.000000,0.000368,-0.000002,0.000000,0.000000,0.000000,0.000000,0.000000,819,819,819,819
9451,0,0.029671,0.020944,-0.001092,-0.00,-0.00,-0.000014,0.005000,-0.001484,-0.001048,0.000000,0.000000,0.000000,0.000000,0.000368,-0.000002,0.000000,0.000000,0.000000,0.000000,0.000000,819,819,819,819
9461,0,0.029671,0.020944,-0.001092,-0.00,-0.00,-0.000015,0.005000,-0.001485,-0.001048,0.000000,0.000000,0.000000,0.000000,0.000368,-0.000002,0.000000,0.000000,0.000000,0.000000,0.000000,819,819,819,819
9471,0,0.029671,0.020944,-0.001092,-0.00,-0.00,-0.000013,0.005000,-0.001485,-0.001048,0.000000,0.000000,0.000000,0.000000,0.000368,-0.000002,0.000000,0.000000,0.000000,0.000000,0.000000,819,819,819,819
9481,0,0.029671,0.020944,-0.001092,-0.00,-0.00,-0.000014,0.005000,-0.001485,-0.001048,0.000000,0.000000,0.000000,0.000000,0.000367,-0.000002,0.000000,0.000000,0.000000,0.000000,0.000000,819,819,819,819
9491,0,0.029671,0.020944,-0.001092,-0.00,-0.00,-0.000014,0.005000,-0.001485,-0.001048,0.000000,0.000000,0.000000,0.000000,0.000367,-0.000002,0.000000,0.000000,0.000000,0.000000,0.000000,819,819,819,819
9501,0,0.029671,0.020944,-0.001092,-0.00,-0.00,-0.000015,0.005000,-0.001485,-0.001048,0.000000,0.000000,0.000000,0.000000,0.000367,-0.000002,0.000000,0.000000,0.000000,0.000000,0.000000,819,819,819,819
9511,0,0.029671,0.020944,-0.001092,-0.00,-0.00,-0.000015,0.004000,-0.001485,-0.001048,0.000000,0.000000,0.000000,0.000000,0.000368,-0.000002,0.000000,0.000000,0.000000,0.000000,0.000000,819,819,819,819
9523,0,0.029671,0.020944,-0.001092,-0.00,-0.00,-0.000012,0.004000,-0.001485,-0.001048,0.000000,0.000000,0.000000,0.000000,0.000368,-0.000002,0.000000,0.000000,0.000000,0.000000,0.000000,819,819,819,819
9532,0,0.029671,0.020944,-0.001092,-0.00,-0.00,-0.000011,0.004000,-0.001484,-0.001047,0.000000,0.000000,0.000000,0.000000,0.000368,-0.000002,0.000000,0.000000,0.000000,0.000000,0.000000,819,819,819,819
9542,0,0.029671,0.020944,-0.001092,-0.00,-0.00,-0.000015,0.004000,-0.001484,-0.001047,0.000000,0.000000,0.000000,0.000000,0.000368,-0.000002,0.000000,0.000000,0.000000,0.000000,0.000000,819,819,819,819
9551,0,0.029671,0.020944,-0.001092,-0.00,-0.00,-0.000014,0.005000,-0.001484,-0.001047,0.000000,0.000000,0.000000,0.000000,0.000370,-0.000002,0.000000,0.000000,0.000000,0.000000,0.000000,819,819,819,819
9561,0,0.029671,0.020944,-0.001092,-0.00,0.00,-0.000011,0.005000,-0.001484,-0.001047,0.000000,0.000000,0.000000,0.000000,0.000370,-0.000002,0.000000,0.000000,0.000000,0.000000,0.000000,819,819,819,819
9571,0,0.029671,0.020944,-0.001092,-0.00,0.00,-0.000006,0.005000,-0.001484,-0.001047,0.000000,0.000000,0.000000,0.000000,0.000370,-0.000002,0.000000,0.000000,0.000000,0.000000,0.000000,819,819,819,819
9581,0,0.029671,0.020944,-0.001092,-0.00,0.00,-0.000004,0.005000,-0.001484,-0.001047,0.000000,0.000000,0.000000,0.000000,0.000371,-0.000002,0.000000,0.000000,0.000000,0.000000,0.000000,819,819,819,819
9591,0,0.029671,0.020944,-0.001092,-0.00,0.00,-0.000003,0.005000,-0.001484,-0.001047,0.000000,0.000000,0.000000,0.000000,0.000371,-0.000002,0.000000,0.000000,0.000000,0.000000,0.000000,819,819,819,819
9601,0,0.029671,0.020944,-0.001092,-0.00,-0.00,-0.000003,0.005000,-0.001484,-0.001047,0.000000,0.000000,0.000000,0.000000,0.000370,-0.000002,0.000000,0.000000,0.000000,0.000000,0.000000,819,819,819,819
9611,0,0.029671,0.020944,-0.001092,-0.00,-0.00,0.000001,0.005000,-0.001484,-0.001047,0.000000,0.000000,0.000000,0.000000,0.000370,-0.000002,-0.000000,0.000000,0.000000,0.000000,0.000000,819,819,819,819
9621,0,0.029671,0.020944,-0.001092,-0.00,-0.00,0.000003,0.005000,-0.001484,-0.001048,0.000000,0.000000,0.000000,0.000000,0.000370,-0.000002,-0.000000,0.000000,0.000000,0.000000,0.000000,819,819,819,819
9638,0,0.029671,0.020944,-0.001092,-0.00,-0.00,0.000004,0.005000,-0.001484,-0.001048,0.000000,0.000000,0.000000,0.000000,0.000370,-0.000002,-0.000000,0.000000,0.000000,0.000000,0.000000,819,819,819,819
9649,0,0.029671,0.020944,-0.001092,-0.00,-0.00,0.000002,0.005000,-0.001484,-0.001048,0.000000,0.000000,0.000000,0.000000,0.000370,-0.000002,-0.000000,0.000000,0.000000,0.000000,0.000000,819,819,819,819
9660,0,0.029671,0.020944,-0.001092,0.00,-0.00,0.000005,0.005000,-0.001483,-0.001047,0.000000,0.000000,0.000000,0.000000,0.000371,-0.000002,-0.000000,0.000000,0.000000,0.000000,0.000000,819,819,819,819
9671,0,0.029671,0.020944,-0.001092,-0.00,-0.00,0.000003,0.005000,-0.001484,-0.001047,0.000000,0.000000,0.000000,0.000000,0.000371,-0.000002,-0.000000,0.000000,0.000000,0.000000,0.000000,819,819,819,819
9681,0,0.029671,0.020944,-0.001092,-0.00,-0.00,0.000001,0.005000,-0.001484,-0.001047,0.000000,0.000000,0.000000,0.000000,0.000371,-0.000002,-0.000000,0.000000,0.000000,0.000000,0.000000,819,819,819,819
9691,0,0.029671,0.020944,-0.001092,-0.00,-0.00,0.000003,0.005000,-0.001484,-0.001047,0.000000,0.000000,0.000000,0.000000,0.000370,-0.000002,-0.000000,0.000000,0.000000,0.000000,0.000000,819,819,819,819
9701,0,0.029671,0.020944,-0.001092,-0.00,-0.00,0.000000,0.005000,-0.001484,-0.001048,0.000000,0.000000,0.000000,0.000000,0.000370,-0.000002,-0.000000,0.000000,0.000000,0.000000,0.000000,819,819,819,819
9711,0,0.029671,0.020944,-0.001092,-0.00,-0.00,0.000000,0.005000,-0.001484,-0.001048,0.000000,0.000000,0.000000,0.000000,0.000370,-0.000002,-0.000000,0.000000,0.000000,0.000000,0.000000,819,819,819,819
9721,0,0.029671,0.020944,-0.001092,-0.00,-0.00,0.000002,0.005000,-0.001484,-0.001048,0.000000,0.000000,0.000000,0.000000,0.000370,-0.000002,-0.000000,0.000000,0.000000,0.000000,0.000000,819,819,819,819
9731,0,0.029671,0.020944,-0.001092,0.00,-0.00,0.000000,0.005000,-0.001484,-0.001048,0.000000,0.000000,0.000000,0.000000,0.000371,-0.000002,-0.000000,0.000000,0.000000,0.000000,0.000000,819,819,819,819
9741,0,0.029671,0.020944,-0.001092,0.00,-0.00,0.000002,0.005000,-0.001483,-0.001048,0.000000,0.000000,0.000000,0.000000,0.000371,-0.000002,-0.000000,0.000000,0.000000,0.000000,0.000000,819,819,819,819
9751,0,0.029671,0.020944,-0.001092,0.00,-0.00,0.000006,0.005000,-0.001483,-0.001047,0.000000,0.000000,0.000000,0.000000,0.000371,-0.000002,-0.000000,0.000000,0.000000,0.000000,0.000000,819,819,819,819
9761,0,0.029671,0.020944,-0.001092,0.00,-0.00,0.000007,0.005000,-0.001483,-0.001048,0.000000,0.000000,0.000000,0.000000,0.000372,-0.000002,-0.000000,0.000000,0.000000,0.000000,0.000000,819,819,819,819
9771,0,0.029671,0.020944,-0.001092,0.00,-0.00,0.000003,0.005000,-0.001483,-0.001048,0.000000,0.000000,0.000000,0.000000,0.000372,-0.000002,-0.000000,0.000000,0.000000,0.000000,0.000000,819,819,819,819
9781,0,0.029671,0.020944,-0.001092,0.00,-0.00,0.000002,0.005000,-0.001483,-0.001047,0.000000,0.000000,0.000000,0.000000,0.000372,-0.000002,-0.000000,0.000000,0.000000,0.000000,0.000000,819,819,819,819
9792,0,0.029671,0.020944,-0.001092,0.00,-0.00,0.000004,0.005000,-0.001483,-0.001048,0.000000,0.000000,0.000000,0.000000,0.000373,-0.000002,-0.000000,0.000000,0.000000,0.000000,0.000000,819,819,819,819
9801,0,0.029671,0.020944,-0.001092,0.00,-0.00,0.000005,0.005000,-0.001483,-0.001047,0.000000,0.000000,0.000000,0.000000,0.000374,-0.000002,-0.000000,0.000000,0.000000,0.000000,0.000000,819,819,819,819
9811,0,0.029671,0.020944,-0.001092,0.00,-0.00,0.000005,0.005000,-0.001483,-0.001047,0.000000,0.000000,0.000000,0.000000,0.000373,-0.000002,-0.000000,0.000000,0.000000,0.000000,0.000000,819,819,819,819
9821,0,0.029671,0.020944,-0.001092,0.00,-0.00,0.000003,0.005000,-0.001483,-0.001047,0.000000,0.000000,0.000000,0.000000,0.000373,-0.000002,-0.000000,0.000000,0.000000,0.000000,0.000000,819,819,819,819
9831,0,0.029671,0.020944,-0.001092,0.00,-0.00,0.000004,0.005000,-0.001482,-0.001047,0.000000,0.000000,0.000000,0.000000,0.000374,-0.000002,-0.000000,0.000000,0.000000,0.000000,0.000000,819,819,819,819
9842,0,0.029671,0.020944,-0.001092,0.00,-0.00,0.000004,0.005000,-0.001483,-0.001048,0.000000,0.000000,0.000000,0.000000,0.000374,-0.000002,-0.000000,0.000000,0.000000,0.000000,0.000000,819,819,819,819
9852,0,0.029671,0.020944,-0.001092,0.00,-0.00,0.000003,0.005000,-0.001483,-0.001048,0.000000,0.000000,0.000000,0.000000,0.000373,-0.000002,-0.000000,0.000000,0.000000,0.000000,0.000000,819,819,819,819
9861,0,0.029671,0.020944,-0.001092,0.00,-0.00,0.000001,0.005000,-0.001483,-0.001048,0.000000,0.000000,0.000000,0.000000,0.000374,-0.000002,-0.000000,0.000000,0.000000,0.000000,0.000000,819,819,819,819
9872,0,0.029671,0.020944,-0.001092,0.00,-0.00,-0.000000,0.005000,-0.001483,-0.001047,0.000000,0.000000,0.000000,0.000000,0.000373,-0.000002,0.000000,0.000000,0.000000,0.000000,0.000000,819,819,819,819
9882,0,0.029671,0.020944,-0.001092,0.00,-0.00,-0.000002,0.005000,-0.001483,-0.001048,0.000000,0.000000,0.000000,0.000000,0.000373,-0.000002,0.000000,0.000000,0.000000,0.000000,0.000000,819,819,819,819
9892,0,0.029671,0.020944,-0.001092,0.00,-0.00,-0.000000,0.005000,-0.001483,-0.001048,0.000000,0.000000,0.000000,0.000000,0.000372,-0.000002,0.000000,0.000000,0.000000,0.000000,0.000000,819,819,819,819
9902,0,0.029671,0.020944,-0.001092,0.00,-0.00,0.000001,0.005000,-0.001483,-0.001048,0.000000,0.000000,0.000000,0.000000,0.000373,-0.000002,-0.000000,0.000000,0.000000,0.000000,0.000000,819,819,819,819
9912,0,0.029671,0.020944,-0.001092,0.00,-0.00,0.000003,0.005000,-0.001483,-0.001048,0.000000,0.000000,0.000000,0.000000,0.000373,-0.000002,-0.000000,0.000000,0.000000,0.000000,0.000000,819,819,819,819
9922,0,0.029671,0.020944,-0.001092,0.00,-0.00,0.000008,0.005000,-0.001483,-0.001048,0.000000,0.000000,0.000000,0.000000,0.000373,-0.000002,-0.000000,0.000000,0.000000,0.000000,0.000000,819,819,819,819
9932,0,0.029671,0.020944,-0.001092,0.00,-0.00,0.000013,0.005000,-0.001483,-0.001048,0.000000,0.000000,0.000000,0.000000,0.000373,-0.000002,-0.000000,0.000000,0.000000,0.000000,0.000000,819,819,819,819
9942,0,0.029671,0.020944,-0.001092,0.00,-0.00,0.000015,0.005000,-0.001483,-0.001048,0.000000,0.000000,0.000000,0.000000,0.000373,-0.000002,-0.000000,0.000000,0.000000,0.000000,0.000000,819,819,819,819
9959,0,0.029671,0.020944,-0.001092,0.00,-0.00,0.000014,0.005000,-0.001483,-0.001048,0.000000,0.000000,0.000000,0.000000,0.000373,-0.000002,-0.000000,0.000000,0.000000,0.000000,0.000000,819,819,819,819
9970,0,0.029671,0.020944,-0.001092,0.00,-0.00,0.000009,0.005000,-0.001483,-0.001047,0.000000,0.000000,0.000000,0.000000,0.000373,-0.000002,-0.000000,0.000000,0.000000,0.000000,0.000000,819,819,819,819
9982,0,0.029671,0.020944,-0.001092,0.00,-0.00,0.000008,0.005000,-0.001482,-0.001047,0.000000,0.000000,0.000000,0.000000,0.000374,-0.000002,-0.000000,0.000000,0.000000,0.000000,0.000000,819,819,819,819
9992,0,0.029671,0.020944,-0.001092,0.00,-0.00,0.000011,0.005000,-0.001482,-0.001047,0.000000,0.000000,0.000000,0.000000,0.000374,-0.000002,-0.000000,0.000000,0.000000,0.000000,0.000000,819,819,819,819
10002,0,0.029671,0.020944,-0.001092,0.00,-0.00,0.000013,0.005000,-0.001482,-0.001048,0.000000,0.000000,0.000000,0.000000,0.000374,-0.000002,-0.000000,0.000000,0.000000,0.000000,0.000000,819,819,819,819
10012,0,0.029671,0.020944,-0.001092,0.00,-0.00,0.000012,0.005000,-0.001482,-0.001047,0.000000,0.000000,0.000000,0.000000,0.000374,-0.000002,-0.000000,0.000000,0.000000,0.000000,0.000000,819,819,819,819
10022,0,0.029671,0.020944,-0.001092,0.00,-0.00,0.000009,0.005000,-0.001483,-0.001047,0.000000,0.000000,0.000000,0.000000,0.000374,-0.000002,-0.000000,0.000000,0.000000,0.000000,0.000000,819,819,819,819
10032,0,0.029671,0.020944,-0.001092,0.00,-0.00,0.000010,0.005000,-0.001483,-0.001048,0.000000,0.000000,0.000000,0.000000,0.000374,-0.000002,-0.000000,0.000000,0.000000,0.000000,0.000000,819,819,819,819
10042,0,0.029671,0.020944,-0.001092,0.00,-0.00,0.000007,0.005000,-0.001483,-0.001048,0.000000,0.000000,0.000000,0.000000,0.000374,-0.000002,-0.000000,0.000000,0.000000,0.000000,0.000000,819,819,819,819
10052,0,0.029671,0.020944,-0.001092,0.00,-0.00,0.000010,0.005000,-0.001483,-0.001047,0.000000,0.000000,0.000000,0.000000,0.000373,-0.000002,-0.000000,0.000000,0.000000,0.000000,0.000000,819,819,819,819
10062,0,0.029671,0.020944,-0.001092,0.00,-0.00,0.000011,0.005000,-0.001483,-0.001047,0.000000,0.000000,0.000000,0.000000,0.000373,-0.000002,-0.000000,0.000000,0.000000,0.000000,0.000000,819,819,819,819
