t,is_crashed,roll,pitch,yaw,p,q,r,throttle,p_cmd,q_cmd,r_cmd,roll_cmd,pitch_cmd,yaw_cmd,roll_pid_out,pitch_pid_out,yaw_pid_out,motor_fl,motor_bl,motor_fr,motor_br,pwm_fl,pwm_bl,pwm_fr,pwm_br
6958,0,0.005890,0.008072,0.000218,-0.00,0.00,0.000004,0.002000,-0.000295,-0.000404,0.000000,0.000000,0.000000,0.000000,0.000293,-0.000001,-0.000000,0.000000,0.000000,0.000000,0.000000,0,0,0,0
6971,0,0.009425,0.012915,0.000393,0.00,0.00,-0.000002,0.003000,-0.000363,-0.000553,0.000000,0.000000,0.000000,0.000000,0.001720,-0.000007,0.000000,0.000000,0.000000,0.000000,0.000000,819,819,819,819
6983,0,0.012252,0.016790,0.000532,0.00,0.00,-0.000016,0.002000,-0.000421,-0.000675,0.000000,0.000000,0.000000,0.000000,0.002821,-0.000012,0.000000,0.000000,0.000000,0.000000,0.000000,819,819,819,819
6995,0,0.014514,0.019890,0.000644,0.00,0.00,-0.000035,0.002000,-0.000478,-0.000782,0.000000,0.000000,0.000000,0.000000,0.003580,-0.000015,0.000000,0.000000,0.000000,0.000000,0.000000,819,819,819,819
7005,0,0.016324,0.022370,0.000733,0.00,0.00,-0.000048,0.002000,-0.000520,-0.000865,0.000000,0.000000,0.000000,0.000000,0.004219,-0.000018,0.000000,0.000000,0.000000,0.000000,0.000000,819,819,819,819
7015,0,0.017771,0.024353,0.000805,0.00,0.00,-0.000050,0.002000,-0.000564,-0.000940,0.000000,0.000000,0.000000,0.000000,0.004620,-0.000019,0.000000,0.000000,0.000000,0.000000,0.000000,819,819,819,819
7025,0,0.018929,0.025940,0.000862,0.00,0.00,-0.000040,0.002000,-0.000608,-0.001006,0.000000,0.000000,0.000000,0.000000,0.004841,-0.000020,0.000000,0.000000,0.000000,0.000000,0.000000,819,819,819,819
7035,0,0.019856,0.027210,0.000908,0.00,0.00,-0.000024,0.002000,-0.000651,-0.001067,0.000000,0.000000,0.000000,0.000000,0.004924,-0.000020,0.000000,0.000000,0.000000,0.000000,0.000000,819,819,819,819
7045,0,0.020597,0.028226,0.000944,0.00,0.00,-0.000011,0.003000,-0.000693,-0.001122,0.000000,0.000000,0.000000,0.000000,0.004909,-0.000020,0.000000,0.000000,0.000000,0.000000,0.000000,819,819,819,819
7055,0,0.021190,0.029038,0.000974,0.00,0.00,-0.000002,0.003000,-0.000732,-0.001172,0.000000,0.000000,0.000000,0.000000,0.004825,-0.000020,0.000000,0.000000,0.000000,0.000000,0.000000,819,819,819,819
7065,0,0.021664,0.029688,0.000997,0.00,0.00,0.000001,0.003000,-0.000770,-0.001216,0.000000,0.000000,0.000000,0.000000,0.004691,-0.000019,-0.000000,0.000000,0.000000,0.000000,0.000000,819,819,819,819
7075,0,0.022044,0.030208,0.001016,0.00,0.00,0.000010,0.002000,-0.000805,-0.001256,0.000000,0.000000,0.000000,0.000000,0.004522,-0.000019,-0.000000,0.000000,0.000000,0.000000,0.000000,819,819,819,819
7089,0,0.022348,0.030624,0.001031,0.00,0.00,0.000013,0.002000,-0.000841,-0.001294,0.000000,0.000000,0.000000,0.000000,0.004298,-0.000018,-0.000000,0.000000,0.000000,0.000000,0.000000,819,819,819,819
7102,0,0.022590,0.030957,0.001043,0.00,0.00,0.000010,0.002000,-0.000873,-0.001328,0.000000,0.000000,0.000000,0.000000,0.004081,-0.000017,-0.000000,0.000000,0.000000,0.000000,0.000000,819,819,819,819
7114,0,0.022785,0.031224,0.001052,0.00,0.00,0.000007,0.002000,-0.000901,-0.001358,0.000000,0.000000,0.000000,0.000000,0.003874,-0.000016,-0.000000,0.000000,0.000000,0.000000,0.000000,819,819,819,819
7125,0,0.022940,0.031437,0.001060,0.00,0.00,0.000005,0.003000,-0.000927,-0.001384,0.000000,0.000000,0.000000,0.000000,0.003675,-0.000015,-0.000000,0.000000,0.000000,0.000000,0.000000,819,819,819,819
7135,0,0.023065,0.031607,0.001066,0.00,0.00,0.000006,0.003000,-0.000950,-0.001407,0.000000,0.000000,0.000000,0.000000,0.003487,-0.000014,-0.000000,0.000000,0.000000,0.000000,0.000000,819,819,819,819
7145,0,0.023164,0.031743,0.001071,0.00,0.00,0.000009,0.003000,-0.000972,-0.001427,0.000000,0.000000,0.000000,0.000000,0.003304,-0.000013,-0.000000,0.000000,0.000000,0.000000,0.000000,819,819,819,819
7155,0,0.023244,0.031852,0.001075,0.00,0.00,0.000015,0.003000,-0.000991,-0.001446,0.000000,0.000000,0.000000,0.000000,0.003135,-0.000013,-0.000000,0.000000,0.000000,0.000000,0.000000,819,819,819,819
7165,0,0.023307,0.031940,0.001078,0.00,0.00,0.000016,0.002000,-0.001009,-0.001463,0.000000,0.000000,0.000000,0.000000,0.002969,-0.000012,-0.000000,0.000000,0.000000,0.000000,0.000000,819,819,819,819
7175,0,0.023358,0.032009,0.001081,0.00,0.00,0.000013,0.002000,-0.001025,-0.001478,0.000000,0.000000,0.000000,0.000000,0.002816,-0.000011,-0.000000,0.000000,0.000000,0.000000,0.000000,819,819,819,819
7185,0,0.023399,0.032065,0.001083,0.00,0.00,0.000013,0.002000,-0.001039,-0.001491,0.000000,0.000000,0.000000,0.000000,0.002670,-0.000011,-0.000000,0.000000,0.000000,0.000000,0.000000,819,819,819,819
7195,0,0.023432,0.032110,0.001084,0.00,0.00,0.000010,0.003000,-0.001053,-0.001503,0.000000,0.000000,0.000000,0.000000,0.002539,-0.000010,-0.000000,0.000000,0.000000,0.000000,0.000000,819,819,819,819
7205,0,0.023458,0.032146,0.001086,0.00,0.00,0.000002,0.003000,-0.001065,-0.001514,0.000000,0.000000,0.000000,0.000000,0.002415,-0.000010,-0.000000,0.000000,0.000000,0.000000,0.000000,819,819,819,819
7215,0,0.023478,0.032174,0.001087,0.00,0.00,-0.000004,0.003000,-0.001076,-0.001524,0.000000,0.000000,0.000000,0.000000,0.002302,-0.000009,0.000000,0.000000,0.000000,0.000000,0.000000,819,819,819,819
7225,0,0.023495,0.032197,0.001088,0.00,0.00,-0.000014,0.003000,-0.001086,-0.001533,0.000000,0.000000,0.000000,0.000000,0.002197,-0.000009,0.000000,0.000000,0.000000,0.000000,0.000000,819,819,819,819
7236,0,0.023509,0.032215,0.001088,0.00,0.00,-0.000016,0.003000,-0.001095,-0.001542,0.000000,0.000000,0.000000,0.000000,0.002101,-0.000008,0.000000,0.000000,0.000000,0.000000,0.000000,819,819,819,819
7246,0,0.023519,0.032230,0.001089,0.00,0.00,-0.000013,0.003000,-0.001103,-0.001549,0.000000,0.000000,0.000000,0.000000,0.002016,-0.000008,0.000000,0.000000,0.000000,0.000000,0.000000,819,819,819,819
7256,0,0.023528,0.032242,0.001089,0.00,0.00,-0.000001,0.003000,-0.001110,-0.001555,0.000000,0.000000,0.000000,0.000000,0.001938,-0.000008,0.000000,0.000000,0.000000,0.000000,0.000000,819,819,819,819
7265,0,0.023535,0.032251,0.001089,0.00,0.00,0.000017,0.003000,-0.001117,-0.001561,0.000000,0.000000,0.000000,0.000000,0.001869,-0.000007,-0.000000,0.000000,0.000000,0.000000,0.000000,819,819,819,819
7276,0,0.023540,0.032259,0.001090,0.00,0.00,0.000035,0.003000,-0.001122,-0.001566,0.000000,0.000000,0.000000,0.000000,0.001804,-0.000007,-0.000000,0.000000,0.000000,0.000000,0.000000,819,819,819,819
7286,0,0.023544,0.032265,0.001090,0.00,0.00,0.000050,0.003000,-0.001128,-0.001571,0.000000,0.000000,0.000000,0.000000,0.001745,-0.000007,-0.000000,0.000000,0.000000,0.000000,0.000000,819,819,819,819
7296,0,0.023548,0.032269,0.001090,0.00,0.00,0.000053,0.003000,-0.001133,-0.001575,0.000000,0.000000,0.000000,0.000000,0.001692,-0.000007,-0.000000,0.000000,0.000000,0.000000,0.000000,819,819,819,819
7306,0,0.023551,0.032273,0.001090,0.00,0.00,0.000044,0.002000,-0.001137,-0.001580,0.000000,0.000000,0.000000,0.000000,0.001640,-0.000006,-0.000000,0.000000,0.000000,0.000000,0.000000,819,819,819,819
7316,0,0.023553,0.032276,0.001090,0.00,0.00,0.000038,0.002000,-0.001141,-0.001583,0.000000,0.000000,0.000000,0.000000,0.001597,-0.000006,-0.000000,0.000000,0.000000,0.000000,0.000000,819,819,819,819
7326,0,0.023555,0.032279,0.001090,0.00,0.00,0.000034,0.003000,-0.001144,-0.001586,0.000000,0.000000,0.000000,0.000000,0.001561,-0.000006,-0.000000,0.000000,0.000000,0.000000,0.000000,819,819,819,819
7336,0,0.023556,0.032281,0.001091,0.00,0.00,0.000031,0.003000,-0.001148,-0.001588,0.000000,0.000000,0.000000,0.000000,0.001525,-0.000006,-0.000000,0.000000,0.000000,0.000000,0.000000,819,819,819,819
7346,0,0.023557,0.032282,0.001091,0.00,0.00,0.000039,0.003000,-0.001151,-0.001591,0.000000,0.000000,0.000000,0.000000,0.001492,-0.000006,-0.000000,0.000000,0.000000,0.000000,0.000000,819,819,819,819
7356,0,0.023558,0.032284,0.001091,0.00,0.00,0.000041,0.003000,-0.001153,-0.001594,0.000000,0.000000,0.000000,0.000000,0.001463,-0.000006,-0.000000,0.000000,0.000000,0.000000,0.000000,819,819,819,819
7366,0,0.023559,0.032285,0.001091,0.00,0.00,0.000037,0.003000,-0.001155,-0.001596,0.000000,0.000000,0.000000,0.000000,0.001438,-0.000006,-0.000000,0.000000,0.000000,0.000000,0.000000,819,819,819,819
7376,0,0.023560,0.032285,0.001091,0.00,0.00,0.000019,0.002000,-0.001157,-0.001598,0.000000,0.000000,0.000000,0.000000,0.001414,-0.000005,-0.000000,0.000000,0.000000,0.000000,0.000000,819,819,819,819
7386,0,0.023560,0.032286,0.001091,0.00,0.00,0.000000,0.002000,-0.001159,-0.001600,0.000000,0.000000,0.000000,0.000000,0.001394,-0.000005,-0.000000,0.000000,0.000000,0.000000,0.000000,819,819,819,819
7396,0,0.023560,0.032287,0.001091,0.00,0.00,-0.000017,0.002000,-0.001161,-0.001601,0.000000,0.000000,0.000000,0.000000,0.001373,-0.000005,0.000000,0.000000,0.000000,0.000000,0.000000,819,819,819,819
7410,0,0.023561,0.032287,0.001091,0.00,0.00,-0.000028,0.002000,-0.001163,-0.001602,0.000000,0.000000,0.000000,0.000000,0.001355,-0.000005,0.000000,0.000000,0.000000,0.000000,0.000000,819,819,819,819
7423,0,0.023561,0.032287,0.001091,0.00,0.00,-0.000033,0.002000,-0.001164,-0.001603,0.000000,0.000000,0.000000,0.000000,0.001341,-0.000005,0.000000,0.000000,0.000000,0.000000,0.000000,819,819,819,819
7436,0,0.023561,0.032288,0.001091,0.00,0.00,-0.000024,0.002000,-0.001165,-0.001604,0.000000,0.000000,0.000000,0.000000,0.001326,-0.000005,0.000000,0.000000,0.000000,0.000000,0.000000,819,819,819,819
7446,0,0.023561,0.032288,0.001091,0.00,0.00,-0.000022,0.002000,-0.001166,-0.001606,0.000000,0.000000,0.000000,0.000000,0.001315,-0.000005,0.000000,0.000000,0.000000,0.000000,0.000000,819,819,819,819
7456,0,0.023561,0.032288,0.001091,0.00,0.00,-0.000022,0.002000,-0.001167,-0.001607,0.000000,0.000000,0.000000,0.000000,0.001305,-0.000005,0.000000,0.000000,0.000000,0.000000,0.000000,819,819,819,819
7466,0,0.023562,0.032288,0.001091,0.00,0.00,-0.000021,0.002000,-0.001168,-0.001608,0.000000,0.000000,0.000000,0.000000,0.001289,-0.000005,0.000000,0.000000,0.000000,0.000000,0.000000,819,819,819,819
7476,0,0.023562,0.032288,0.001091,0.00,0.00,-0.000019,0.003000,-0.001170,-0.001609,0.000000,0.000000,0.000000,0.000000,0.001276,-0.000005,0.000000,0.000000,0.000000,0.000000,0.000000,819,819,819,819
7486,0,0.023562,0.032288,0.001091,0.00,0.00,-0.000019,0.003000,-0.001170,-0.001609,0.000000,0.000000,0.000000,0.000000,0.001268,-0.000005,0.000000,0.000000,0.000000,0.000000,0.000000,819,819,819,819
7496,0,0.023562,0.032288,0.001091,0.00,0.00,-0.000019,0.002000,-0.001171,-0.001610,0.000000,0.000000,0.000000,0.000000,0.001259,-0.000005,0.000000,0.000000,0.000000,0.000000,0.000000,819,819,819,819
7539,0,0.023562,0.032288,0.001091,0.00,0.00,-0.000016,0.002000,-0.001172,-0.001610,0.000000,0.000000,0.000000,0.000000,0.001246,-0.000005,0.000000,0.000000,0.000000,0.000000,0.000000,819,819,819,819
7763,0,0.023562,0.032288,0.001091,0.00,0.00,-0.000005,0.003000,-0.001173,-0.001611,0.000000,0.000000,0.000000,0.000000,0.001241,-0.000005,0.000000,0.000000,0.000000,0.000000,0.000000,819,819,819,819
8016,0,0.023562,0.032288,0.001091,0.00,0.00,-0.000003,0.003000,-0.001173,-0.001611,0.000000,0.000000,0.000000,0.000000,0.001238,-0.000004,0.000000,0.000000,0.000000,0.000000,0.000000,819,819,819,819
8260,0,0.023562,0.032288,0.001091,0.00,0.00,-0.000006,0.003000,-0.001174,-0.001612,0.000000,0.000000,0.000000,0.000000,0.001230,-0.000004,0.000000,0.000000,0.000000,0.000000,0.000000,819,819,819,819
8489,0,0.023562,0.032289,0.001091,0.00,0.00,-0.000009,0.003000,-0.001174,-0.001612,0.000000,0.000000,0.000000,0.000000,0.001223,-0.000004,0.000000,0.000000,0.000000,0.000000,0.000000,819,819,819,819
8738,0,0.023562,0.032289,0.001091,0.00,0.00,-0.000003,0.003000,-0.001175,-0.001612,0.000000,0.000000,0.000000,0.000000,0.001217,-0.000004,0.000000,0.000000,0.000000,0.000000,0.000000,819,819,819,819
8981,0,0.023780,0.032289,0.001091,0.00,0.00,-0.000012,0.003000,-0.001186,-0.001612,0.000000,0.000000,0.000000,0.000000,0.001223,-0.000004,0.000000,0.000000,0.000000,0.000000,0.000000,819,819,819,819
9229,0,0.023955,0.032289,0.001091,0.00,0.00,-0.000002,0.003000,-0.001195,-0.001612,0.000000,0.000000,0.000000,0.000000,0.001232,-0.000004,0.000000,0.000000,0.000000,0.000000,0.000000,819,819,819,819
9480,0,0.024094,0.032289,0.001091,0.00,0.00,-0.000014,0.003000,-0.001202,-0.001612,0.000000,0.000000,0.000000,0.000000,0.001236,-0.000004,0.000000,0.000000,0.000000,0.000000,0.000000,819,819,819,819
9523,0,0.024206,0.032289,0.001091,0.00,0.00,-0.000002,0.003000,-0.001207,-0.001613,0.000000,0.000000,0.000000,0.000000,0.001251,-0.000004,0.000000,0.000000,0.000000,0.000000,0.000000,819,819,819,819
9533,0,0.024295,0.032289,0.001091,0.00,0.00,0.000002,0.003000,-0.001208,-0.001612,0.000000,0.000000,0.000000,0.000000,0.001294,-0.000004,-0.000000,0.000000,0.000000,0.000000,0.000000,819,819,819,819
9542,0,0.024367,0.032289,0.001091,0.00,0.00,-0.000004,0.111000,-0.001209,-0.001613,0.000000,0.000000,0.000000,0.000000,0.001329,-0.000004,0.000000,0.109667,0.109674,0.112326,0.112333,908,949,927,952
9551,0,0.024424,0.032289,0.001091,0.00,0.00,-0.000020,0.111000,-0.001210,-0.001613,0.000000,0.000000,0.000000,0.000000,0.001347,-0.000004,0.000000,0.109650,0.109656,0.112343,0.112351,908,949,927,952
9561,0,0.024470,0.032289,0.001091,0.00,0.00,-0.000027,0.111000,-0.001212,-0.001614,0.000000,0.000000,0.000000,0.000000,0.001356,-0.000004,0.000000,0.109641,0.109647,0.112352,0.112360,908,949,927,952
9571,0,0.024506,0.032289,0.001091,0.00,0.00,-0.000031,0.111000,-0.001214,-0.001614,0.000000,0.000000,0.000000,0.000000,0.001360,-0.000004,0.000000,0.109637,0.109643,0.112356,0.112364,908,949,927,952
9581,0,0.024536,0.032289,0.001091,0.00,0.00,-0.000028,0.111000,-0.001215,-0.001614,0.000000,0.000000,0.000000,0.000000,0.001361,-0.000004,0.000000,0.109635,0.109642,0.112357,0.112365,908,949,927,952
9591,0,0.024559,0.032289,0.001091,0.00,0.00,-0.000024,0.112000,-0.001216,-0.001614,0.000000,0.000000,0.000000,0.000000,0.001360,-0.000004,0.000000,0.110637,0.110643,0.113356,0.113364,909,950,928,952
9601,0,0.024578,0.032289,0.001091,0.00,0.00,0.000004,0.111000,-0.001218,-0.001614,0.000000,0.000000,0.000000,0.000000,0.001353,-0.000004,-0.000000,0.109644,0.109651,0.112349,0.112356,908,949,927,952
9611,0,0.024593,0.032289,0.001091,0.00,0.00,0.000021,0.111000,-0.001220,-0.001614,0.000000,0.000000,0.000000,0.000000,0.001345,-0.000004,-0.000000,0.109651,0.109659,0.112341,0.112348,908,949,927,952
9621,0,0.024387,0.032289,0.001091,0.00,0.00,0.000037,0.113000,-0.001219,-0.001614,0.000000,0.000000,0.000000,0.000000,0.001221,-0.000004,-0.000000,0.111775,0.111782,0.114218,0.114225,910,951,929,953
9631,0,0.024222,0.032289,0.001091,-0.00,0.00,0.000043,0.118000,-0.001218,-0.001613,0.000000,0.000000,0.000000,0.000000,0.001130,-0.000004,-0.000000,0.116866,0.116874,0.119127,0.119134,914,955,933,957
9641,0,0.024090,0.032289,0.001091,-0.00,0.00,0.000017,0.118000,-0.001216,-0.001613,0.000000,0.000000,0.000000,0.000000,0.001068,-0.000004,-0.000000,0.116928,0.116936,0.119065,0.119071,914,955,933,957
9651,0,0.024202,0.032289,0.001091,-0.00,0.00,0.000003,0.128000,-0.001216,-0.001613,0.000000,0.000000,0.000000,0.000000,0.001141,-0.000004,-0.000000,0.126856,0.126863,0.129137,0.129144,923,964,941,965
9661,0,0.024292,0.032289,0.001091,-0.00,0.00,-0.000017,0.132000,-0.001216,-0.001613,0.000000,0.000000,0.000000,0.000000,0.001194,-0.000004,0.000000,0.130803,0.130810,0.133190,0.133197,926,967,944,969
9671,0,0.024365,0.032289,0.001091,0.00,0.00,-0.000034,0.132000,-0.001216,-0.001613,0.000000,0.000000,0.000000,0.000000,0.001244,-0.000004,0.000000,0.130753,0.130759,0.133240,0.133248,926,967,944,969
9681,0,0.024422,0.032289,0.001091,0.00,0.00,-0.000049,0.132000,-0.001216,-0.001612,0.000000,0.000000,0.000000,0.000000,0.001283,-0.000004,0.000000,0.130714,0.130721,0.133278,0.133287,926,967,944,969
9692,0,0.024468,0.032289,0.001091,0.00,0.00,-0.000068,0.139000,-0.001216,-0.001612,0.000000,0.000000,0.000000,0.000000,0.001313,-0.000004,0.000000,0.137684,0.137690,0.140309,0.140317,931,972,950,975
9701,0,0.024505,0.032289,0.001091,0.00,0.00,-0.000077,0.142000,-0.001215,-0.001612,0.000000,0.000000,0.000000,0.000000,0.001343,-0.000004,0.000000,0.140654,0.140660,0.143339,0.143347,934,975,952,977
9712,0,0.024535,0.032289,0.001091,0.00,0.00,-0.000061,0.142000,-0.001214,-0.001613,0.000000,0.000000,0.000000,0.000000,0.001373,-0.000004,0.000000,0.140624,0.140630,0.143369,0.143377,934,975,952,977
9724,0,0.024558,0.032289,0.000873,0.00,0.00,0.000006,0.143000,-0.001213,-0.001613,0.000000,0.000000,0.000000,0.000000,0.001401,-0.000004,-0.000000,0.141595,0.141602,0.144398,0.144405,935,976,953,978
9733,0,0.024359,0.032289,0.000698,0.00,0.00,0.000158,0.143000,-0.001206,-0.001613,0.000000,0.000000,0.000000,0.000000,0.001352,-0.000004,-0.000002,0.141643,0.141653,0.144350,0.144354,935,976,953,978
9743,0,0.023981,0.032289,1.256977,0.00,0.00,0.000262,0.143000,-0.001194,-0.001612,0.000000,0.000000,0.000000,0.000000,0.001262,-0.000004,-0.000003,0.141731,0.141744,0.144261,0.144263,935,976,953,978
9752,0,0.023898,0.032289,2.262001,0.00,0.00,0.000143,0.143000,-0.001186,-0.001610,0.000000,0.000000,0.000000,0.000000,0.001302,-0.000004,-0.000001,0.141693,0.141703,0.144300,0.144304,935,976,953,978
9762,0,0.024049,0.032070,3.065802,0.00,0.00,-0.000098,0.143000,-0.001184,-0.001603,0.000000,0.000000,0.000000,0.000000,0.001412,-0.000003,0.000001,0.141586,0.141591,0.144407,0.144416,935,976,953,978
9772,0,0.024388,0.031896,-2.574125,0.00,-0.00,-0.000248,0.143000,-0.001192,-0.001599,0.000000,0.000000,0.000000,0.000000,0.001535,-0.000003,0.000003,0.141464,0.141465,0.144530,0.144541,935,975,953,978
9782,0,0.024659,0.031756,-2.059518,0.00,-0.00,-0.000185,0.143000,-0.001204,-0.001597,0.000000,0.000000,0.000000,0.000000,0.001569,-0.000003,0.000002,0.141430,0.141432,0.144564,0.144574,935,975,953,978
9792,0,0.024876,0.031645,-1.647833,0.00,-0.00,0.000017,0.143000,-0.001219,-0.001594,0.000000,0.000000,0.000000,0.000000,0.001526,-0.000003,-0.000000,0.141471,0.141477,0.144523,0.144529,935,975,953,978
9802,0,0.024831,0.031555,-2.574903,0.00,-0.00,0.000202,0.143000,-0.001237,-0.001589,0.000000,0.000000,0.000000,0.000000,0.001295,-0.000003,-0.000002,0.141700,0.141710,0.144295,0.144296,935,976,953,978
9812,0,0.024577,0.031484,2.966844,-0.00,-0.00,0.000280,0.143000,-0.001250,-0.001585,0.000000,0.000000,0.000000,0.000000,0.000986,-0.000003,-0.000003,0.142008,0.142020,0.143986,0.143986,935,976,953,978
9829,0,0.024156,0.031427,2.374130,-0.00,-0.00,0.000214,0.143000,-0.001251,-0.001583,0.000000,0.000000,0.000000,0.000000,0.000712,-0.000003,-0.000002,0.142283,0.142293,0.143711,0.143713,935,976,953,977
9841,0,0.024037,0.031599,1.899958,-0.00,-0.00,0.000072,0.143000,-0.001256,-0.001590,0.000000,0.000000,0.000000,0.000000,0.000584,-0.000003,-0.000000,0.142413,0.142420,0.143581,0.143586,935,976,953,977
9850,0,0.024160,0.031737,1.520839,-0.00,-0.00,-0.000079,0.143000,-0.001260,-0.001592,0.000000,0.000000,0.000000,0.000000,0.000605,-0.000003,0.000000,0.142393,0.142398,0.143601,0.143609,935,976,953,977
9861,0,0.024477,0.031629,1.217762,-0.00,-0.00,-0.000139,0.144000,-0.001261,-0.001586,0.000000,0.000000,0.000000,0.000000,0.000793,-0.000003,0.000001,0.143205,0.143208,0.144789,0.144798,936,977,954,978
9871,0,0.024730,0.031543,0.975301,-0.00,-0.00,-0.000134,0.144000,-0.001259,-0.001583,0.000000,0.000000,0.000000,0.000000,0.000972,-0.000003,0.000001,0.143026,0.143029,0.144968,0.144977,936,977,954,978
9882,0,0.024933,0.031474,0.781331,-0.00,-0.00,-0.000084,0.144000,-0.001260,-0.001582,0.000000,0.000000,0.000000,0.000000,0.001092,-0.000003,0.000000,0.142906,0.142910,0.145088,0.145096,936,977,954,978
9892,0,0.025095,0.031419,0.626156,-0.00,-0.00,0.000042,0.144000,-0.001262,-0.001579,0.000000,0.000000,0.000000,0.000000,0.001175,-0.000003,-0.000000,0.142821,0.142828,0.145172,0.145178,936,977,954,979
9902,0,0.025007,0.031374,0.502016,-0.00,-0.00,0.000155,0.144000,-0.001261,-0.001576,0.000000,0.000000,0.000000,0.000000,0.001128,-0.000003,-0.000002,0.142867,0.142877,0.145126,0.145129,936,977,954,978
9912,0,0.024936,0.031339,0.402703,-0.00,-0.00,0.000197,0.144000,-0.001259,-0.001574,0.000000,0.000000,0.000000,0.000000,0.001102,-0.000003,-0.000002,0.142893,0.142903,0.145101,0.145103,936,977,954,978
9922,0,0.024879,0.031311,0.323254,-0.00,-0.00,0.000156,0.144000,-0.001258,-0.001573,0.000000,0.000000,0.000000,0.000000,0.001081,-0.000003,-0.000002,0.142914,0.142923,0.145080,0.145083,936,977,954,978
9932,0,0.024834,0.031288,0.259694,-0.00,-0.00,0.000116,0.144000,-0.001257,-0.001571,0.000000,0.000000,0.000000,0.000000,0.001068,-0.000003,-0.000001,0.142928,0.142936,0.145066,0.145070,936,977,954,978
9942,0,0.024798,0.031270,0.208846,-0.00,-0.00,0.000092,0.144000,-0.001256,-0.001569,0.000000,0.000000,0.000000,0.000000,0.001057,-0.000003,-0.000000,0.142939,0.142947,0.145055,0.145059,936,977,954,978
9952,0,0.024769,0.031256,0.168167,-0.00,-0.00,0.000048,0.144000,-0.001255,-0.001567,0.000000,0.000000,0.000000,0.000000,0.001049,-0.000003,-0.000000,0.142948,0.142955,0.145046,0.145051,936,977,954,978
9962,0,0.024746,0.031244,0.135625,-0.00,-0.00,0.000048,0.144000,-0.001253,-0.001566,0.000000,0.000000,0.000000,0.000000,0.001057,-0.000003,-0.000000,0.142939,0.142946,0.145055,0.145060,936,977,954,978
9972,0,0.024727,0.031235,0.109591,-0.00,-0.00,0.000042,0.144000,-0.001250,-0.001567,0.000000,0.000000,0.000000,0.000000,0.001079,-0.000003,-0.000000,0.142917,0.142924,0.145077,0.145082,936,977,954,978
9982,0,0.024712,0.031227,0.088763,-0.00,-0.00,0.000051,0.144000,-0.001249,-0.001569,0.000000,0.000000,0.000000,0.000000,0.001086,-0.000003,-0.000000,0.142911,0.142918,0.145083,0.145088,936,977,954,978
9992,0,0.024700,0.031221,0.072102,-0.00,-0.00,0.000120,0.144000,-0.001248,-0.001568,0.000000,0.000000,0.000000,0.000000,0.001086,-0.000003,-0.000001,0.142909,0.142918,0.145085,0.145088,936,977,954,978
10002,0,0.024473,0.031217,0.058772,-0.00,-0.00,0.000132,0.144000,-0.001246,-0.001567,0.000000,0.000000,0.000000,0.000000,0.000970,-0.000003,-0.000001,0.143026,0.143034,0.144968,0.144972,936,977,954,978
10012,0,0.024290,0.031213,0.048108,-0.00,-0.00,0.000118,0.144000,-0.001243,-0.001566,0.000000,0.000000,0.000000,0.000000,0.000884,-0.000003,-0.000001,0.143111,0.143120,0.144882,0.144886,936,977,954,978
10022,0,0.024145,0.031210,0.039578,-0.00,-0.00,0.000101,0.144000,-0.001238,-0.001565,0.000000,0.000000,0.000000,0.000000,0.000848,-0.000003,-0.000001,0.143148,0.143156,0.144846,0.144850,936,977,954,978
10032,0,0.024028,0.031207,0.032753,-0.00,-0.00,0.000126,0.144000,-0.001232,-0.001564,0.000000,0.000000,0.000000,0.000000,0.000846,-0.000003,-0.000001,0.143149,0.143158,0.144844,0.144848,936,977,954,978
10042,0,0.023935,0.031206,0.027293,-0.00,-0.00,0.000134,0.144000,-0.001226,-0.001565,0.000000,0.000000,0.000000,0.000000,0.000857,-0.000003,-0.000001,0.143138,0.143147,0.144856,0.144859,936,977,954,978
10052,0,0.023860,0.031204,0.022925,-0.00,-0.00,0.000136,0.144000,-0.001223,-0.001565,0.000000,0.000000,0.000000,0.000000,0.000845,-0.000003,-0.000001,0.143151,0.143159,0.144843,0.144847,936,977,954,978
10062,0,0.023801,0.031203,0.019431,-0.00,-0.00,0.000191,0.144000,-0.001222,-0.001564,0.000000,0.000000,0.000000,0.000000,0.000819,-0.000003,-0.000002,0.143176,0.143186,0.144818,0.144821,936,977,954,978
10072,0,0.023753,0.031202,0.016636,-0.00,-0.00,0.000184,0.144000,-0.001220,-0.001564,0.000000,0.000000,0.000000,0.000000,0.000819,-0.000003,-0.000002,0.143176,0.143186,0.144818,0.144820,936,977,954,978
10082,0,0.023715,0.031201,0.014399,-0.00,-0.00,0.000158,0.144000,-0.001217,-0.001564,0.000000,0.000000,0.000000,0.000000,0.000826,-0.000003,-0.000002,0.143169,0.143178,0.144825,0.144828,936,977,954,978
10093,0,0.023684,0.031200,0.012610,-0.00,-0.00,0.000108,0.144000,-0.001213,-0.001563,0.000000,0.000000,0.000000,0.000000,0.000850,-0.000003,-0.000001,0.143146,0.143155,0.144847,0.144852,936,977,954,978
10103,0,0.023660,0.031200,0.011179,-0.00,-0.00,0.000080,0.144000,-0.001210,-0.001561,0.000000,0.000000,0.000000,0.000000,0.000872,-0.000003,-0.000000,0.143124,0.143132,0.144870,0.144875,936,977,954,978
10112,0,0.023640,0.031199,0.010034,-0.00,-0.00,0.000045,0.144000,-0.001207,-0.001561,0.000000,0.000000,0.000000,0.000000,0.000896,-0.000003,-0.000000,0.143101,0.143108,0.144893,0.144898,936,977,954,978
10123,0,0.023625,0.031199,0.009118,-0.00,-0.00,0.000021,0.144000,-0.001204,-0.001561,0.000000,0.000000,0.000000,0.000000,0.000917,-0.000003,-0.000000,0.143080,0.143086,0.144914,0.144920,936,977,954,978
10133,0,0.023612,0.031199,0.008385,-0.00,-0.00,0.000052,0.144000,-0.001203,-0.001561,0.000000,0.000000,0.000000,0.000000,0.000924,-0.000003,-0.000000,0.143073,0.143080,0.144921,0.144926,936,977,954,978
10149,0,0.023602,0.031199,0.007799,-0.00,-0.00,0.000067,0.144000,-0.001202,-0.001562,0.000000,0.000000,0.000000,0.000000,0.000933,-0.000003,-0.000000,0.143064,0.143071,0.144930,0.144935,936,977,954,978
10160,0,0.023594,0.031198,0.007330,-0.00,-0.00,0.000078,0.144000,-0.001200,-0.001562,0.000000,0.000000,0.000000,0.000000,0.000942,-0.000003,-0.000000,0.143054,0.143062,0.144940,0.144944,936,977,954,978
10172,0,0.023588,0.031198,0.006955,-0.00,-0.00,0.000040,0.144000,-0.001197,-0.001560,0.000000,0.000000,0.000000,0.000000,0.000973,-0.000003,-0.000000,0.143023,0.143031,0.144970,0.144976,936,977,954,978
10182,0,0.023801,0.031198,0.006655,-0.00,0.00,0.000022,0.144000,-0.001197,-0.001558,0.000000,0.000000,0.000000,0.000000,0.001109,-0.000003,-0.000000,0.142888,0.142895,0.145106,0.145112,936,977,954,978
10193,0,0.023971,0.031198,0.006415,-0.00,0.00,0.000011,0.144000,-0.001199,-0.001557,0.000000,0.000000,0.000000,0.000000,0.001198,-0.000003,-0.000000,0.142798,0.142805,0.145195,0.145202,936,977,954,979
10203,0,0.024107,0.030980,0.006223,0.00,-0.00,-0.000001,0.144000,-0.001200,-0.001555,0.000000,0.000000,0.000000,0.000000,0.001265,-0.000003,0.000000,0.142732,0.142738,0.145262,0.145268,936,977,954,979
10213,0,0.024216,0.031023,0.006069,0.00,-0.00,-0.000061,0.144000,-0.001202,-0.001558,0.000000,0.000000,0.000000,0.000000,0.001313,-0.000003,0.000000,0.142685,0.142690,0.145309,0.145316,936,976,954,979
10223,0,0.024304,0.031058,0.005946,0.00,-0.00,-0.000019,0.145000,-0.001204,-0.001558,0.000000,0.000000,0.000000,0.000000,0.001349,-0.000003,0.000000,0.143648,0.143654,0.146346,0.146352,936,977,955,979
10233,0,0.024374,0.031086,0.005848,0.00,-0.00,0.000095,0.145000,-0.001206,-0.001555,0.000000,0.000000,0.000000,0.000000,0.001364,-0.000003,-0.000000,0.143632,0.143640,0.146362,0.146367,936,977,955,980
10243,0,0.024211,0.031109,0.005769,0.00,0.00,0.000231,0.145000,-0.001207,-0.001553,0.000000,0.000000,0.000000,0.000000,0.001255,-0.000003,-0.000002,0.143739,0.143750,0.146254,0.146256,936,977,955,979
10253,0,0.023863,0.030908,0.005706,-0.00,-0.00,0.000301,0.149000,-0.001203,-0.001550,0.000000,0.000000,0.000000,0.000000,0.001075,-0.000003,-0.000003,0.147919,0.147931,0.150075,0.150075,940,981,958,983
10263,0,0.023585,0.030966,0.005656,-0.00,-0.00,0.000361,0.150000,-0.001199,-0.001553,0.000000,0.000000,0.000000,0.000000,0.000950,-0.000003,-0.000004,0.149044,0.149057,0.150950,0.150949,941,982,959,983
10273,0,0.023144,0.031012,0.005615,-0.00,-0.00,0.000432,0.150000,-0.001192,-0.001556,0.000000,0.000000,0.000000,0.000000,0.000758,-0.000003,-0.000004,0.149235,0.149249,0.150759,0.150757,941,982,959,983
10283,0,0.022791,0.031050,0.005583,-0.00,-0.00,0.000459,0.150000,-0.001186,-0.001555,0.000000,0.000000,0.000000,0.000000,0.000608,-0.000003,-0.000005,0.149384,0.149400,0.150609,0.150607,941,982,958,983
10293,0,0.022291,0.031079,0.005557,-0.00,-0.00,0.000466,0.150000,-0.001178,-0.001555,0.000000,0.000000,0.000000,0.000000,0.000383,-0.000003,-0.000005,0.149610,0.149625,0.150384,0.150381,941,982,958,983
10303,0,0.021891,0.031103,0.005537,-0.00,-0.00,0.000480,0.150000,-0.001169,-0.001556,0.000000,0.000000,0.000000,0.000000,0.000238,-0.000003,-0.000005,0.149754,0.149769,0.150240,0.150237,941,982,958,983
10313,0,0.021570,0.031122,0.005520,-0.00,-0.00,0.000505,0.154000,-0.001158,-0.001557,0.000000,0.000000,0.000000,0.000000,0.000167,-0.000003,-0.000005,0.153825,0.153841,0.154169,0.154166,945,986,961,986
10323,0,0.021096,0.031137,0.005507,-0.00,0.00,0.000528,0.155000,-0.001144,-0.001556,0.000000,0.000000,0.000000,0.000000,0.000033,-0.000003,-0.000005,0.154958,0.154975,0.155035,0.155031,946,987,962,987
10333,0,0.020717,0.031149,0.005496,-0.00,0.00,0.000543,0.155000,-0.001130,-0.001554,0.000000,0.000000,0.000000,0.000000,-0.000048,-0.000003,-0.000005,0.155040,0.155057,0.154954,0.154950,946,987,962,987
10343,0,0.020413,0.030941,0.005488,-0.00,-0.00,0.000471,0.155000,-0.001118,-0.001548,0.000000,0.000000,0.000000,0.000000,-0.000095,-0.000003,-0.000005,0.155087,0.155102,0.154907,0.154904,946,987,962,986
10353,0,0.020170,0.030774,0.005481,-0.00,-0.00,0.000428,0.164000,-0.001107,-0.001545,0.000000,0.000000,0.000000,0.000000,-0.000124,-0.000003,-0.000004,0.164117,0.164131,0.163878,0.163875,953,994,969,994
10363,0,0.019976,0.030641,0.005476,-0.00,-0.00,0.000369,0.165000,-0.001097,-0.001542,0.000000,0.000000,0.000000,0.000000,-0.000128,-0.000003,-0.000004,0.165121,0.165134,0.164873,0.164871,954,995,970,995
10373,0,0.019820,0.030534,0.005471,-0.00,-0.00,0.000316,0.165000,-0.001086,-0.001541,0.000000,0.000000,0.000000,0.000000,-0.000106,-0.000003,-0.000003,0.165100,0.165112,0.164895,0.164893,954,995,970,995
10383,0,0.019696,0.030667,0.005468,-0.00,-0.00,0.000228,0.166000,-0.001077,-0.001544,0.000000,0.000000,0.000000,0.000000,-0.000071,-0.000003,-0.000002,0.166066,0.166076,0.165928,0.165929,955,996,971,996
10393,0,0.019597,0.030773,0.005465,-0.00,-0.00,0.000248,0.167000,-0.001067,-0.001548,0.000000,0.000000,0.000000,0.000000,-0.000023,-0.000003,-0.000002,0.167018,0.167028,0.166976,0.166977,955,996,972,996
10403,0,0.019517,0.030858,0.005463,-0.00,-0.00,0.000259,0.167000,-0.001059,-0.001548,0.000000,0.000000,0.000000,0.000000,0.000018,-0.000003,-0.000003,0.166976,0.166987,0.167018,0.167019,955,996,972,996
10413,0,0.019453,0.030926,0.005461,-0.00,0.00,0.000309,0.167000,-0.001053,-0.001545,0.000000,0.000000,0.000000,0.000000,0.000043,-0.000003,-0.000003,0.166951,0.166963,0.167043,0.167043,955,996,972,996
10423,0,0.019184,0.030980,0.005460,-0.00,0.00,0.000379,0.167000,-0.001044,-0.001542,0.000000,0.000000,0.000000,0.000000,-0.000021,-0.000003,-0.000004,0.167014,0.167028,0.166979,0.166979,955,996,972,996
10433,0,0.018969,0.030806,0.005459,-0.00,0.00,0.000446,0.167000,-0.001034,-0.001535,0.000000,0.000000,0.000000,0.000000,-0.000041,-0.000003,-0.000004,0.167033,0.167049,0.166960,0.166958,955,996,972,996
10444,0,0.018579,0.030666,0.005458,-0.00,0.00,0.000398,0.167000,-0.001023,-0.001528,0.000000,0.000000,0.000000,0.000000,-0.000150,-0.000003,-0.000004,0.167142,0.167157,0.166851,0.166850,956,997,972,996
10453,0,0.018266,0.030336,0.005457,-0.00,0.00,0.000521,0.167000,-0.001013,-0.001515,0.000000,0.000000,0.000000,0.000000,-0.000229,-0.000003,-0.000005,0.167221,0.167237,0.166773,0.166769,956,997,972,996
10471,0,0.017798,0.029854,0.005675,-0.00,0.00,0.000631,0.167000,-0.000993,-0.001489,0.000000,0.000000,0.000000,0.000000,-0.000293,-0.000003,-0.000006,0.167284,0.167302,0.166710,0.166704,956,997,972,996
10482,0,0.017424,0.029032,0.005849,-0.00,-0.00,0.000589,0.167000,-0.000979,-0.001452,0.000000,0.000000,0.000000,0.000000,-0.000367,-0.000003,-0.000006,0.167358,0.167375,0.166636,0.166631,956,997,972,996
10493,0,0.016906,0.028156,0.005988,-0.00,-0.00,0.000587,0.167000,-0.000966,-0.001411,0.000000,0.000000,0.000000,0.000000,-0.000548,-0.000003,-0.000006,0.167540,0.167557,0.166455,0.166449,956,997,971,996
10503,0,0.016492,0.027019,0.006318,-0.00,-0.00,0.000591,0.167000,-0.000958,-0.001363,0.000000,0.000000,0.000000,0.000000,-0.000710,-0.000002,-0.000006,0.167702,0.167718,0.166293,0.166286,956,997,971,996
10513,0,0.016161,0.025673,0.006581,-0.00,-0.00,0.000589,0.168000,-0.000949,-0.001312,0.000000,0.000000,0.000000,0.000000,-0.000809,-0.000002,-0.000006,0.168802,0.168816,0.167195,0.167187,957,998,972,997
10523,0,0.015677,0.024160,0.007010,-0.00,-0.00,0.000644,0.168000,-0.000939,-0.001260,0.000000,0.000000,0.000000,0.000000,-0.000998,-0.000000,-0.000006,0.168992,0.169005,0.167007,0.166996,957,998,972,996
10533,0,0.015291,0.022731,0.007354,-0.00,-0.00,0.000564,0.168000,-0.000930,-0.001207,0.000000,0.000000,0.000000,0.000000,-0.001140,0.000000,-0.000006,0.169135,0.169146,0.166865,0.166854,957,998,972,996
10544,0,0.014982,0.021152,0.007846,-0.00,-0.00,0.000567,0.168000,-0.000922,-0.001145,0.000000,0.000000,0.000000,0.000000,-0.001240,0.000001,-0.000006,0.169235,0.169244,0.166767,0.166754,957,998,972,996
10553,0,0.014734,0.019671,0.008459,-0.00,-0.00,0.000584,0.168000,-0.000918,-0.001084,0.000000,0.000000,0.000000,0.000000,-0.001348,0.000002,-0.000006,0.169344,0.169351,0.166660,0.166645,957,998,972,996
10566,0,0.014536,0.017613,0.009385,-0.00,-0.00,0.000470,0.168000,-0.000910,-0.000990,0.000000,0.000000,0.000000,0.000000,-0.001380,0.000002,-0.000005,0.169378,0.169383,0.166626,0.166613,957,998,972,996
10575,0,0.014378,0.015530,0.010344,-0.00,-0.00,0.000427,0.168000,-0.000906,-0.000915,0.000000,0.000000,0.000000,0.000000,-0.001435,0.000004,-0.000004,0.169435,0.169435,0.166573,0.166557,957,998,971,996
10585,0,0.014033,0.013428,0.011330,-0.00,-0.00,0.000484,0.168000,-0.000902,-0.000831,0.000000,0.000000,0.000000,0.000000,-0.001597,0.000005,-0.000005,0.169597,0.169597,0.166413,0.166394,958,999,971,996
10594,0,0.013539,0.011309,0.012336,-0.00,-0.00,0.000565,0.168000,-0.000895,-0.000749,0.000000,0.000000,0.000000,0.000000,-0.001832,0.000006,-0.000005,0.169833,0.169832,0.166179,0.166156,958,999,971,996
10604,0,0.013144,0.009615,0.013141,-0.00,-0.00,0.000598,0.168000,-0.000884,-0.000668,0.000000,0.000000,0.000000,0.000000,-0.001956,0.000006,-0.000006,0.169956,0.169956,0.166056,0.166032,958,999,971,996
10614,0,0.012828,0.007823,0.014004,-0.00,-0.00,0.000527,0.168000,-0.000875,-0.000591,0.000000,0.000000,0.000000,0.000000,-0.002046,0.000007,-0.000005,0.170047,0.170044,0.165966,0.165943,958,999,971,996
10624,0,0.012575,0.005953,0.014912,-0.00,-0.00,0.000471,0.168000,-0.000867,-0.000512,0.000000,0.000000,0.000000,0.000000,-0.002114,0.000007,-0.000005,0.170117,0.170111,0.165898,0.165874,958,999,971,995
10634,0,0.012372,0.004239,0.015857,-0.00,-0.00,0.000504,0.168000,-0.000858,-0.000431,0.000000,0.000000,0.000000,0.000000,-0.002137,0.000008,-0.000005,0.170140,0.170135,0.165875,0.165850,958,999,971,995
10644,0,0.012210,0.002431,0.016830,-0.00,-0.00,0.000588,0.168000,-0.000850,-0.000347,0.000000,0.000000,0.000000,0.000000,-0.002142,0.000008,-0.000006,0.170145,0.170140,0.165872,0.165844,958,999,971,995
10654,0,0.011863,0.000548,0.017828,-0.00,-0.00,0.000648,0.168000,-0.000843,-0.000260,0.000000,0.000000,0.000000,0.000000,-0.002279,0.000009,-0.000006,0.170281,0.170277,0.165736,0.165706,958,999,971,995
10664,0,0.011366,-0.001176,0.019062,-0.00,-0.00,0.000657,0.168000,-0.000836,-0.000180,0.000000,0.000000,0.000000,0.000000,-0.002511,0.000009,-0.000006,0.170514,0.170508,0.165504,0.165473,958,999,971,995
10674,0,0.010969,-0.002773,0.020267,-0.00,-0.00,0.000890,0.168000,-0.000832,-0.000105,0.000000,0.000000,0.000000,0.000000,-0.002710,0.000009,-0.000009,0.170711,0.170709,0.165308,0.165272,958,999,970,995
10684,0,0.010215,-0.004269,0.021668,-0.00,-0.00,0.001151,0.168000,-0.000819,-0.000030,0.000000,0.000000,0.000000,0.000000,-0.003033,0.000010,-0.000011,0.171032,0.171035,0.164987,0.164946,959,1000,970,995
10694,0,0.009176,-0.005902,0.023225,-0.00,-0.00,0.001365,0.168000,-0.000799,0.000053,0.000000,0.000000,0.000000,0.000000,-0.003454,0.000010,-0.000013,0.171450,0.171457,0.164569,0.164523,959,1000,970,994
10704,0,0.007908,-0.007864,0.024907,-0.00,-0.00,0.001409,0.168000,-0.000771,0.000135,0.000000,0.000000,0.000000,0.000000,-0.003921,0.000010,-0.000014,0.171917,0.171924,0.164104,0.164055,959,1000,969,994
10714,0,0.006894,-0.009432,0.026252,-0.00,-0.00,0.001360,0.168000,-0.000744,0.000198,0.000000,0.000000,0.000000,0.000000,-0.004246,0.000011,-0.000013,0.172244,0.172248,0.163778,0.163730,960,1001,969,994
10724,0,0.005864,-0.010469,0.027765,-0.00,-0.00,0.001242,0.168000,-0.000718,0.000251,0.000000,0.000000,0.000000,0.000000,-0.004593,0.000011,-0.000012,0.172592,0.172594,0.163430,0.163384,960,1001,969,993
10734,0,0.005040,-0.011299,0.029193,-0.00,-0.00,0.000997,0.168000,-0.000694,0.000304,0.000000,0.000000,0.000000,0.000000,-0.004829,0.000011,-0.000010,0.172830,0.172828,0.163191,0.163150,960,1001,969,993
10744,0,0.004599,-0.012181,0.030772,-0.00,-0.00,0.000770,0.168000,-0.000672,0.000361,0.000000,0.000000,0.000000,0.000000,-0.004859,0.000010,-0.000007,0.172862,0.172856,0.163159,0.163123,960,1001,969,993
10754,0,0.004465,-0.013104,0.032472,-0.00,-0.00,0.000596,0.168000,-0.000658,0.000413,0.000000,0.000000,0.000000,0.000000,-0.004774,0.000010,-0.000006,0.172779,0.172770,0.163242,0.163209,960,1001,969,993
10764,0,0.004357,-0.013843,0.034268,-0.00,-0.00,0.000491,0.168000,-0.000649,0.000459,0.000000,0.000000,0.000000,0.000000,-0.004744,0.000010,-0.000005,0.172749,0.172739,0.163271,0.163241,960,1001,969,993
10781,0,0.004489,-0.014653,0.036795,-0.00,-0.00,0.000397,0.168000,-0.000648,0.000512,0.000000,0.000000,0.000000,0.000000,-0.004651,0.000010,-0.000004,0.172657,0.172645,0.163362,0.163335,960,1001,969,993
10793,0,0.004595,-0.015300,0.039472,-0.00,-0.00,0.000227,0.168000,-0.000649,0.000550,0.000000,0.000000,0.000000,0.000000,-0.004592,0.000009,-0.000002,0.172599,0.172585,0.163419,0.163396,960,1001,969,993
10802,0,0.005116,-0.015600,0.042268,-0.00,-0.00,-0.000176,0.168000,-0.000653,0.000568,0.000000,0.000000,0.000000,0.000000,-0.004315,0.000009,0.000002,0.172326,0.172304,0.163692,0.163677,960,1001,969,994
10812,0,0.005969,-0.015403,0.045159,-0.00,-0.00,-0.000521,0.168000,-0.000667,0.000573,0.000000,0.000000,0.000000,0.000000,-0.003936,0.000009,0.000005,0.171949,0.171922,0.164068,0.164061,960,1000,969,994
10823,0,0.006870,-0.015246,0.048126,-0.00,-0.00,-0.000665,0.168000,-0.000689,0.000583,0.000000,0.000000,0.000000,0.000000,-0.003631,0.000008,0.000006,0.171646,0.171617,0.164370,0.164367,959,1000,970,994
10834,0,0.008026,-0.015120,0.051155,-0.00,-0.00,-0.001036,0.168000,-0.000718,0.000597,0.000000,0.000000,0.000000,0.000000,-0.003238,0.000007,0.000010,0.171255,0.171221,0.164759,0.164765,959,1000,970,995
10844,0,0.009388,-0.015020,0.054232,-0.00,-0.00,-0.001335,0.168000,-0.000752,0.000610,0.000000,0.000000,0.000000,0.000000,-0.002779,0.000007,0.000013,0.170798,0.170759,0.165215,0.165228,959,999,970,995
10854,0,0.010914,-0.014939,0.057566,-0.00,-0.00,-0.001607,0.168000,-0.000791,0.000622,0.000000,0.000000,0.000000,0.000000,-0.002275,0.000006,0.000015,0.170296,0.170253,0.165716,0.165735,958,999,971,995
10864,0,0.012571,-0.014875,0.060888,-0.00,-0.00,-0.001826,0.168000,-0.000835,0.000635,0.000000,0.000000,0.000000,0.000000,-0.001750,0.000005,0.000018,0.169773,0.169727,0.166238,0.166262,958,999,971,996
10874,0,0.014333,-0.015041,0.064419,-0.00,-0.00,-0.002017,0.168000,-0.000885,0.000649,0.000000,0.000000,0.000000,0.000000,-0.001224,0.000005,0.000019,0.169249,0.169200,0.166762,0.166790,957,998,972,996
10884,0,0.016179,-0.015175,0.067897,-0.00,-0.00,-0.002257,0.168000,-0.000939,0.000653,0.000000,0.000000,0.000000,0.000000,-0.000689,0.000005,0.000022,0.168716,0.168662,0.167294,0.167327,957,998,972,997
10895,0,0.018092,-0.015063,0.071553,-0.00,-0.00,-0.002544,0.168000,-0.001007,0.000648,0.000000,0.000000,0.000000,0.000000,-0.000275,0.000005,0.000024,0.168304,0.168245,0.167706,0.167744,957,997,972,997
10904,0,0.020276,-0.014756,0.075132,-0.00,-0.00,-0.002792,0.168000,-0.001065,0.000652,0.000000,0.000000,0.000000,0.000000,0.000424,0.000005,0.000027,0.167608,0.167545,0.168401,0.168446,956,997,973,998
10914,0,0.022679,-0.014510,0.078868,-0.00,-0.00,-0.003003,0.168000,-0.001137,0.000660,0.000000,0.000000,0.000000,0.000000,0.001094,0.000004,0.000029,0.166939,0.166874,0.169069,0.169119,955,996,974,998
10924,0,0.025037,-0.014531,0.082729,0.00,-0.00,-0.003124,0.168000,-0.001211,0.000672,0.000000,0.000000,0.000000,0.000000,0.001718,0.000003,0.000030,0.166315,0.166248,0.169692,0.169745,955,996,974,999
10935,0,0.027360,-0.014549,0.086473,0.00,-0.00,-0.003146,0.168000,-0.001297,0.000669,0.000000,0.000000,0.000000,0.000000,0.002190,0.000004,0.000030,0.165844,0.165776,0.170163,0.170217,955,995,974,999
10945,0,0.029655,-0.014344,0.090340,0.00,-0.00,-0.003057,0.168000,-0.001375,0.000658,0.000000,0.000000,0.000000,0.000000,0.002726,0.000004,0.000029,0.165307,0.165241,0.170700,0.170751,954,995,975,999
10955,0,0.031709,-0.014181,0.094525,0.00,-0.00,-0.002714,0.168000,-0.001447,0.000662,0.000000,0.000000,0.000000,0.000000,0.003180,0.000003,0.000026,0.164849,0.164791,0.171157,0.171203,954,995,975,1000
10965,0,0.033352,-0.014050,0.097873,0.00,-0.00,-0.002404,0.168000,-0.001518,0.000665,0.000000,0.000000,0.000000,0.000000,0.003389,0.000003,0.000023,0.164637,0.164585,0.171369,0.171409,954,994,975,1000
10975,0,0.034666,-0.013945,0.101206,0.00,-0.00,-0.002018,0.168000,-0.001585,0.000670,0.000000,0.000000,0.000000,0.000000,0.003436,0.000002,0.000019,0.164585,0.164542,0.171419,0.171453,953,994,975,1000
10985,0,0.035500,-0.013861,0.104527,0.00,-0.00,-0.001586,0.168000,-0.001649,0.000676,0.000000,0.000000,0.000000,0.000000,0.003219,0.000002,0.000015,0.164799,0.164764,0.171205,0.171232,954,995,975,1000
10995,0,0.035730,-0.014012,0.107838,0.00,-0.00,-0.001041,0.168000,-0.001706,0.000698,0.000000,0.000000,0.000000,0.000000,0.002717,0.000001,0.000010,0.165294,0.165271,0.170709,0.170726,954,995,975,999
11004,0,0.035478,-0.014570,0.110923,0.00,0.00,-0.000345,0.168000,-0.001744,0.000735,0.000000,0.000000,0.000000,0.000000,0.002114,0.000001,0.000003,0.165891,0.165882,0.170111,0.170116,955,995,974,999
11014,0,0.034622,-0.015670,0.113828,-0.00,0.00,0.000285,0.168000,-0.001771,0.000785,0.000000,0.000000,0.000000,0.000000,0.001274,0.000001,-0.000003,0.166725,0.166728,0.169278,0.169269,955,996,974,998
11025,0,0.033283,-0.016987,0.116587,-0.00,-0.00,0.000854,0.169000,-0.001764,0.000826,0.000000,0.000000,0.000000,0.000000,0.000519,0.000002,-0.000008,0.168475,0.168486,0.169530,0.169509,957,998,974,998
11035,0,0.031557,-0.018258,0.119014,-0.00,-0.00,0.001247,0.169000,-0.001742,0.000861,0.000000,0.000000,0.000000,0.000000,-0.000315,0.000004,-0.000012,0.169307,0.169323,0.168701,0.168670,957,998,973,998
11045,0,0.029521,-0.019275,0.121173,-0.00,-0.00,0.001603,0.168000,-0.001712,0.000893,0.000000,0.000000,0.000000,0.000000,-0.001232,0.000004,-0.000015,0.169221,0.169243,0.166788,0.166749,957,998,972,996
11055,0,0.027239,-0.020089,0.122900,-0.00,-0.00,0.001915,0.168000,-0.001663,0.000918,0.000000,0.000000,0.000000,0.000000,-0.002095,0.000005,-0.000018,0.170082,0.170108,0.165928,0.165881,958,999,971,995
11065,0,0.024976,-0.020740,0.124282,-0.00,-0.00,0.002198,0.168000,-0.001607,0.000940,0.000000,0.000000,0.000000,0.000000,-0.002873,0.000006,-0.000021,0.170858,0.170889,0.165153,0.165100,959,1000,970,995
11075,0,0.022512,-0.021261,0.125387,-0.00,-0.00,0.002463,0.168000,-0.001542,0.000959,0.000000,0.000000,0.000000,0.000000,-0.003660,0.000006,-0.000023,0.171642,0.171678,0.164369,0.164311,959,1000,970,994
11085,0,0.020104,-0.021459,0.126053,-0.00,-0.00,0.002810,0.169000,-0.001470,0.000974,0.000000,0.000000,0.000000,0.000000,-0.004343,0.000006,-0.000027,0.173322,0.173364,0.164690,0.164625,961,1002,970,994
11100,0,0.016868,-0.021618,0.126586,-0.00,-0.00,0.003136,0.169000,-0.001341,0.000985,0.000000,0.000000,0.000000,0.000000,-0.004874,0.000006,-0.000030,0.173849,0.173898,0.164162,0.164091,961,1002,970,994
11110,0,0.013626,-0.021527,0.126794,-0.00,-0.00,0.003341,0.170000,-0.001251,0.000981,0.000000,0.000000,0.000000,0.000000,-0.005868,0.000005,-0.000032,0.175841,0.175894,0.164170,0.164095,963,1004,970,994
11122,0,0.010595,-0.021017,0.126743,-0.00,-0.00,0.003423,0.170000,-0.001145,0.000964,0.000000,0.000000,0.000000,0.000000,-0.006545,0.000005,-0.000033,0.176518,0.176573,0.163493,0.163417,963,1004,969,993
11133,0,0.007734,-0.020392,0.126702,-0.00,-0.00,0.003518,0.170000,-0.001029,0.000944,0.000000,0.000000,0.000000,0.000000,-0.006994,0.000005,-0.000033,0.176965,0.177023,0.163044,0.162968,964,1005,969,993
11145,0,0.005009,-0.019673,0.126450,-0.00,-0.00,0.003820,0.170000,-0.000910,0.000917,0.000000,0.000000,0.000000,0.000000,-0.007335,0.000004,-0.000036,0.177303,0.177367,0.162705,0.162624,964,1005,968,993
11155,0,0.001302,-0.018444,0.126031,-0.00,-0.00,0.004065,0.170000,-0.000799,0.000875,0.000000,0.000000,0.000000,0.000000,-0.008379,0.000003,-0.000039,0.178344,0.178414,0.161663,0.161579,965,1006,967,992
11165,0,-0.001663,-0.017460,0.125696,-0.01,-0.00,0.004236,0.170000,-0.000692,0.000830,0.000000,0.000000,0.000000,0.000000,-0.009001,0.000003,-0.000040,0.178964,0.179038,0.161043,0.160956,965,1006,967,991
11175,0,-0.004691,-0.016019,0.125428,-0.01,-0.00,0.004314,0.170000,-0.000579,0.000772,0.000000,0.000000,0.000000,0.000000,-0.009585,0.000003,-0.000041,0.179546,0.179623,0.160459,0.160372,966,1007,966,991
11185,0,-0.007767,-0.014430,0.124995,-0.01,-0.00,0.004351,0.170000,-0.000460,0.000709,0.000000,0.000000,0.000000,0.000000,-0.010145,0.000002,-0.000041,0.180106,0.180185,0.159898,0.159812,966,1007,966,991
11195,0,-0.010664,-0.012504,0.124649,-0.01,0.00,0.004177,0.170000,-0.000340,0.000640,0.000000,0.000000,0.000000,0.000000,-0.010572,0.000000,-0.000040,0.180533,0.180611,0.159468,0.159388,967,1008,966,990
11205,0,-0.013200,-0.010527,0.124372,-0.01,0.00,0.003816,0.170000,-0.000224,0.000567,0.000000,0.000000,0.000000,0.000000,-0.010825,-0.000000,-0.000036,0.180788,0.180862,0.159211,0.159139,967,1008,965,990
11214,0,-0.015447,-0.008508,0.123932,-0.01,0.00,0.003490,0.170000,-0.000120,0.000496,0.000000,0.000000,0.000000,0.000000,-0.011033,-0.000002,-0.000033,0.180998,0.181067,0.158999,0.158936,967,1008,965,990
11225,0,-0.017026,-0.006240,0.123580,-0.01,0.00,0.003010,0.169000,-0.000011,0.000416,0.000000,0.000000,0.000000,0.000000,-0.010764,-0.000003,-0.000028,0.179733,0.179796,0.158261,0.158210,966,1007,965,989
11235,0,-0.018072,-0.004206,0.123299,-0.01,0.00,0.002420,0.169000,0.000086,0.000354,0.000000,0.000000,0.000000,0.000000,-0.010310,-0.000005,-0.000023,0.179282,0.179337,0.158709,0.158672,966,1007,965,990
11245,0,-0.018472,-0.002580,0.123074,-0.00,0.00,0.001673,0.169000,0.000171,0.000300,0.000000,0.000000,0.000000,0.000000,-0.009580,-0.000006,-0.000016,0.178558,0.178601,0.159430,0.159410,965,1006,966,990
11255,0,-0.018355,-0.001278,0.122894,-0.00,0.00,0.000816,0.169000,0.000242,0.000251,0.000000,0.000000,0.000000,0.000000,-0.008693,-0.000007,-0.000008,0.177679,0.177707,0.160308,0.160306,964,1005,966,991
11265,0,-0.017389,-0.000237,0.122749,-0.00,0.00,-0.000112,0.169000,0.000294,0.000208,0.000000,0.000000,0.000000,0.000000,-0.007483,-0.000007,0.000001,0.176477,0.176489,0.161509,0.161525,963,1004,967,992
11275,0,-0.015526,0.000596,0.122852,-0.00,0.00,-0.000913,0.169000,0.000329,0.000173,0.000000,0.000000,0.000000,0.000000,-0.005924,-0.000007,0.000009,0.174926,0.174923,0.163060,0.163092,962,1003,969,993
11285,0,-0.013381,0.001044,0.122935,-0.00,0.00,-0.001691,0.169000,0.000348,0.000152,0.000000,0.000000,0.000000,0.000000,-0.004362,-0.000007,0.000016,0.173371,0.173353,0.164615,0.164661,961,1002,970,994
11296,0,-0.010574,0.001184,0.123000,-0.00,0.00,-0.002668,0.169000,0.000338,0.000134,0.000000,0.000000,0.000000,0.000000,-0.002727,-0.000007,0.000025,0.171745,0.171709,0.166241,0.166305,959,1000,971,996
11306,0,-0.007019,0.001078,0.123271,-0.00,0.00,-0.003644,0.169000,0.000315,0.000120,0.000000,0.000000,0.000000,0.000000,-0.000759,-0.000006,0.000034,0.169787,0.169731,0.168200,0.168282,958,999,973,997
11316,0,-0.002866,0.000993,0.123488,0.00,0.00,-0.004528,0.169000,0.000272,0.000112,0.000000,0.000000,0.000000,0.000000,0.001338,-0.000006,0.000043,0.167699,0.167625,0.170290,0.170387,956,997,975,999
11326,0,0.001983,0.000707,0.123661,0.00,0.00,-0.005243,0.169000,0.000207,0.000120,0.000000,0.000000,0.000000,0.000000,0.003620,-0.000006,0.000049,0.165424,0.165336,0.172565,0.172675,954,995,976,1001
11336,0,0.007171,0.000042,0.123800,0.00,0.00,-0.005911,0.169000,0.000125,0.000143,0.000000,0.000000,0.000000,0.000000,0.005917,-0.000005,0.000056,0.163133,0.163032,0.174856,0.174978,952,993,978,1003
11346,0,0.014158,-0.001362,0.123911,0.00,0.00,-0.006551,0.170000,0.000007,0.000177,0.000000,0.000000,0.000000,0.000000,0.008930,-0.000004,0.000062,0.161128,0.161012,0.178864,0.178995,951,992,982,1006
11356,0,0.019748,-0.002486,0.124000,0.01,0.00,-0.007033,0.170000,-0.000123,0.000207,0.000000,0.000000,0.000000,0.000000,0.010923,-0.000003,0.000066,0.159140,0.159013,0.180854,0.180992,949,990,983,1008
11366,0,0.025529,-0.003603,0.124071,0.01,0.00,-0.007360,0.170000,-0.000269,0.000246,0.000000,0.000000,0.000000,0.000000,0.012861,-0.000002,0.000069,0.157206,0.157072,0.182790,0.182932,947,988,985,1009
11376,0,0.031244,-0.004715,0.124128,0.01,0.00,-0.007426,0.170000,-0.000423,0.000294,0.000000,0.000000,0.000000,0.000000,0.014666,-0.000002,0.000070,0.155402,0.155266,0.184594,0.184737,946,987,986,1011
11386,0,0.036689,-0.006259,0.124173,0.02,0.00,-0.007205,0.170000,-0.000584,0.000350,0.000000,0.000000,0.000000,0.000000,0.016211,-0.000000,0.000068,0.153856,0.153723,0.186142,0.186279,945,986,988,1012
11398,0,0.041917,-0.008367,0.123991,0.02,0.00,-0.006732,0.170000,-0.000787,0.000420,0.000000,0.000000,0.000000,0.000000,0.017145,0.000000,0.000063,0.152919,0.152791,0.187083,0.187208,944,985,988,1013
11413,0,0.046100,-0.010054,0.123628,0.02,-0.00,-0.006142,0.170000,-0.001007,0.000483,0.000000,0.000000,0.000000,0.000000,0.017229,0.000002,0.000058,0.152831,0.152712,0.187173,0.187285,944,985,988,1013
11425,0,0.049447,-0.011839,0.123337,0.02,-0.00,-0.005536,0.170000,-0.001185,0.000551,0.000000,0.000000,0.000000,0.000000,0.017276,0.000003,0.000052,0.152778,0.152669,0.187227,0.187326,944,985,988,1013
11435,0,0.051906,-0.013704,0.122886,0.02,-0.00,-0.004475,0.170000,-0.001328,0.000616,0.000000,0.000000,0.000000,0.000000,0.017173,0.000004,0.000042,0.152873,0.152781,0.187135,0.187211,944,985,988,1013
11446,0,0.053218,-0.015413,0.122307,0.01,-0.00,-0.003171,0.170000,-0.001464,0.000679,0.000000,0.000000,0.000000,0.000000,0.016430,0.000005,0.000030,0.153605,0.153536,0.186404,0.186455,944,985,988,1012
11455,0,0.053177,-0.017000,0.121844,0.01,-0.00,-0.001991,0.170000,-0.001574,0.000733,0.000000,0.000000,0.000000,0.000000,0.015130,0.000006,0.000019,0.154895,0.154846,0.185117,0.185143,946,986,987,1011
11466,0,0.052054,-0.018487,0.121255,0.01,-0.00,-0.000733,0.170000,-0.001659,0.000796,0.000000,0.000000,0.000000,0.000000,0.013455,0.000006,0.000007,0.156558,0.156532,0.183454,0.183455,947,988,985,1010
11476,0,0.050064,-0.019894,0.120566,0.01,-0.00,0.000411,0.173000,-0.001726,0.000851,0.000000,0.000000,0.000000,0.000000,0.011443,0.000007,-0.000004,0.161560,0.161554,0.184454,0.184432,951,992,986,1011
11486,0,0.047164,-0.021239,0.120015,0.00,-0.00,0.001669,0.173000,-0.001766,0.000906,0.000000,0.000000,0.000000,0.000000,0.009163,0.000007,-0.000016,0.163829,0.163845,0.182186,0.182140,953,994,984,1009
11496,0,0.043316,-0.022532,0.119356,0.00,-0.00,0.003111,0.173000,-0.001779,0.000963,0.000000,0.000000,0.000000,0.000000,0.006618,0.000008,-0.000029,0.166360,0.166403,0.179655,0.179581,955,996,982,1007
11506,0,0.038274,-0.023785,0.118610,0.00,-0.00,0.004572,0.173000,-0.001754,0.001028,0.000000,0.000000,0.000000,0.000000,0.003747,0.000008,-0.000043,0.169218,0.169288,0.176797,0.176696,957,998,980,1004
11516,0,0.032278,-0.025006,0.117796,-0.00,-0.00,0.005990,0.176000,-0.001697,0.001095,0.000000,0.000000,0.000000,0.000000,0.000660,0.000008,-0.000056,0.175292,0.175389,0.176723,0.176596,962,1003,980,1004
11526,0,0.025298,-0.026637,0.116926,-0.00,-0.00,0.007314,0.176000,-0.001604,0.001171,0.000000,0.000000,0.000000,0.000000,-0.002640,0.000008,-0.000068,0.178579,0.178700,0.173437,0.173284,965,1006,977,1002
11536,0,0.017752,-0.028378,0.116012,-0.00,-0.00,0.008710,0.176000,-0.001482,0.001248,0.000000,0.000000,0.000000,0.000000,-0.005947,0.000009,-0.000081,0.181874,0.182019,0.170143,0.169964,968,1009,974,999
11546,0,0.009314,-0.030208,0.115062,-0.01,-0.00,0.010214,0.177000,-0.001324,0.001333,0.000000,0.000000,0.000000,0.000000,-0.009403,0.000009,-0.000095,0.186317,0.186489,0.167701,0.167493,971,1012,972,997
11556,0,-0.000272,-0.032107,0.114085,-0.01,-0.00,0.011877,0.177000,-0.001126,0.001418,0.000000,0.000000,0.000000,0.000000,-0.013114,0.000009,-0.000111,0.190012,0.190215,0.164007,0.163766,974,1015,969,994
11566,0,-0.010995,-0.034063,0.113084,-0.02,-0.00,0.013554,0.177000,-0.000887,0.001503,0.000000,0.000000,0.000000,0.000000,-0.017074,0.000010,-0.000126,0.193958,0.194191,0.160062,0.159789,978,1019,966,990
11576,0,-0.022846,-0.036065,0.111848,-0.02,-0.00,0.014882,0.178000,-0.000609,0.001588,0.000000,0.000000,0.000000,0.000000,-0.021286,0.000011,-0.000139,0.199158,0.199414,0.156863,0.156564,982,1023,964,988
11586,0,-0.035381,-0.038102,0.110640,-0.03,-0.00,0.015982,0.178000,-0.000298,0.001670,0.000000,0.000000,0.000000,0.000000,-0.025538,0.000012,-0.000149,0.203401,0.203675,0.152622,0.152301,985,1026,960,984
11596,0,-0.048245,-0.039950,0.109456,-0.03,-0.00,0.016777,0.178000,0.000049,0.001748,0.000000,0.000000,0.000000,0.000000,-0.029592,0.000012,-0.000156,0.207448,0.207736,0.148576,0.148239,989,1030,957,981
11606,0,-0.061154,-0.041647,0.108291,-0.03,-0.00,0.017343,0.178000,0.000426,0.001825,0.000000,0.000000,0.000000,0.000000,-0.033320,0.000013,-0.000161,0.211171,0.211469,0.144854,0.144506,992,1033,954,978
11616,0,-0.074100,-0.043222,0.107140,-0.04,-0.00,0.017687,0.178000,0.000828,0.001901,0.000000,0.000000,0.000000,0.000000,-0.036786,0.000013,-0.000165,0.214635,0.214938,0.141391,0.141036,994,1036,951,975
11626,0,-0.086856,-0.044701,0.106002,-0.04,-0.00,0.017676,0.178000,0.001251,0.001970,0.000000,0.000000,0.000000,0.000000,-0.039901,0.000013,-0.000164,0.217749,0.218052,0.138277,0.137922,997,1038,948,973
11636,0,-0.099025,-0.046101,0.105091,-0.04,-0.00,0.017373,0.178000,0.001684,0.002032,0.000000,0.000000,0.000000,0.000000,-0.042529,0.000014,-0.000162,0.220381,0.220677,0.135646,0.135296,999,1040,946,970
11646,0,-0.110287,-0.047222,0.104362,-0.04,-0.00,0.016777,0.178000,0.002122,0.002087,0.000000,0.000000,0.000000,0.000000,-0.044527,0.000014,-0.000156,0.222384,0.222669,0.133643,0.133304,1001,1042,945,969
11656,0,-0.120605,-0.048119,0.103561,-0.04,-0.00,0.015865,0.178000,0.002563,0.002133,0.000000,0.000000,0.000000,0.000000,-0.045901,0.000014,-0.000147,0.223767,0.224035,0.132260,0.131938,1002,1043,943,968
11666,0,-0.129514,-0.048836,0.102920,-0.04,-0.00,0.014665,0.178000,0.002996,0.002174,0.000000,0.000000,0.000000,0.000000,-0.046488,0.000014,-0.000136,0.224365,0.224610,0.131662,0.131362,1002,1044,943,967
11676,0,-0.137078,-0.049192,0.102407,-0.04,-0.00,0.013032,0.178000,0.003416,0.002204,0.000000,0.000000,0.000000,0.000000,-0.046386,0.000013,-0.000121,0.224278,0.224493,0.131749,0.131480,1002,1044,943,967
11686,0,-0.142911,-0.049476,0.102215,-0.04,-0.00,0.010994,0.178000,0.003813,0.002229,0.000000,0.000000,0.000000,0.000000,-0.045467,0.000013,-0.000102,0.223378,0.223556,0.132648,0.132418,1002,1043,944,968
11697,0,-0.146487,-0.049486,0.102062,-0.04,-0.00,0.008514,0.178000,0.004191,0.002241,0.000000,0.000000,0.000000,0.000000,-0.043359,0.000013,-0.000079,0.221292,0.221425,0.134733,0.134550,1000,1041,945,970
11706,0,-0.147820,-0.049057,0.101939,-0.04,-0.00,0.005719,0.178000,0.004505,0.002236,0.000000,0.000000,0.000000,0.000000,-0.040580,0.000012,-0.000053,0.218539,0.218621,0.137485,0.137355,998,1039,948,972
11716,0,-0.146487,-0.048278,0.102059,-0.03,-0.00,0.002694,0.178000,0.004773,0.002222,0.000000,0.000000,0.000000,0.000000,-0.036664,0.000011,-0.000025,0.214650,0.214678,0.141372,0.141300,994,1035,951,975
11733,0,-0.139311,-0.046782,0.102373,-0.03,-0.00,-0.000360,0.178000,0.004830,0.002168,0.000000,0.000000,0.000000,0.000000,-0.031530,0.000010,0.000003,0.209543,0.209516,0.146477,0.146463,990,1031,955,980
11745,0,-0.129644,-0.045148,0.102842,-0.02,-0.00,-0.003739,0.178000,0.004875,0.002117,0.000000,0.000000,0.000000,0.000000,-0.024966,0.000009,0.000035,0.203009,0.202922,0.153008,0.153060,985,1026,960,985
11755,0,-0.117111,-0.043187,0.103436,-0.01,-0.00,-0.007449,0.179000,0.004902,0.002056,0.000000,0.000000,0.000000,0.000000,-0.016824,0.000007,0.000069,0.195900,0.195747,0.162115,0.162238,979,1020,968,993
11765,0,-0.101848,-0.040964,0.104129,-0.00,-0.00,-0.011247,0.179000,0.004832,0.001979,0.000000,0.000000,0.000000,0.000000,-0.008091,0.000006,0.000104,0.187201,0.186981,0.170811,0.171007,972,1013,975,1000
11776,0,-0.083965,-0.038313,0.104902,0.00,-0.00,-0.015407,0.179000,0.004595,0.001885,0.000000,0.000000,0.000000,0.000000,0.000367,0.000004,0.000142,0.178780,0.178487,0.179229,0.179505,965,1006,982,1007
11786,0,-0.063769,-0.035537,0.105956,0.01,0.00,-0.019352,0.179000,0.004332,0.001791,0.000000,0.000000,0.000000,0.000000,0.009966,0.000003,0.000179,0.169216,0.168853,0.188790,0.189142,957,998,990,1015
11797,0,-0.041285,-0.032662,0.107018,0.02,0.00,-0.022948,0.179000,0.003884,0.001681,0.000000,0.000000,0.000000,0.000000,0.018862,0.000001,0.000212,0.160351,0.159924,0.197652,0.198073,950,991,997,1022
11806,0,-0.016971,-0.029708,0.108304,0.03,0.00,-0.026312,0.179000,0.003537,0.001579,0.000000,0.000000,0.000000,0.000000,0.030071,-0.000000,0.000243,0.149171,0.148686,0.208828,0.209315,941,981,1006,1031
11816,0,0.009025,-0.026689,0.109987,0.04,0.00,-0.029238,0.179000,0.002974,0.001464,0.000000,0.000000,0.000000,0.000000,0.039845,-0.000002,0.000270,0.139423,0.138887,0.218573,0.219117,933,973,1014,1039
11826,0,0.036149,-0.023620,0.111769,0.05,0.00,-0.031780,0.179000,0.002326,0.001342,0.000000,0.000000,0.000000,0.000000,0.049346,-0.000003,0.000293,0.129944,0.129364,0.228049,0.228643,925,966,1022,1047
11838,0,0.069847,-0.020074,0.114505,0.06,0.00,-0.033642,0.179000,0.001316,0.001194,0.000000,0.000000,0.000000,0.000000,0.058789,-0.000005,0.000310,0.120517,0.119906,0.237474,0.238104,917,958,1030,1055
11847,0,0.101824,-0.016801,0.117129,0.07,0.00,-0.034865,0.179000,0.000619,0.001074,0.000000,0.000000,0.000000,0.000000,0.070755,-0.000006,0.000321,0.108560,0.107930,0.249427,0.250083,908,948,1039,1064
11857,0,0.127405,-0.014183,0.119229,0.08,0.00,-0.035532,0.179000,-0.000249,0.000959,0.000000,0.000000,0.000000,0.000000,0.076759,-0.000007,0.000327,0.102561,0.101920,0.255425,0.256094,903,943,1044,1069
11867,0,0.152669,-0.011652,0.121781,0.08,0.00,-0.035598,0.179000,-0.001156,0.000846,0.000000,0.000000,0.000000,0.000000,0.082129,-0.000008,0.000328,0.097191,0.096550,0.260794,0.261465,898,939,1049,1074
11877,0,0.176808,-0.009190,0.124478,0.08,0.00,-0.034899,0.179000,-0.002086,0.000740,0.000000,0.000000,0.000000,0.000000,0.086518,-0.000009,0.000321,0.092795,0.092169,0.265188,0.265848,895,935,1052,1077
11887,0,0.199173,-0.007003,0.127289,0.09,0.00,-0.033113,0.179000,-0.003025,0.000640,0.000000,0.000000,0.000000,0.000000,0.089692,-0.000009,0.000305,0.089603,0.089012,0.268378,0.269006,892,933,1055,1080
11897,0,0.219029,-0.005035,0.129975,0.09,0.00,-0.030393,0.179000,-0.003951,0.000538,0.000000,0.000000,0.000000,0.000000,0.091454,-0.000009,0.000280,0.087816,0.087275,0.270165,0.270743,891,931,1056,1081
11907,0,0.235350,-0.003025,0.132778,0.09,0.00,-0.026709,0.179000,-0.004844,0.000434,0.000000,0.000000,0.000000,0.000000,0.091390,-0.000009,0.000246,0.087847,0.087374,0.270135,0.270645,891,931,1056,1081
11917,0,0.247534,-0.000980,0.135675,0.08,0.00,-0.022392,0.179000,-0.005683,0.000339,0.000000,0.000000,0.000000,0.000000,0.089359,-0.000010,0.000206,0.089838,0.089445,0.268143,0.268574,892,933,1055,1080
11927,0,0.255099,0.000874,0.138428,0.08,0.00,-0.017406,0.179000,-0.006448,0.000261,0.000000,0.000000,0.000000,0.000000,0.085281,-0.000010,0.000160,0.093869,0.093570,0.264111,0.264451,896,936,1051,1076
