t,is_crashed,roll,pitch,yaw,p,q,r,throttle,p_cmd,q_cmd,r_cmd,roll_cmd,pitch_cmd,yaw_cmd,roll_pid_out,pitch_pid_out,yaw_pid_out,motor_fl,motor_bl,motor_fr,motor_br,pwm_fl,pwm_bl,pwm_fr,pwm_br
6944,0,0.029452,0.023998,0.000000,0.00,0.00,0.000127,0.004000,-0.000156,-0.000368,0.000000,0.000000,0.000000,0.000000,0.000000,-0.000009,-0.000021,0.000000,0.000000,0.000000,0.000000,0,0,0,0
6955,0,0.000000,0.000000,0.000000,-0.13,-0.11,0.000097,0.004000,-0.001348,-0.001098,0.000000,0.000000,0.000000,0.000000,-0.000531,0.002500,-0.000017,0.000000,0.000000,0.000000,0.000000,819,819,819,819
6964,0,0.000000,0.000000,0.000000,-0.00,0.00,0.000113,0.004000,-0.000000,0.000000,0.000000,0.000000,0.000000,0.000000,-0.000322,0.000187,-0.000021,0.000000,0.000000,0.000000,0.000000,819,819,819,819
6973,0,0.000000,0.000000,0.000000,0.00,-0.00,0.000078,0.004000,0.000000,-0.000000,0.000000,0.000000,0.000000,0.000000,-0.000322,0.000187,-0.000016,0.000000,0.000000,0.000000,0.000000,819,819,819,819
6983,0,0.000000,0.000000,0.000000,-0.00,-0.00,-0.000014,0.004000,-0.000000,-0.000000,0.000000,0.000000,0.000000,0.000000,-0.000322,0.000187,-0.000002,0.000000,0.000000,0.000000,0.000000,819,819,819,819
6993,0,0.000000,0.000000,0.000000,0.00,-0.00,-0.000091,0.004000,0.000000,-0.000000,0.000000,0.000000,0.000000,0.000000,-0.000322,0.000188,0.000011,0.000000,0.000000,0.000000,0.000000,819,819,819,819
7003,0,0.000000,0.000000,0.000000,0.00,0.00,-0.000077,0.004000,0.000000,0.000000,0.000000,0.000000,0.000000,0.000000,-0.000322,0.000187,0.000009,0.000000,0.000000,0.000000,0.000000,819,819,819,819
7013,0,0.000000,0.000000,0.000000,0.00,0.00,-0.000004,0.004000,0.000000,0.000000,0.000000,0.000000,0.000000,0.000000,-0.000322,0.000185,-0.000002,0.000000,0.000000,0.000000,0.000000,819,819,819,819
7023,0,0.000000,0.000000,0.000000,-0.00,0.00,0.000090,0.004000,-0.000000,0.000000,0.000000,0.000000,0.000000,0.000000,-0.000322,0.000185,-0.000017,0.000000,0.000000,0.000000,0.000000,819,819,819,819
7033,0,0.000000,0.000000,0.000000,0.00,0.00,0.000167,0.004000,0.000000,0.000000,0.000000,0.000000,0.000000,0.000000,-0.000322,0.000186,-0.000031,0.000000,0.000000,0.000000,0.000000,819,819,819,819
7049,0,0.000000,0.000000,0.000000,0.00,0.00,0.000189,0.004000,0.000000,0.000000,0.000000,0.000000,0.000000,0.000000,-0.000322,0.000185,-0.000036,0.000000,0.000000,0.000000,0.000000,819,819,819,819
7062,0,0.000000,0.000000,0.000000,0.00,-0.00,0.000136,0.004000,0.000000,-0.000000,0.000000,0.000000,0.000000,0.000000,-0.000322,0.000187,-0.000030,0.000000,0.000000,0.000000,0.000000,819,819,819,819
7072,0,0.000000,0.000000,0.000000,-0.00,0.00,0.000061,0.004000,-0.000000,0.000000,0.000000,0.000000,0.000000,0.000000,-0.000322,0.000186,-0.000019,0.000000,0.000000,0.000000,0.000000,819,819,819,819
7083,0,0.000000,0.000000,0.000000,0.00,0.00,-0.000051,0.004000,0.000000,0.000000,0.000000,0.000000,0.000000,0.000000,-0.000322,0.000186,-0.000000,0.000000,0.000000,0.000000,0.000000,819,819,819,819
7093,0,0.000000,0.000000,0.000000,0.00,0.00,-0.000147,0.004000,0.000000,0.000000,0.000000,0.000000,0.000000,0.000000,-0.000322,0.000186,0.000016,0.000000,0.000000,0.000000,0.000000,819,819,819,819
7103,0,0.000000,0.000000,0.000000,0.00,0.00,-0.000152,0.004000,0.000000,0.000000,0.000000,0.000000,0.000000,0.000000,-0.000322,0.000185,0.000018,0.000000,0.000000,0.000000,0.000000,819,819,819,819
7113,0,0.000000,0.000000,0.000000,0.00,0.00,-0.000098,0.004000,0.000000,0.000000,0.000000,0.000000,0.000000,0.000000,-0.000322,0.000186,0.000011,0.000000,0.000000,0.000000,0.000000,819,819,819,819
7123,0,0.000000,0.000000,0.000000,0.00,0.00,-0.000041,0.004000,0.000000,0.000000,0.000000,0.000000,0.000000,0.000000,-0.000322,0.000185,0.000002,0.000000,0.000000,0.000000,0.000000,819,819,819,819
7133,0,0.000000,0.000000,0.000000,-0.00,0.00,0.000052,0.004000,-0.000000,0.000000,0.000000,0.000000,0.000000,0.000000,-0.000322,0.000185,-0.000013,0.000000,0.000000,0.000000,0.000000,819,819,819,819
7143,0,0.000000,0.000000,0.000000,-0.00,0.00,0.000220,0.004000,-0.000000,0.000000,0.000000,0.000000,0.000000,0.000000,-0.000322,0.000186,-0.000041,0.000000,0.000000,0.000000,0.000000,819,819,819,819
7153,0,0.000000,0.000000,0.000000,0.00,0.00,0.000210,0.004000,0.000000,0.000000,0.000000,0.000000,0.000000,0.000000,-0.000322,0.000186,-0.000042,0.000000,0.000000,0.000000,0.000000,819,819,819,819
7163,0,0.000000,0.000000,0.000000,0.00,-0.00,0.000137,0.004000,0.000000,-0.000000,0.000000,0.000000,0.000000,0.000000,-0.000322,0.000187,-0.000032,0.000000,0.000000,0.000000,0.000000,819,819,819,819
7173,0,0.000000,0.000000,0.000000,0.00,-0.00,0.000079,0.004000,0.000000,-0.000000,0.000000,0.000000,0.000000,0.000000,-0.000322,0.000187,-0.000024,0.000000,0.000000,0.000000,0.000000,819,819,819,819
7183,0,0.000000,0.000000,0.000000,-0.00,-0.00,-0.000014,0.004000,-0.000000,-0.000000,0.000000,0.000000,0.000000,0.000000,-0.000322,0.000187,-0.000009,0.000000,0.000000,0.000000,0.000000,819,819,819,819
7193,0,0.000000,0.000000,0.000000,0.00,-0.00,-0.000109,0.004000,0.000000,-0.000000,0.000000,0.000000,0.000000,0.000000,-0.000322,0.000187,0.000007,0.000000,0.000000,0.000000,0.000000,819,819,819,819
7203,0,0.000000,0.000000,0.000000,0.00,0.00,-0.000168,0.004000,0.000000,0.000000,0.000000,0.000000,0.000000,0.000000,-0.000322,0.000186,0.000018,0.000000,0.000000,0.000000,0.000000,819,819,819,819
7213,0,0.000000,0.000000,0.000000,-0.00,-0.00,-0.000189,0.004000,-0.000000,-0.000000,0.000000,0.000000,0.000000,0.000000,-0.000322,0.000187,0.000023,0.000000,0.000000,0.000000,0.000000,819,819,819,819
7223,0,0.000000,0.000000,0.000000,0.00,-0.00,-0.000154,0.004000,0.000000,-0.000000,0.000000,0.000000,0.000000,0.000000,-0.000322,0.000187,0.000019,0.000000,0.000000,0.000000,0.000000,819,819,819,819
7233,0,0.000000,0.000000,0.000000,-0.00,-0.00,-0.000170,0.004000,-0.000000,-0.000000,0.000000,0.000000,0.000000,0.000000,-0.000323,0.000188,0.000024,0.000000,0.000000,0.000000,0.000000,819,819,819,819
7243,0,0.000000,0.000000,0.000000,-0.00,-0.00,-0.000045,0.004000,-0.000000,-0.000000,0.000000,0.000000,0.000000,0.000000,-0.000323,0.000188,0.000005,0.000000,0.000000,0.000000,0.000000,819,819,819,819
7253,0,0.000000,0.000000,0.000000,0.00,-0.00,0.000070,0.004000,0.000000,-0.000000,0.000000,0.000000,0.000000,0.000000,-0.000323,0.000187,-0.000014,0.000000,0.000000,0.000000,0.000000,819,819,819,819
7263,0,0.000000,0.000000,0.000000,-0.00,-0.00,0.000058,0.004000,-0.000000,-0.000000,0.000000,0.000000,0.000000,0.000000,-0.000323,0.000187,-0.000013,0.000000,0.000000,0.000000,0.000000,819,819,819,819
7273,0,0.000000,0.000000,0.000000,0.00,-0.00,0.000093,0.004000,0.000000,-0.000000,0.000000,0.000000,0.000000,0.000000,-0.000323,0.000187,-0.000019,0.000000,0.000000,0.000000,0.000000,819,819,819,819
7284,0,0.000000,0.000000,0.000000,-0.00,0.00,0.000023,0.004000,-0.000000,0.000000,0.000000,0.000000,0.000000,0.000000,-0.000323,0.000187,-0.000008,0.000000,0.000000,0.000000,0.000000,819,819,819,819
7294,0,0.000000,0.000000,0.000000,0.00,0.00,-0.000071,0.004000,0.000000,0.000000,0.000000,0.000000,0.000000,0.000000,-0.000323,0.000186,0.000007,0.000000,0.000000,0.000000,0.000000,819,819,819,819
7303,0,0.000000,0.000000,0.000000,-0.00,0.00,-0.000040,0.004000,-0.000000,0.000000,0.000000,0.000000,0.000000,0.000000,-0.000323,0.000186,0.000002,0.000000,0.000000,0.000000,0.000000,819,819,819,819
7313,0,0.000000,0.000000,0.000000,-0.00,-0.00,-0.000020,0.004000,-0.000000,-0.000000,0.000000,0.000000,0.000000,0.000000,-0.000323,0.000187,-0.000000,0.000000,0.000000,0.000000,0.000000,819,819,819,819
7323,0,0.000000,0.000000,0.000000,0.00,-0.00,0.000017,0.004000,0.000000,-0.000000,0.000000,0.000000,0.000000,0.000000,-0.000323,0.000187,-0.000006,0.000000,0.000000,0.000000,0.000000,819,819,819,819
7333,0,0.000000,0.000000,0.000000,0.00,-0.00,0.000091,0.004000,0.000000,-0.000000,0.000000,0.000000,0.000000,0.000000,-0.000323,0.000188,-0.000019,0.000000,0.000000,0.000000,0.000000,819,819,819,819
7344,0,0.000000,0.000000,0.000000,0.00,-0.00,0.000113,0.004000,0.000000,-0.000000,0.000000,0.000000,0.000000,0.000000,-0.000323,0.000188,-0.000023,0.000000,0.000000,0.000000,0.000000,819,819,819,819
7354,0,0.000000,0.000000,0.000000,-0.00,-0.00,0.000132,0.004000,-0.000000,-0.000000,0.000000,0.000000,0.000000,0.000000,-0.000323,0.000189,-0.000028,0.000000,0.000000,0.000000,0.000000,819,819,819,819
7370,0,0.000000,0.000000,0.000000,0.00,-0.00,0.000025,0.004000,0.000000,-0.000000,0.000000,0.000000,0.000000,0.000000,-0.000323,0.000188,-0.000011,0.000000,0.000000,0.000000,0.000000,819,819,819,819
7382,0,0.000000,0.000000,0.000000,-0.00,0.00,0.000019,0.004000,-0.000000,0.000000,0.000000,0.000000,0.000000,0.000000,-0.000323,0.000186,-0.000011,0.000000,0.000000,0.000000,0.000000,819,819,819,819
7392,0,0.000000,0.000000,0.000000,0.00,-0.00,0.000037,0.004000,0.000000,-0.000000,0.000000,0.000000,0.000000,0.000000,-0.000323,0.000188,-0.000014,0.000000,0.000000,0.000000,0.000000,819,819,819,819
7403,0,0.000000,0.000000,0.000000,-0.00,-0.00,0.000056,0.004000,-0.000000,-0.000000,0.000000,0.000000,0.000000,0.000000,-0.000323,0.000188,-0.000018,0.000000,0.000000,0.000000,0.000000,819,819,819,819
7413,0,0.000000,0.000000,0.000000,-0.00,0.00,0.000147,0.004000,-0.000000,0.000000,0.000000,0.000000,0.000000,0.000000,-0.000323,0.000187,-0.000033,0.000000,0.000000,0.000000,0.000000,819,819,819,819
7424,0,0.000000,0.000000,0.000000,-0.00,-0.00,0.000224,0.004000,-0.000000,-0.000000,0.000000,0.000000,0.000000,0.000000,-0.000323,0.000188,-0.000048,0.000000,0.000000,0.000000,0.000000,819,819,819,819
7434,0,0.000000,0.000000,0.000000,0.00,-0.00,0.000084,0.004000,0.000000,-0.000000,0.000000,0.000000,0.000000,0.000000,-0.000323,0.000188,-0.000027,0.000000,0.000000,0.000000,0.000000,819,819,819,819
7444,0,0.000000,0.000000,0.000000,-0.00,-0.00,0.000040,0.004000,-0.000000,-0.000000,0.000000,0.000000,0.000000,0.000000,-0.000323,0.000189,-0.000021,0.000000,0.000000,0.000000,0.000000,819,819,819,819
7454,0,0.000000,0.000000,0.000000,0.00,-0.00,-0.000161,0.004000,0.000000,-0.000000,0.000000,0.000000,0.000000,0.000000,-0.000323,0.000189,0.000012,0.000000,0.000000,0.000000,0.000000,819,819,819,819
7463,0,0.000000,0.000000,0.000000,0.00,-0.00,-0.000171,0.004000,0.000000,-0.000000,0.000000,0.000000,0.000000,0.000000,-0.000323,0.000188,0.000016,0.000000,0.000000,0.000000,0.000000,819,819,819,819
7474,0,0.000000,0.000000,0.000000,-0.00,0.00,-0.000244,0.004000,-0.000000,0.000000,0.000000,0.000000,0.000000,0.000000,-0.000323,0.000188,0.000030,0.000000,0.000000,0.000000,0.000000,819,819,819,819
7484,0,0.000000,0.000000,0.000000,0.00,-0.00,-0.000157,0.004000,0.000000,-0.000000,0.000000,0.000000,0.000000,0.000000,-0.000323,0.000188,0.000018,0.000000,0.000000,0.000000,0.000000,819,819,819,819
7494,0,0.000000,0.000000,0.000000,-0.00,-0.00,-0.000116,0.004000,-0.000000,-0.000000,0.000000,0.000000,0.000000,0.000000,-0.000323,0.000189,0.000013,0.000000,0.000000,0.000000,0.000000,819,819,819,819
7504,0,0.000000,0.000000,0.000000,-0.00,0.00,-0.000042,0.004000,-0.000000,0.000000,0.000000,0.000000,0.000000,0.000000,-0.000323,0.000187,0.000002,0.000000,0.000000,0.000000,0.000000,819,819,819,819
7514,0,0.000000,0.000000,0.000000,-0.00,-0.00,0.000016,0.004000,-0.000000,-0.000000,0.000000,0.000000,0.000000,0.000000,-0.000323,0.000188,-0.000007,0.000000,0.000000,0.000000,0.000000,819,819,819,819
7524,0,0.000000,0.000000,0.000000,0.00,0.00,-0.000053,0.004000,0.000000,0.000000,0.000000,0.000000,0.000000,0.000000,-0.000323,0.000188,0.000004,0.000000,0.000000,0.000000,0.000000,819,819,819,819
7534,0,0.000000,0.000000,0.000000,-0.00,0.00,-0.000003,0.004000,-0.000000,0.000000,0.000000,0.000000,0.000000,0.000000,-0.000323,0.000187,-0.000004,0.000000,0.000000,0.000000,0.000000,819,819,819,819
7544,0,0.000000,0.000000,0.000000,-0.00,0.00,-0.000018,0.004000,-0.000000,0.000000,0.000000,0.000000,0.000000,0.000000,-0.000323,0.000187,-0.000001,0.000000,0.000000,0.000000,0.000000,819,819,819,819
7554,0,0.000000,0.000000,0.000000,-0.00,0.00,-0.000037,0.004000,-0.000000,0.000000,0.000000,0.000000,0.000000,0.000000,-0.000323,0.000186,0.000002,0.000000,0.000000,0.000000,0.000000,819,819,819,819
7564,0,0.000000,0.000000,0.000000,-0.00,-0.00,-0.000002,0.004000,-0.000000,-0.000000,0.000000,0.000000,0.000000,0.000000,-0.000324,0.000188,-0.000003,0.000000,0.000000,0.000000,0.000000,819,819,819,819
7574,0,0.000000,0.000000,0.000000,0.00,0.00,-0.000109,0.004000,0.000000,0.000000,0.000000,0.000000,0.000000,0.000000,-0.000323,0.000188,0.000015,0.000000,0.000000,0.000000,0.000000,819,819,819,819
7584,0,0.000000,0.000000,0.000000,0.00,0.00,-0.000132,0.004000,0.000000,0.000000,0.000000,0.000000,0.000000,0.000000,-0.000323,0.000188,0.000020,0.000000,0.000000,0.000000,0.000000,819,819,819,819
7594,0,0.000000,0.000000,0.000000,-0.00,-0.00,-0.000007,0.004000,-0.000000,-0.000000,0.000000,0.000000,0.000000,0.000000,-0.000324,0.000189,0.000000,0.000000,0.000000,0.000000,0.000000,819,819,819,819
7604,0,0.000000,0.000000,0.000000,0.00,-0.00,-0.000018,0.004000,0.000000,-0.000000,0.000000,0.000000,0.000000,0.000000,-0.000323,0.000188,0.000003,0.000000,0.000000,0.000000,0.000000,819,819,819,819
7614,0,0.000000,0.000000,0.000000,-0.00,-0.00,0.000162,0.004000,-0.000000,-0.000000,0.000000,0.000000,0.000000,0.000000,-0.000324,0.000189,-0.000027,0.000000,0.000000,0.000000,0.000000,819,819,819,819
7624,0,0.000000,0.000000,0.000000,-0.00,-0.00,0.000171,0.004000,-0.000000,-0.000000,0.000000,0.000000,0.000000,0.000000,-0.000324,0.000189,-0.000030,0.000000,0.000000,0.000000,0.000000,819,819,819,819
7634,0,0.000000,0.000000,0.000000,-0.00,-0.00,0.000189,0.004000,-0.000000,-0.000001,0.000000,0.000000,0.000000,0.000000,-0.000324,0.000190,-0.000035,0.000000,0.000000,0.000000,0.000000,819,819,819,819
7644,0,0.000000,0.000000,0.000000,-0.00,-0.00,0.000100,0.004000,-0.000000,-0.000000,0.000000,0.000000,0.000000,0.000000,-0.000324,0.000189,-0.000023,0.000000,0.000000,0.000000,0.000000,819,819,819,819
7654,0,0.000000,0.000000,0.000000,0.00,-0.00,-0.000085,0.004000,0.000000,-0.000000,0.000000,0.000000,0.000000,0.000000,-0.000324,0.000189,0.000007,0.000000,0.000000,0.000000,0.000000,819,819,819,819
7664,0,0.000000,0.000000,0.000000,0.00,0.00,-0.000059,0.004000,0.000000,0.000000,0.000000,0.000000,0.000000,0.000000,-0.000324,0.000188,0.000003,0.000000,0.000000,0.000000,0.000000,819,819,819,819
7674,0,0.000000,0.000000,0.000000,0.00,0.00,-0.000003,0.004000,0.000000,0.000000,0.000000,0.000000,0.000000,0.000000,-0.000324,0.000188,-0.000005,0.000000,0.000000,0.000000,0.000000,819,819,819,819
7689,0,0.000000,0.000000,0.000000,-0.00,0.00,0.000036,0.004000,-0.000000,0.000000,0.000000,0.000000,0.000000,0.000000,-0.000324,0.000188,-0.000012,0.000000,0.000000,0.000000,0.000000,819,819,819,819
7699,0,0.000000,0.000000,0.000000,-0.00,-0.00,0.000219,0.004000,-0.000000,-0.000000,0.000000,0.000000,0.000000,0.000000,-0.000324,0.000189,-0.000042,0.000000,0.000000,0.000000,0.000000,819,819,819,819
7710,0,0.000000,0.000000,0.000000,-0.00,-0.00,0.000228,0.004000,-0.000000,-0.000000,0.000000,0.000000,0.000000,0.000000,-0.000324,0.000189,-0.000046,0.000000,0.000000,0.000000,0.000000,819,819,819,819
7721,0,0.000000,0.000000,0.000000,0.00,-0.00,0.000174,0.004000,0.000000,-0.000000,0.000000,0.000000,0.000000,0.000000,-0.000324,0.000189,-0.000040,0.000000,0.000000,0.000000,0.000000,819,819,819,819
7733,0,0.000000,0.000000,0.000000,-0.00,-0.00,0.000099,0.004000,-0.000000,-0.000000,0.000000,0.000000,0.000000,0.000000,-0.000324,0.000189,-0.000030,0.000000,0.000000,0.000000,0.000000,819,819,819,819
7744,0,0.000000,0.000000,0.000000,0.00,0.00,-0.000085,0.004000,0.000000,0.000000,0.000000,0.000000,0.000000,0.000000,-0.000324,0.000189,-0.000000,0.000000,0.000000,0.000000,0.000000,819,819,819,819
7754,0,0.000000,0.000000,0.000000,0.00,0.00,-0.000149,0.004000,0.000000,0.000000,0.000000,0.000000,0.000000,0.000000,-0.000324,0.000188,0.000011,0.000000,0.000000,0.000000,0.000000,819,819,819,819
7764,0,0.000000,0.000000,0.000000,-0.00,0.00,-0.000224,0.004000,-0.000000,0.000000,0.000000,0.000000,0.000000,0.000000,-0.000324,0.000188,0.000025,0.000000,0.000000,0.000000,0.000000,819,819,819,819
7774,0,0.000000,0.000000,0.000000,-0.00,-0.00,-0.000210,0.004000,-0.000000,-0.000000,0.000000,0.000000,0.000000,0.000000,-0.000324,0.000189,0.000026,0.000000,0.000000,0.000000,0.000000,819,819,819,819
7786,0,0.000000,0.000000,0.000000,0.00,-0.00,-0.000137,0.004000,0.000000,-0.000000,0.000000,0.000000,0.000000,0.000000,-0.000324,0.000189,0.000016,0.000000,0.000000,0.000000,0.000000,819,819,819,819
7795,0,0.000000,0.000000,0.000000,-0.00,0.00,-0.000025,0.004000,-0.000000,0.000000,0.000000,0.000000,0.000000,0.000000,-0.000324,0.000188,-0.000001,0.000000,0.000000,0.000000,0.000000,819,819,819,819
7805,0,0.000000,0.000000,0.000000,0.00,0.00,0.000107,0.004000,0.000000,0.000000,0.000000,0.000000,0.000000,0.000000,-0.000324,0.000188,-0.000023,0.000000,0.000000,0.000000,0.000000,819,819,819,819
7814,0,0.000000,0.000000,0.000000,0.00,0.00,0.000168,0.004000,0.000000,0.000000,0.000000,0.000000,0.000000,0.000000,-0.000324,0.000188,-0.000034,0.000000,0.000000,0.000000,0.000000,819,819,819,819
7824,0,0.000000,0.000000,0.000000,0.00,0.00,0.000153,0.004000,0.000000,0.000000,0.000000,0.000000,0.000000,0.000000,-0.000324,0.000188,-0.000033,0.000000,0.000000,0.000000,0.000000,819,819,819,819
7834,0,0.000000,0.000000,0.000000,0.00,0.00,0.000116,0.004000,0.000000,0.000000,0.000000,0.000000,0.000000,0.000000,-0.000324,0.000188,-0.000029,0.000000,0.000000,0.000000,0.000000,819,819,819,819
7844,0,0.000000,0.000000,0.000000,0.00,-0.00,0.000042,0.004000,0.000000,-0.000000,0.000000,0.000000,0.000000,0.000000,-0.000324,0.000189,-0.000018,0.000000,0.000000,0.000000,0.000000,819,819,819,819
7854,0,0.000000,0.000000,0.000000,-0.00,0.00,-0.000088,0.004000,-0.000000,0.000000,0.000000,0.000000,0.000000,0.000000,-0.000324,0.000188,0.000003,0.000000,0.000000,0.000000,0.000000,819,819,819,819
7864,0,0.000000,0.000000,0.000000,0.00,0.00,-0.000167,0.004000,0.000000,0.000000,0.000000,0.000000,0.000000,0.000000,-0.000324,0.000187,0.000017,0.000000,0.000000,0.000000,0.000000,819,819,819,819
7874,0,0.000000,0.000000,0.000000,-0.00,-0.00,-0.000189,0.004000,-0.000000,-0.000000,0.000000,0.000000,0.000000,0.000000,-0.000324,0.000189,0.000023,0.000000,0.000000,0.000000,0.000000,819,819,819,819
7885,0,0.000000,0.000000,0.000000,0.00,0.00,-0.000190,0.004000,0.000000,0.000000,0.000000,0.000000,0.000000,0.000000,-0.000324,0.000188,0.000025,0.000000,0.000000,0.000000,0.000000,819,819,819,819
7894,0,0.000000,0.000000,0.000000,-0.00,0.00,-0.000064,0.004000,-0.000000,0.000000,0.000000,0.000000,0.000000,0.000000,-0.000324,0.000188,0.000006,0.000000,0.000000,0.000000,0.000000,819,819,819,819
7904,0,0.000000,0.000000,0.000000,-0.00,0.00,0.000087,0.004000,-0.000000,0.000000,0.000000,0.000000,0.000000,0.000000,-0.000324,0.000188,-0.000018,0.000000,0.000000,0.000000,0.000000,819,819,819,819
7914,0,0.000000,0.000000,0.000000,0.00,0.00,0.000113,0.004000,0.000000,0.000000,0.000000,0.000000,0.000000,0.000000,-0.000324,0.000187,-0.000023,0.000000,0.000000,0.000000,0.000000,819,819,819,819
7924,0,0.000000,0.000000,0.000000,0.00,0.00,0.000187,0.004000,0.000000,0.000000,0.000000,0.000000,0.000000,0.000000,-0.000324,0.000187,-0.000037,0.000000,0.000000,0.000000,0.000000,819,819,819,819
7935,0,0.000000,0.000000,0.000000,-0.00,-0.00,0.000154,0.004000,-0.000000,-0.000000,0.000000,0.000000,0.000000,0.000000,-0.000324,0.000189,-0.000034,0.000000,0.000000,0.000000,0.000000,819,819,819,819
7945,0,0.000000,0.000000,0.000000,0.00,0.00,0.000044,0.004000,0.000000,0.000000,0.000000,0.000000,0.000000,0.000000,-0.000324,0.000188,-0.000017,0.000000,0.000000,0.000000,0.000000,819,819,819,819
7955,0,0.000000,0.000000,0.000000,0.00,-0.00,-0.000016,0.004000,0.000000,-0.000000,0.000000,0.000000,0.000000,0.000000,-0.000324,0.000189,-0.000008,0.000000,0.000000,0.000000,0.000000,819,819,819,819
7964,0,0.000000,0.000000,0.000000,0.00,0.00,-0.000037,0.004000,0.000000,0.000000,0.000000,0.000000,0.000000,0.000000,-0.000324,0.000187,-0.000004,0.000000,0.000000,0.000000,0.000000,819,819,819,819
7975,0,0.000000,0.000000,0.000000,0.00,-0.00,-0.000074,0.004000,0.000000,-0.000000,0.000000,0.000000,0.000000,0.000000,-0.000324,0.000189,0.000003,0.000000,0.000000,0.000000,0.000000,819,819,819,819
7985,0,0.000000,0.000000,0.000000,-0.00,-0.00,-0.000112,0.004000,-0.000000,-0.000000,0.000000,0.000000,0.000000,0.000000,-0.000324,0.000190,0.000010,0.000000,0.000000,0.000000,0.000000,819,819,819,819
8002,0,0.000000,0.000000,0.000000,0.00,-0.00,-0.000096,0.004000,0.000000,-0.000000,0.000000,0.000000,0.000000,0.000000,-0.000324,0.000189,0.000008,0.000000,0.000000,0.000000,0.000000,819,819,819,819
8014,0,0.000000,0.000000,0.000000,-0.00,0.00,-0.000077,0.004000,-0.000000,0.000000,0.000000,0.000000,0.000000,0.000000,-0.000324,0.000188,0.000006,0.000000,0.000000,0.000000,0.000000,819,819,819,819
8024,0,0.000000,0.000000,0.000000,0.00,0.00,-0.000076,0.004000,0.000000,0.000000,0.000000,0.000000,0.000000,0.000000,-0.000324,0.000188,0.000007,0.000000,0.000000,0.000000,0.000000,819,819,819,819
8035,0,0.000000,0.000000,0.000000,0.00,-0.00,-0.000076,0.004000,0.000000,-0.000000,0.000000,0.000000,0.000000,0.000000,-0.000324,0.000189,0.000008,0.000000,0.000000,0.000000,0.000000,819,819,819,819
8045,0,0.000000,0.000000,0.000000,0.00,-0.00,-0.000094,0.004000,0.000000,-0.000000,0.000000,0.000000,0.000000,0.000000,-0.000324,0.000189,0.000012,0.000000,0.000000,0.000000,0.000000,819,819,819,819
8055,0,0.000000,0.000000,0.000000,0.00,-0.00,-0.000059,0.004000,0.000000,-0.000000,0.000000,0.000000,0.000000,0.000000,-0.000324,0.000189,0.000007,0.000000,0.000000,0.000000,0.000000,819,819,819,819
8065,0,0.000000,0.000000,0.000000,-0.00,-0.00,0.000033,0.004000,-0.000000,-0.000000,0.000000,0.000000,0.000000,0.000000,-0.000324,0.000189,-0.000007,0.000000,0.000000,0.000000,0.000000,819,819,819,819
8075,0,0.000000,0.000000,0.000000,0.00,-0.00,0.000074,0.004000,0.000000,-0.000000,0.000000,0.000000,0.000000,0.000000,-0.000324,0.000189,-0.000014,0.000000,0.000000,0.000000,0.000000,819,819,819,819
8085,0,0.000000,0.000000,0.000000,0.00,-0.00,0.000112,0.004000,0.000000,-0.000000,0.000000,0.000000,0.000000,0.000000,-0.000324,0.000190,-0.000022,0.000000,0.000000,0.000000,0.000000,819,819,819,819
8095,0,0.000000,0.000000,0.000000,0.00,-0.00,0.000060,0.004000,0.000000,-0.000000,0.000000,0.000000,0.000000,0.000000,-0.000324,0.000189,-0.000014,0.000000,0.000000,0.000000,0.000000,819,819,819,819
8105,0,0.000000,0.000000,0.000000,0.00,-0.00,0.000003,0.004000,0.000000,-0.000000,0.000000,0.000000,0.000000,0.000000,-0.000324,0.000190,-0.000006,0.000000,0.000000,0.000000,0.000000,819,819,819,819
8115,0,0.000000,0.000000,0.000000,-0.00,-0.00,-0.000018,0.004000,-0.000000,-0.000000,0.000000,0.000000,0.000000,0.000000,-0.000324,0.000190,-0.000002,0.000000,0.000000,0.000000,0.000000,819,819,819,819
8125,0,0.000000,0.000000,0.000000,-0.00,0.00,-0.000073,0.004000,-0.000000,0.000000,0.000000,0.000000,0.000000,0.000000,-0.000324,0.000188,0.000007,0.000000,0.000000,0.000000,0.000000,819,819,819,819
8135,0,0.000000,0.000000,0.000000,-0.00,0.00,-0.000094,0.004000,-0.000000,0.000000,0.000000,0.000000,0.000000,0.000000,-0.000324,0.000188,0.000012,0.000000,0.000000,0.000000,0.000000,819,819,819,819
8145,0,0.000000,0.000000,0.000000,-0.00,-0.00,-0.000113,0.004000,-0.000000,-0.000000,0.000000,0.000000,0.000000,0.000000,-0.000324,0.000190,0.000016,0.000000,0.000000,0.000000,0.000000,819,819,819,819
8155,0,0.000000,0.000000,0.000000,0.00,0.00,-0.000114,0.004000,0.000000,0.000000,0.000000,0.000000,0.000000,0.000000,-0.000324,0.000189,0.000017,0.000000,0.000000,0.000000,0.000000,819,819,819,819
8165,0,0.000000,0.000000,0.000000,-0.00,0.00,-0.000114,0.004000,-0.000000,0.000000,0.000000,0.000000,0.000000,0.000000,-0.000324,0.000188,0.000019,0.000000,0.000000,0.000000,0.000000,819,819,819,819
8175,0,0.000000,0.000000,0.000000,-0.00,0.00,-0.000060,0.004000,-0.000000,0.000000,0.000000,0.000000,0.000000,0.000000,-0.000324,0.000188,0.000011,0.000000,0.000000,0.000000,0.000000,819,819,819,819
8185,0,0.000000,0.000000,0.000000,0.00,0.00,-0.000039,0.004000,0.000000,0.000000,0.000000,0.000000,0.000000,0.000000,-0.000324,0.000187,0.000008,0.000000,0.000000,0.000000,0.000000,819,819,819,819
8195,0,0.000000,0.000000,0.000000,-0.00,0.00,0.000034,0.004000,-0.000000,0.000000,0.000000,0.000000,0.000000,0.000000,-0.000324,0.000189,-0.000003,0.000000,0.000000,0.000000,0.000000,819,819,819,819
8205,0,0.000000,0.000000,0.000000,0.00,0.00,0.000020,0.004000,0.000000,0.000000,0.000000,0.000000,0.000000,0.000000,-0.000324,0.000188,-0.000001,0.000000,0.000000,0.000000,0.000000,819,819,819,819
8215,0,0.000000,0.000000,0.000000,-0.00,0.00,0.000055,0.004000,-0.000000,0.000000,0.000000,0.000000,0.000000,0.000000,-0.000324,0.000189,-0.000007,0.000000,0.000000,0.000000,0.000000,819,819,819,819
8225,0,0.000000,0.000000,0.000000,0.00,0.00,0.000021,0.004000,0.000000,0.000000,0.000000,0.000000,0.000000,0.000000,-0.000324,0.000189,-0.000002,0.000000,0.000000,0.000000,0.000000,819,819,819,819
8235,0,0.000000,0.000000,0.000000,0.00,0.00,0.000001,0.004000,0.000000,0.000000,0.000000,0.000000,0.000000,0.000000,-0.000324,0.000188,0.000000,0.000000,0.000000,0.000000,0.000000,819,819,819,819
8245,0,0.000000,0.000000,0.000000,0.00,0.00,0.000018,0.004000,0.000000,0.000000,0.000000,0.000000,0.000000,0.000000,-0.000324,0.000188,-0.000002,0.000000,0.000000,0.000000,0.000000,819,819,819,819
8255,0,0.000000,0.000000,0.000000,0.00,0.00,0.000091,0.004000,0.000000,0.000000,0.000000,0.000000,0.000000,0.000000,-0.000324,0.000187,-0.000015,0.000000,0.000000,0.000000,0.000000,819,819,819,819
8265,0,0.000000,0.000000,0.000000,-0.00,0.00,0.000149,0.004000,-0.000000,0.000000,0.000000,0.000000,0.000000,0.000000,-0.000324,0.000188,-0.000025,0.000000,0.000000,0.000000,0.000000,819,819,819,819
8275,0,0.000000,0.000000,0.000000,-0.00,0.00,0.000116,0.004000,-0.000000,0.000000,0.000000,0.000000,0.000000,0.000000,-0.000324,0.000187,-0.000022,0.000000,0.000000,0.000000,0.000000,819,819,819,819
8285,0,0.000000,0.000000,0.000000,-0.00,-0.00,0.000078,0.004000,-0.000000,-0.000000,0.000000,0.000000,0.000000,0.000000,-0.000324,0.000189,-0.000017,0.000000,0.000000,0.000000,0.000000,819,819,819,819
8297,0,0.000000,0.000000,0.000000,-0.00,-0.00,0.000022,0.004000,-0.000000,-0.000000,0.000000,0.000000,0.000000,0.000000,-0.000324,0.000189,-0.000008,0.000000,0.000000,0.000000,0.000000,819,819,819,819
8306,0,0.000000,0.000000,0.000000,0.00,0.00,-0.000017,0.004000,0.000000,0.000000,0.000000,0.000000,0.000000,0.000000,-0.000324,0.000188,-0.000002,0.000000,0.000000,0.000000,0.000000,819,819,819,819
8323,0,0.000000,0.000000,0.000000,-0.00,0.00,-0.000019,0.004000,-0.000000,0.000000,0.000000,0.000000,0.000000,0.000000,-0.000324,0.000188,-0.000002,0.000000,0.000000,0.000000,0.000000,819,819,819,819
8334,0,0.000000,0.000000,0.000000,0.00,0.00,-0.000037,0.004000,0.000000,0.000000,0.000000,0.000000,0.000000,0.000000,-0.000324,0.000188,0.000002,0.000000,0.000000,0.000000,0.000000,819,819,819,819
8345,0,0.000000,0.000000,0.000000,-0.00,0.00,-0.000002,0.004000,-0.000000,0.000000,0.000000,0.000000,0.000000,0.000000,-0.000324,0.000188,-0.000004,0.000000,0.000000,0.000000,0.000000,819,819,819,819
8355,0,0.000000,0.000000,0.000000,0.00,-0.00,0.000054,0.004000,0.000000,-0.000000,0.000000,0.000000,0.000000,0.000000,-0.000324,0.000189,-0.000013,0.000000,0.000000,0.000000,0.000000,819,819,819,819
8365,0,0.000000,0.000000,0.000000,0.00,-0.00,0.000057,0.004000,0.000000,-0.000000,0.000000,0.000000,0.000000,0.000000,-0.000324,0.000189,-0.000014,0.000000,0.000000,0.000000,0.000000,819,819,819,819
8375,0,0.000000,0.000000,0.000000,-0.00,-0.00,0.000075,0.004000,-0.000000,-0.000000,0.000000,0.000000,0.000000,0.000000,-0.000324,0.000189,-0.000018,0.000000,0.000000,0.000000,0.000000,819,819,819,819
8387,0,0.000000,0.000000,0.000000,-0.00,-0.00,0.000076,0.004000,-0.000000,-0.000000,0.000000,0.000000,0.000000,0.000000,-0.000324,0.000189,-0.000019,0.000000,0.000000,0.000000,0.000000,819,819,819,819
8396,0,0.000000,0.000000,0.000000,0.00,-0.00,0.000004,0.004000,0.000000,-0.000000,0.000000,0.000000,0.000000,0.000000,-0.000324,0.000189,-0.000008,0.000000,0.000000,0.000000,0.000000,819,819,819,819
8406,0,0.000000,0.000000,0.000000,0.00,-0.00,0.000000,0.004000,0.000000,-0.000000,0.000000,0.000000,0.000000,0.000000,-0.000324,0.000189,-0.000007,0.000000,0.000000,0.000000,0.000000,819,819,819,819
8415,0,0.000000,0.000000,0.000000,-0.00,0.00,0.000000,0.004000,-0.000000,0.000000,0.000000,0.000000,0.000000,0.000000,-0.000324,0.000188,-0.000007,0.000000,0.000000,0.000000,0.000000,819,819,819,819
8426,0,0.000000,0.000000,0.000000,0.00,-0.00,0.000054,0.004000,0.000000,-0.000000,0.000000,0.000000,0.000000,0.000000,-0.000324,0.000189,-0.000016,0.000000,0.000000,0.000000,0.000000,819,819,819,819
8436,0,0.000000,0.000000,0.000000,-0.00,0.00,0.000057,0.004000,-0.000000,0.000000,0.000000,0.000000,0.000000,0.000000,-0.000324,0.000189,-0.000018,0.000000,0.000000,0.000000,0.000000,819,819,819,819
8446,0,0.000000,0.000000,0.000000,0.00,-0.00,-0.000015,0.004000,0.000000,-0.000000,0.000000,0.000000,0.000000,0.000000,-0.000324,0.000189,-0.000006,0.000000,0.000000,0.000000,0.000000,819,819,819,819
8456,0,0.000000,0.000000,0.000000,-0.00,0.00,-0.000019,0.004000,-0.000000,0.000000,0.000000,0.000000,0.000000,0.000000,-0.000324,0.000189,-0.000006,0.000000,0.000000,0.000000,0.000000,819,819,819,819
8466,0,0.000000,0.000000,0.000000,0.00,0.00,0.000017,0.004000,0.000000,0.000000,0.000000,0.000000,0.000000,0.000000,-0.000324,0.000189,-0.000011,0.000000,0.000000,0.000000,0.000000,819,819,819,819
8476,0,0.000000,0.000000,0.000000,0.00,0.00,0.000037,0.004000,0.000000,0.000000,0.000000,0.000000,0.000000,0.000000,-0.000324,0.000189,-0.000015,0.000000,0.000000,0.000000,0.000000,819,819,819,819
8486,0,0.000000,0.000000,0.000000,-0.00,-0.00,0.000002,0.004000,-0.000000,-0.000000,0.000000,0.000000,0.000000,0.000000,-0.000325,0.000189,-0.000009,0.000000,0.000000,0.000000,0.000000,819,819,819,819
8497,0,0.000000,0.000000,0.000000,-0.00,0.00,-0.000054,0.005000,-0.000000,0.000000,0.000000,0.000000,0.000000,0.000000,-0.000325,0.000188,-0.000000,0.000000,0.000000,0.000000,0.000000,819,819,819,819
8506,0,0.000000,0.000000,0.000000,0.00,0.00,-0.000093,0.005000,0.000000,0.000000,0.000000,0.000000,0.000000,0.000000,-0.000324,0.000189,0.000007,0.000000,0.000000,0.000000,0.000000,819,819,819,819
8516,0,0.000000,0.000000,0.000000,0.00,0.00,-0.000059,0.005000,0.000000,0.000000,0.000000,0.000000,0.000000,0.000000,-0.000324,0.000187,0.000003,0.000000,0.000000,0.000000,0.000000,819,819,819,819
8526,0,0.000000,0.000000,0.000000,0.00,0.00,-0.000021,0.005000,0.000000,0.000000,0.000000,0.000000,0.000000,0.000000,-0.000324,0.000188,-0.000003,0.000000,0.000000,0.000000,0.000000,819,819,819,819
8536,0,0.000000,0.000000,0.000000,-0.00,0.00,0.000071,0.005000,-0.000000,0.000000,0.000000,0.000000,0.000000,0.000000,-0.000325,0.000188,-0.000018,0.000000,0.000000,0.000000,0.000000,819,819,819,819
8546,0,0.000000,0.000000,0.000000,0.00,0.00,0.000112,0.005000,0.000000,0.000000,0.000000,0.000000,0.000000,0.000000,-0.000324,0.000188,-0.000026,0.000000,0.000000,0.000000,0.000000,819,819,819,819
8556,0,0.000000,0.000000,0.000000,0.00,0.00,0.000078,0.005000,0.000000,0.000000,0.000000,0.000000,0.000000,0.000000,-0.000324,0.000187,-0.000022,0.000000,0.000000,0.000000,0.000000,819,819,819,819
8566,0,0.000000,0.000000,0.000000,0.00,0.00,0.000040,0.005000,0.000000,0.000000,0.000000,0.000000,0.000000,0.000000,-0.000324,0.000187,-0.000016,0.000000,0.000000,0.000000,0.000000,819,819,819,819
8576,0,0.000000,0.000000,0.000000,0.00,0.00,0.000002,0.006000,0.000000,0.000000,0.000000,0.000000,0.000000,0.000000,-0.000324,0.000187,-0.000010,0.000000,0.000000,0.000000,0.000000,819,819,819,819
8586,0,0.000000,0.000000,0.000000,0.00,-0.00,0.000018,0.006000,0.000000,-0.000000,0.000000,0.000000,0.000000,0.000000,-0.000324,0.000189,-0.000013,0.000000,0.000000,0.000000,0.000000,819,819,819,819
8596,0,0.000000,0.000000,0.000000,-0.00,0.00,-0.000017,0.026000,-0.000000,0.000000,0.000000,0.000000,0.000000,0.000000,-0.000324,0.000188,-0.000007,0.026505,0.026144,0.025871,0.025480,840,881,856,880
8606,0,0.000000,0.000000,0.000000,0.00,0.00,-0.000019,0.026000,0.000000,0.000000,0.000000,0.000000,0.000000,0.000000,-0.000324,0.000188,-0.000007,0.026505,0.026143,0.025870,0.025481,840,881,856,880
8616,0,0.000000,0.000000,0.000000,0.00,0.00,0.000035,0.026000,0.000000,0.000000,0.000000,0.000000,0.000000,0.000000,-0.000324,0.000186,-0.000016,0.026495,0.026154,0.025878,0.025474,840,881,856,880
8635,0,0.000000,0.000000,0.000000,-0.00,-0.00,0.000074,0.026000,-0.000000,-0.000000,0.000000,0.000000,0.000000,0.000000,-0.000324,0.000189,-0.000023,0.026490,0.026158,0.025887,0.025464,840,881,856,880
8647,0,0.000000,0.000000,0.000000,-0.00,0.00,0.000094,0.066000,-0.000000,0.000000,0.000000,0.000000,0.000000,0.000000,-0.000324,0.000186,-0.000027,0.066484,0.066165,0.065889,0.065462,873,914,889,913
8656,0,0.000000,0.000000,0.000000,0.00,0.00,0.000041,0.069000,0.000000,0.000000,0.000000,0.000000,0.000000,0.000000,-0.000324,0.000187,-0.000019,0.069492,0.069156,0.068883,0.068469,876,916,891,916
8666,0,0.000000,0.000000,0.000000,0.00,-0.00,0.000020,0.069000,0.000000,-0.000000,0.000000,0.000000,0.000000,0.000000,-0.000324,0.000188,-0.000016,0.069496,0.069152,0.068881,0.068471,876,916,891,916
8676,0,0.000000,0.000000,0.000000,0.00,-0.00,-0.000035,0.070000,0.000000,-0.000000,0.000000,0.000000,0.000000,0.000000,-0.000324,0.000190,-0.000007,0.070506,0.070142,0.069873,0.069479,876,917,892,917
8686,0,0.000000,0.000000,0.000000,-0.00,0.00,-0.000056,0.070000,-0.000000,0.000000,0.000000,0.000000,0.000000,0.000000,-0.000324,0.000188,-0.000004,0.070509,0.070140,0.069867,0.069484,876,917,892,917
8696,0,0.000000,0.000000,0.000000,-0.00,0.00,-0.000147,0.070000,-0.000000,0.000000,0.000000,0.000000,0.000000,0.000000,-0.000324,0.000187,0.000012,0.070524,0.070125,0.069850,0.069501,876,917,892,917
8706,0,0.000000,0.000000,0.000000,-0.00,0.00,-0.000315,0.070000,-0.000000,0.000003,0.000000,0.000000,0.000000,0.000000,-0.000324,0.000182,0.000042,0.070549,0.070100,0.069815,0.069536,876,917,892,917
8716,0,0.000000,0.000000,0.000000,0.00,-0.00,0.000563,0.070000,0.000000,-0.000003,0.000000,0.000000,0.000000,0.000000,-0.000324,0.000194,-0.000100,0.070418,0.070230,0.069969,0.069382,876,917,892,916
8726,0,0.000000,0.001091,0.000000,-0.00,0.00,0.000299,0.070000,-0.000000,0.000034,0.000000,0.000000,0.000000,0.000000,-0.000325,0.000070,-0.000063,0.070331,0.070318,0.069809,0.069542,876,917,892,917
8736,0,0.000000,0.001091,0.000000,-0.00,0.00,-0.000166,0.070000,-0.000001,-0.000017,0.000000,0.000000,0.000000,0.000000,-0.000325,0.000175,0.000010,0.070511,0.070139,0.069840,0.069510,876,917,892,917
8746,0,0.000000,0.001091,0.000000,-0.00,0.00,-0.000334,0.070000,-0.000001,-0.000016,0.000000,0.000000,0.000000,0.000000,-0.000325,0.000171,0.000040,0.070537,0.070114,0.069806,0.069544,876,917,892,917
8756,0,0.000000,0.001091,0.000000,0.00,0.00,-0.000270,0.070000,0.000000,-0.000016,0.000000,0.000000,0.000000,0.000000,-0.000325,0.000170,0.000034,0.070529,0.070121,0.069810,0.069539,876,917,892,917
8766,0,0.000000,0.001091,0.000000,0.00,0.00,-0.000267,0.070000,0.000000,-0.000017,0.000000,0.000000,0.000000,0.000000,-0.000325,0.000171,0.000037,0.070533,0.070117,0.069809,0.069541,876,917,892,917
8776,0,0.000000,0.000000,0.000000,0.00,-0.00,-0.000411,0.070000,0.000000,-0.000056,0.000000,0.000000,0.000000,0.000000,-0.000325,0.000299,0.000065,0.070689,0.069961,0.069910,0.069440,877,917,892,916
8787,0,0.000000,0.000000,0.000000,-0.00,-0.00,-0.000310,0.070000,-0.000000,-0.000003,0.000000,0.000000,0.000000,0.000000,-0.000325,0.000188,0.000053,0.070566,0.070084,0.069809,0.069541,876,917,892,917
8797,0,0.000000,0.000000,0.000000,0.00,-0.00,-0.000323,0.070000,0.000000,-0.000003,0.000000,0.000000,0.000000,0.000000,-0.000325,0.000188,0.000060,0.070573,0.070077,0.069804,0.069547,876,917,892,917
8807,0,0.001091,0.000000,0.000000,0.00,0.00,-0.000197,0.070000,0.000055,-0.000002,0.000000,0.000000,0.000000,0.000000,-0.000297,0.000187,0.000043,0.070527,0.070068,0.069847,0.069558,876,917,892,917
8816,0,0.001091,0.000000,0.000000,0.00,0.00,-0.000209,0.070000,-0.000006,-0.000002,0.000000,0.000000,0.000000,0.000000,-0.000306,0.000187,0.000047,0.070540,0.070072,0.069833,0.069555,876,917,892,917
8826,0,0.001091,0.000000,0.000000,0.00,0.00,-0.000227,0.070000,-0.000006,-0.000002,0.000000,0.000000,0.000000,0.000000,-0.000306,0.000185,0.000053,0.070545,0.070067,0.069826,0.069562,876,917,892,917
8837,0,0.001091,0.000000,0.000000,0.00,0.00,-0.000210,0.070000,-0.000006,-0.000002,0.000000,0.000000,0.000000,0.000000,-0.000306,0.000186,0.000053,0.070546,0.070066,0.069827,0.069561,876,917,892,917
8847,0,0.001091,0.000000,0.000000,-0.00,0.00,-0.000228,0.070000,-0.000008,-0.000002,0.000000,0.000000,0.000000,0.000000,-0.000306,0.000185,0.000059,0.070550,0.070062,0.069820,0.069568,876,917,892,917
8857,0,0.001091,0.000000,0.000000,-0.00,0.00,-0.000265,0.070000,-0.000008,-0.000002,0.000000,0.000000,0.000000,0.000000,-0.000306,0.000185,0.000068,0.070560,0.070052,0.069811,0.069577,876,917,892,917
8866,0,0.001091,0.000000,0.000000,-0.00,0.00,-0.000285,0.070000,-0.000010,-0.000001,0.000000,0.000000,0.000000,0.000000,-0.000306,0.000184,0.000075,0.070566,0.070047,0.069802,0.069585,876,917,892,917
8876,0,0.002182,0.000000,0.000000,0.00,0.00,-0.000286,0.070000,0.000038,-0.000001,0.000000,0.000000,0.000000,0.000000,-0.000282,0.000184,0.000079,0.070545,0.070019,0.069822,0.069613,876,917,892,917
8887,0,0.002182,0.000000,0.000000,-0.00,0.00,-0.000123,0.070000,-0.000017,-0.000002,0.000000,0.000000,0.000000,0.000000,-0.000291,0.000185,0.000056,0.070531,0.070050,0.069838,0.069580,876,917,892,917
8897,0,0.002182,0.000000,0.000000,-0.00,0.00,0.000301,0.069000,-0.000018,-0.000002,0.000000,0.000000,0.000000,0.000000,-0.000291,0.000185,-0.000013,0.069462,0.069120,0.068907,0.068511,876,916,891,916
8907,0,0.002182,0.000000,0.000000,-0.00,0.00,0.000268,0.069000,-0.000018,-0.000002,0.000000,0.000000,0.000000,0.000000,-0.000291,0.000185,-0.000012,0.069464,0.069118,0.068905,0.068513,876,916,891,916
8917,0,0.001091,0.001091,0.000000,-0.00,0.00,-0.000204,0.069000,-0.000066,0.000035,0.000000,0.000000,0.000000,0.000000,-0.000315,0.000060,0.000063,0.069438,0.069192,0.068681,0.068688,876,916,891,916
8927,0,0.002182,0.001091,0.000000,0.00,-0.00,-0.000752,0.069000,0.000035,-0.000020,0.000000,0.000000,0.000000,0.000000,-0.000283,0.000174,0.000157,0.069614,0.068952,0.068733,0.068701,876,916,891,916
8937,0,0.002182,0.001091,0.000000,-0.00,-0.00,-0.000779,0.069000,-0.000021,-0.000021,0.000000,0.000000,0.000000,0.000000,-0.000291,0.000175,0.000172,0.069638,0.068944,0.068712,0.068706,876,916,891,916
8954,0,0.002182,0.001091,0.000000,-0.00,-0.00,-0.000238,0.069000,-0.000022,-0.000021,0.000000,0.000000,0.000000,0.000000,-0.000292,0.000174,0.000092,0.069558,0.069026,0.068790,0.068627,876,916,891,916
8965,0,0.002182,0.001091,0.000000,-0.00,-0.00,0.000386,0.069000,-0.000022,-0.000022,0.000000,0.000000,0.000000,0.000000,-0.000292,0.000175,-0.000009,0.069458,0.069125,0.068892,0.068525,876,916,891,916
8977,0,0.002182,0.001091,0.000000,-0.00,-0.00,0.000327,0.069000,-0.000023,-0.000022,0.000000,0.000000,0.000000,0.000000,-0.000292,0.000174,-0.000004,0.069462,0.069122,0.068886,0.068530,876,916,891,916
8987,0,0.002182,0.001091,0.000000,-0.00,0.00,-0.000074,0.069000,-0.000024,-0.000021,0.000000,0.000000,0.000000,0.000000,-0.000292,0.000172,0.000059,0.069522,0.069062,0.068821,0.068595,876,916,891,916
8997,0,0.002182,0.000000,0.000000,-0.00,-0.00,-0.000365,0.069000,-0.000025,-0.000059,0.000000,0.000000,0.000000,0.000000,-0.000292,0.000298,0.000108,0.069698,0.068886,0.068897,0.068518,876,916,891,916
9007,0,0.002182,0.000000,0.000000,-0.00,0.00,-0.000344,0.069000,-0.000025,-0.000005,0.000000,0.000000,0.000000,0.000000,-0.000292,0.000184,0.000109,0.069585,0.068999,0.068782,0.068634,876,916,891,916
9017,0,0.002182,0.000000,0.000000,-0.00,0.00,-0.000144,0.069000,-0.000026,-0.000005,0.000000,0.000000,0.000000,0.000000,-0.000292,0.000183,0.000081,0.069556,0.069028,0.068810,0.068605,876,916,891,916
9027,0,0.002182,0.000000,0.000000,-0.00,0.00,0.000083,0.069000,-0.000027,-0.000005,0.000000,0.000000,0.000000,0.000000,-0.000292,0.000184,0.000045,0.069521,0.069064,0.068847,0.068569,876,916,891,916
9037,0,0.002182,0.000000,0.000000,-0.00,-0.00,0.000095,0.069000,-0.000028,-0.000006,0.000000,0.000000,0.000000,0.000000,-0.000292,0.000186,0.000042,0.069520,0.069065,0.068852,0.068564,876,916,891,916
9047,0,0.001091,0.000000,0.000000,-0.00,0.00,-0.000031,0.069000,-0.000078,-0.000006,0.000000,0.000000,0.000000,0.000000,-0.000318,0.000185,0.000062,0.069564,0.069072,0.068805,0.068559,876,916,891,916
9057,0,0.001091,0.000000,0.000000,-0.00,0.00,0.000035,0.069000,-0.000024,-0.000005,0.000000,0.000000,0.000000,0.000000,-0.000310,0.000183,0.000051,0.069544,0.069076,0.068822,0.068558,876,916,891,916
9067,0,0.001091,0.000000,0.000000,-0.00,-0.00,-0.000016,0.069000,-0.000024,-0.000006,0.000000,0.000000,0.000000,0.000000,-0.000310,0.000185,0.000059,0.069554,0.069066,0.068816,0.068564,876,916,891,916
9077,0,0.001091,0.000000,0.000000,-0.00,0.00,-0.000109,0.069000,-0.000025,-0.000005,0.000000,0.000000,0.000000,0.000000,-0.000310,0.000184,0.000075,0.069569,0.069051,0.068799,0.068581,876,916,891,916
9087,0,0.001091,0.000000,0.000000,-0.00,-0.00,0.000013,0.069000,-0.000025,-0.000006,0.000000,0.000000,0.000000,0.000000,-0.000310,0.000186,0.000056,0.069552,0.069068,0.068820,0.068560,876,916,891,916
9097,0,0.001091,0.000000,0.000000,-0.00,0.00,0.000073,0.070000,-0.000025,-0.000006,0.000000,0.000000,0.000000,0.000000,-0.000310,0.000185,0.000046,0.070541,0.070080,0.069829,0.069551,876,917,892,917
9107,0,0.001091,0.000000,0.000000,-0.00,-0.00,-0.000014,0.069000,-0.000026,-0.000006,0.000000,0.000000,0.000000,0.000000,-0.000310,0.000185,0.000059,0.069555,0.069066,0.068816,0.068563,876,916,891,916
9117,0,0.001091,0.000000,0.000000,-0.00,0.00,0.000252,0.069000,-0.000026,-0.000006,0.000000,0.000000,0.000000,0.000000,-0.000311,0.000184,0.000015,0.069510,0.069111,0.068859,0.068520,876,916,891,916
9127,0,0.001091,0.000000,0.000000,-0.00,0.00,0.000193,0.069000,-0.000027,-0.000006,0.000000,0.000000,0.000000,0.000000,-0.000311,0.000184,0.000021,0.069516,0.069105,0.068852,0.068526,876,916,891,916
9137,0,0.001091,0.000000,0.000000,-0.00,-0.00,-0.000045,0.069000,-0.000028,-0.000006,0.000000,0.000000,0.000000,0.000000,-0.000311,0.000186,0.000058,0.069555,0.069067,0.068816,0.068562,876,916,891,916
9147,0,0.001091,0.000000,0.000000,-0.00,0.00,0.000034,0.069000,-0.000028,-0.000005,0.000000,0.000000,0.000000,0.000000,-0.000311,0.000184,0.000046,0.069541,0.069082,0.068826,0.068551,876,916,891,916
9157,0,0.001091,0.000000,0.000000,-0.00,-0.00,-0.000016,0.070000,-0.000028,-0.000007,0.000000,0.000000,0.000000,0.000000,-0.000311,0.000186,0.000054,0.070551,0.070071,0.069821,0.069556,876,917,892,917
9167,0,0.001091,0.000000,0.000000,-0.00,-0.00,-0.000164,0.070000,-0.000029,-0.000007,0.000000,0.000000,0.000000,0.000000,-0.000312,0.000186,0.000079,0.070577,0.070047,0.069796,0.069580,876,917,892,917
9177,0,0.001091,0.000000,0.000000,-0.00,-0.00,0.000064,0.070000,-0.000029,-0.000006,0.000000,0.000000,0.000000,0.000000,-0.000311,0.000185,0.000043,0.070540,0.070083,0.069831,0.069546,876,917,892,917
9187,0,0.001091,0.000000,0.000000,-0.00,-0.00,-0.000123,0.070000,-0.000029,-0.000007,0.000000,0.000000,0.000000,0.000000,-0.000311,0.000188,0.000073,0.070573,0.070050,0.069803,0.069574,876,917,892,917
9197,0,0.001091,0.000000,0.000000,-0.00,-0.00,-0.000205,0.070000,-0.000030,-0.000007,0.000000,0.000000,0.000000,0.000000,-0.000312,0.000187,0.000089,0.070587,0.070036,0.069787,0.069590,876,917,892,917
9207,0,0.001091,0.000000,0.000000,-0.00,0.00,0.000062,0.070000,-0.000030,-0.000005,0.000000,0.000000,0.000000,0.000000,-0.000312,0.000184,0.000047,0.070542,0.070081,0.069826,0.069551,876,917,892,917
9217,0,0.001091,0.000000,0.000000,-0.00,-0.00,-0.000069,0.070000,-0.000031,-0.000007,0.000000,0.000000,0.000000,0.000000,-0.000312,0.000187,0.000068,0.070567,0.070056,0.069808,0.069569,876,917,892,917
9227,0,0.001091,0.000000,0.000000,-0.00,0.00,0.000141,0.070000,-0.000031,-0.000005,0.000000,0.000000,0.000000,0.000000,-0.000312,0.000185,0.000034,0.070530,0.070094,0.069839,0.069537,876,917,892,917
9238,0,0.001091,0.000000,0.000000,0.00,-0.00,0.000260,0.070000,-0.000031,-0.000007,0.000000,0.000000,0.000000,0.000000,-0.000312,0.000187,0.000012,0.070510,0.070113,0.069864,0.069513,876,917,892,917
9247,0,0.001091,0.000000,0.000000,-0.00,-0.00,-0.000041,0.070000,-0.000032,-0.000006,0.000000,0.000000,0.000000,0.000000,-0.000312,0.000187,0.000059,0.070557,0.070067,0.069816,0.069560,876,917,892,917
9257,0,0.001091,0.000000,0.000000,-0.00,0.00,0.000106,0.070000,-0.000032,-0.000005,0.000000,0.000000,0.000000,0.000000,-0.000312,0.000184,0.000034,0.070531,0.070093,0.069838,0.069538,876,917,892,917
9274,0,0.001091,0.000000,0.000000,-0.00,-0.00,-0.000049,0.070000,-0.000033,-0.000006,0.000000,0.000000,0.000000,0.000000,-0.000312,0.000186,0.000059,0.070557,0.070066,0.069816,0.069561,876,917,892,917
9287,0,0.001091,0.000000,0.000000,-0.00,-0.00,0.000052,0.071000,-0.000033,-0.000006,0.000000,0.000000,0.000000,0.000000,-0.000312,0.000186,0.000043,0.071541,0.071083,0.070832,0.070545,877,918,893,917
9297,0,0.001091,0.000000,0.000000,-0.00,-0.00,-0.000178,0.071000,-0.000034,-0.000007,0.000000,0.000000,0.000000,0.000000,-0.000312,0.000188,0.000081,0.071580,0.071043,0.070795,0.070581,877,918,893,917
9307,0,0.001091,0.000000,0.000000,-0.00,0.00,-0.000099,0.071000,-0.000034,-0.000005,0.000000,0.000000,0.000000,0.000000,-0.000312,0.000185,0.000070,0.071567,0.071057,0.070803,0.070573,877,918,893,917
9317,0,0.001091,0.000000,0.000000,0.00,0.00,0.000085,0.071000,-0.000034,-0.000006,0.000000,0.000000,0.000000,0.000000,-0.000312,0.000185,0.000040,0.071537,0.071086,0.070833,0.070543,877,918,893,917
9327,0,0.001091,0.000000,0.000000,-0.00,0.00,-0.000122,0.073000,-0.000035,-0.000006,0.000000,0.000000,0.000000,0.000000,-0.000312,0.000185,0.000074,0.073571,0.073053,0.072800,0.072577,879,919,895,919
9338,0,0.001091,0.000000,0.000000,-0.00,0.00,0.000175,0.073000,-0.000036,-0.000005,0.000000,0.000000,0.000000,0.000000,-0.000312,0.000185,0.000026,0.073523,0.073101,0.072847,0.072529,879,919,895,919
9348,0,0.001091,0.000000,0.000000,-0.00,0.00,0.000027,0.073000,-0.000036,-0.000005,0.000000,0.000000,0.000000,0.000000,-0.000312,0.000185,0.000048,0.073545,0.073079,0.072825,0.072552,879,919,895,919
9358,0,0.001091,0.000000,0.000000,-0.00,0.00,-0.000089,0.082000,-0.000037,-0.000006,0.000000,0.000000,0.000000,0.000000,-0.000312,0.000185,0.000067,0.082564,0.082060,0.081806,0.081570,886,927,902,926
9368,0,0.001091,0.000000,0.000000,0.00,-0.00,0.000303,0.083000,-0.000036,-0.000006,0.000000,0.000000,0.000000,0.000000,-0.000312,0.000186,0.000003,0.083501,0.083123,0.082872,0.082505,887,928,903,927
9378,0,0.001091,0.000000,0.000000,-0.00,-0.00,0.000142,0.083000,-0.000038,-0.000006,0.000000,0.000000,0.000000,0.000000,-0.000312,0.000186,0.000026,0.083524,0.083100,0.082849,0.082527,887,928,903,927
9388,0,0.001091,0.000000,0.000000,-0.00,0.00,0.000134,0.083000,-0.000038,-0.000006,0.000000,0.000000,0.000000,0.000000,-0.000312,0.000186,0.000025,0.083522,0.083102,0.082849,0.082527,887,928,903,927
9398,0,0.001091,0.000000,0.000000,-0.00,-0.00,0.000242,0.085000,-0.000038,-0.000006,0.000000,0.000000,0.000000,0.000000,-0.000312,0.000186,0.000005,0.085503,0.085121,0.084870,0.084507,889,929,905,929
9408,0,0.001091,0.000000,0.000000,-0.00,-0.00,-0.000187,0.085000,-0.000040,-0.000007,0.000000,0.000000,0.000000,0.000000,-0.000312,0.000188,0.000073,0.085574,0.085050,0.084803,0.084573,889,929,904,929
9418,0,0.001091,0.000000,0.000000,-0.00,0.00,0.000153,0.085000,-0.000039,-0.000005,0.000000,0.000000,0.000000,0.000000,-0.000312,0.000185,0.000019,0.085516,0.085108,0.084854,0.084522,889,929,905,929
9428,0,0.001091,0.000000,0.000000,-0.00,0.00,-0.000065,0.092000,-0.000040,-0.000005,0.000000,0.000000,0.000000,0.000000,-0.000312,0.000184,0.000053,0.092550,0.092074,0.091819,0.091557,894,935,910,935
9438,0,0.001091,0.000000,0.000000,-0.00,0.00,-0.000094,0.092000,-0.000041,-0.000005,0.000000,0.000000,0.000000,0.000000,-0.000312,0.000184,0.000059,0.092556,0.092069,0.091813,0.091562,894,935,910,935
9448,0,0.001091,0.000000,0.000000,-0.00,0.00,0.000122,0.092000,-0.000040,-0.000005,0.000000,0.000000,0.000000,0.000000,-0.000312,0.000185,0.000024,0.092521,0.092103,0.091848,0.091528,894,935,910,935
9458,0,0.001091,0.000000,0.000000,-0.00,-0.00,-0.000265,0.095000,-0.000042,-0.000006,0.000000,0.000000,0.000000,0.000000,-0.000312,0.000186,0.000087,0.095586,0.095039,0.094786,0.094589,897,937,913,937
9468,0,0.001091,0.000000,0.000000,-0.00,0.00,0.000204,0.095000,-0.000042,-0.000006,0.000000,0.000000,0.000000,0.000000,-0.000312,0.000185,0.000013,0.095510,0.095114,0.094860,0.094515,897,938,913,937
9480,0,0.001091,0.000000,0.000000,-0.00,0.00,-0.000135,0.095000,-0.000042,-0.000006,0.000000,0.000000,0.000000,0.000000,-0.000313,0.000185,0.000066,0.095564,0.095061,0.094807,0.094568,897,937,913,937
9489,0,0.001091,0.000000,0.000000,0.00,0.00,-0.000079,0.095000,-0.000042,-0.000005,0.000000,0.000000,0.000000,0.000000,-0.000312,0.000185,0.000059,0.095556,0.095069,0.094813,0.094562,897,937,913,937
9499,0,0.001091,0.000000,0.000000,-0.00,0.00,0.000195,0.095000,-0.000044,-0.000006,0.000000,0.000000,0.000000,0.000000,-0.000313,0.000185,0.000014,0.095512,0.095114,0.094858,0.094516,897,938,913,937
9508,0,0.001091,0.000000,0.000000,-0.00,0.00,0.000118,0.095000,-0.000046,-0.000006,0.000000,0.000000,0.000000,0.000000,-0.000314,0.000185,0.000024,0.095523,0.095105,0.094847,0.094526,897,938,913,937
9518,0,0.001091,0.000000,0.000000,-0.00,0.00,0.000151,0.095000,-0.000045,-0.000005,0.000000,0.000000,0.000000,0.000000,-0.000314,0.000184,0.000017,0.095515,0.095113,0.094853,0.094520,897,938,913,937
9528,0,0.001091,0.000000,0.000000,-0.00,0.00,-0.000047,0.095000,-0.000046,-0.000005,0.000000,0.000000,0.000000,0.000000,-0.000314,0.000183,0.000048,0.095546,0.095083,0.094821,0.094550,897,937,913,937
9538,0,0.001091,0.000000,0.000000,-0.00,-0.00,0.000179,0.095000,-0.000045,-0.000006,0.000000,0.000000,0.000000,0.000000,-0.000314,0.000185,0.000011,0.095510,0.095118,0.094860,0.094512,897,938,913,937
9550,0,0.001091,0.000000,0.000000,-0.00,-0.00,0.000117,0.095000,-0.000046,-0.000007,0.000000,0.000000,0.000000,0.000000,-0.000314,0.000187,0.000019,0.095520,0.095109,0.094854,0.094518,897,938,913,937
9559,0,0.000000,0.000000,0.000000,-0.00,0.00,0.000567,0.095000,-0.000101,-0.000006,0.000000,0.000000,0.000000,0.000000,-0.000343,0.000185,-0.000058,0.095469,0.095216,0.094900,0.094414,897,938,913,937
9568,0,0.000000,0.000000,0.000000,-0.00,-0.00,0.000462,0.095000,-0.000041,-0.000007,0.000000,0.000000,0.000000,0.000000,-0.000335,0.000187,-0.000049,0.095473,0.095197,0.094901,0.094430,897,938,913,937
9585,0,0.000000,0.000000,0.000000,-0.00,0.00,0.000729,0.095000,-0.000041,-0.000005,0.000000,0.000000,0.000000,0.000000,-0.000335,0.000183,-0.000100,0.095418,0.095252,0.094948,0.094382,897,938,913,937
9595,0,-0.001091,0.000000,0.000000,-0.00,-0.00,0.000579,0.095000,-0.000090,-0.000006,0.000000,0.000000,0.000000,0.000000,-0.000362,0.000185,-0.000086,0.095461,0.095262,0.094909,0.094368,897,938,913,937
9606,0,-0.001091,0.000000,0.000000,-0.00,0.00,0.000391,0.095000,-0.000034,-0.000006,0.000000,0.000000,0.000000,0.000000,-0.000354,0.000185,-0.000062,0.095477,0.095231,0.094893,0.094399,897,938,913,937
9617,0,-0.001091,0.000000,0.000000,-0.00,-0.00,0.000255,0.095000,-0.000035,-0.000006,0.000000,0.000000,0.000000,0.000000,-0.000355,0.000186,-0.000045,0.095496,0.095214,0.094877,0.094414,897,938,913,937
9628,0,-0.001091,0.000000,0.000000,-0.00,-0.00,0.000302,0.095000,-0.000035,-0.000007,0.000000,0.000000,0.000000,0.000000,-0.000355,0.000187,-0.000057,0.095486,0.095225,0.094888,0.094401,897,938,913,937
9638,0,-0.001091,0.000000,0.000000,-0.00,-0.00,0.000160,0.095000,-0.000034,-0.000006,0.000000,0.000000,0.000000,0.000000,-0.000356,0.000186,-0.000037,0.095505,0.095207,0.094868,0.094420,897,938,913,937
9649,0,-0.001091,0.000000,0.001091,-0.00,0.00,0.000334,0.095000,-0.000034,-0.000005,0.000000,0.000000,0.000000,0.000000,-0.000357,0.000183,-0.000069,0.095471,0.095243,0.094894,0.094391,897,938,913,937
9659,0,-0.001091,0.000000,0.001091,-0.00,0.00,0.000053,0.095000,-0.000034,-0.000005,0.000000,0.000000,0.000000,0.000000,-0.000358,0.000183,-0.000027,0.095515,0.095202,0.094851,0.094432,897,938,913,937
9669,0,-0.001091,0.000000,0.001091,-0.00,0.00,0.000093,0.095000,-0.000033,-0.000006,0.000000,0.000000,0.000000,0.000000,-0.000359,0.000184,-0.000034,0.095509,0.095208,0.094860,0.094423,897,938,913,937
9678,0,-0.001091,0.000000,0.001091,-0.00,-0.00,-0.000086,0.095000,-0.000033,-0.000007,0.000000,0.000000,0.000000,0.000000,-0.000360,0.000187,-0.000005,0.095542,0.095178,0.094833,0.094447,897,938,913,937
9689,0,-0.001091,0.000000,0.001091,-0.00,-0.00,0.000104,0.095000,-0.000033,-0.000007,0.000000,0.000000,0.000000,0.000000,-0.000361,0.000187,-0.000036,0.095512,0.095210,0.094862,0.094416,897,938,913,937
9698,0,-0.001091,0.000000,0.001091,-0.00,-0.00,-0.000248,0.095000,-0.000034,-0.000008,0.000000,0.000000,0.000000,0.000000,-0.000363,0.000191,0.000022,0.095575,0.095151,0.094806,0.094468,897,938,913,937
9708,0,-0.001091,0.001091,0.002182,-0.00,0.00,0.000313,0.095000,-0.000033,0.000032,0.000000,0.000000,0.000000,0.000000,-0.000364,0.000058,-0.000069,0.095353,0.095375,0.094763,0.094509,897,938,913,937
9719,0,-0.001091,0.001091,0.002182,-0.00,0.00,0.000070,0.095000,-0.000034,-0.000023,0.000000,0.000000,0.000000,0.000000,-0.000366,0.000172,-0.000033,0.095506,0.095227,0.094838,0.094429,897,938,913,937
9729,0,-0.001091,0.001091,0.003272,-0.00,0.00,0.000221,0.095000,-0.000034,-0.000023,0.000000,0.000000,0.000000,0.000000,-0.000369,0.000170,-0.000059,0.095479,0.095258,0.094860,0.094402,897,938,913,937
9739,0,-0.001091,0.001091,0.003272,-0.00,0.00,-0.000170,0.095000,-0.000035,-0.000023,0.000000,0.000000,0.000000,0.000000,-0.000371,0.000170,0.000003,0.095544,0.095198,0.094795,0.094462,897,938,913,937
9748,0,-0.001091,0.001091,0.003272,-0.00,0.00,-0.000189,0.095000,-0.000033,-0.000024,0.000000,0.000000,0.000000,0.000000,-0.000373,0.000170,0.000009,0.095552,0.095194,0.094788,0.094466,897,938,913,937
9758,0,-0.001091,0.000000,0.003272,-0.00,-0.00,-0.000335,0.095000,-0.000034,-0.000064,0.000000,0.000000,0.000000,0.000000,-0.000376,0.000302,0.000036,0.095714,0.095038,0.094890,0.094359,897,937,913,937
9768,0,-0.001091,0.000000,0.004363,-0.00,-0.00,-0.000469,0.095000,-0.000033,-0.000010,0.000000,0.000000,0.000000,0.000000,-0.000378,0.000189,0.000064,0.095631,0.095126,0.094747,0.094496,897,938,913,937
9779,0,-0.001091,0.000000,0.004363,-0.00,-0.00,-0.000385,0.095000,-0.000033,-0.000009,0.000000,0.000000,0.000000,0.000000,-0.000381,0.000186,0.000056,0.095624,0.095138,0.094749,0.094489,897,938,913,937
9789,0,-0.001091,0.000000,0.005454,-0.00,-0.00,-0.000526,0.095000,-0.000032,-0.000009,0.000000,0.000000,0.000000,0.000000,-0.000383,0.000188,0.000086,0.095657,0.095110,0.094719,0.094514,897,938,913,937
9798,0,0.000000,0.000000,0.005454,0.00,0.00,-0.000243,0.095000,0.000024,-0.000008,0.000000,0.000000,0.000000,0.000000,-0.000356,0.000184,0.000046,0.095586,0.095127,0.094781,0.094506,897,938,913,937
9808,0,0.000000,0.000000,0.005454,-0.00,0.00,-0.000464,0.095000,-0.000036,-0.000008,0.000000,0.000000,0.000000,0.000000,-0.000367,0.000185,0.000087,0.095638,0.095095,0.094732,0.094535,897,938,913,937
9818,0,0.000000,0.000000,0.006545,-0.00,0.00,-0.000204,0.095000,-0.000033,-0.000008,0.000000,0.000000,0.000000,0.000000,-0.000367,0.000185,0.000050,0.095603,0.095132,0.094768,0.094497,897,938,913,937
9828,0,0.000000,0.000000,0.006545,-0.00,-0.00,-0.000300,0.095000,-0.000033,-0.000009,0.000000,0.000000,0.000000,0.000000,-0.000368,0.000187,0.000069,0.095623,0.095112,0.094750,0.094514,897,938,913,937
9839,0,0.001091,0.000000,0.006545,0.00,-0.00,0.000075,0.095000,0.000013,-0.000009,0.000000,0.000000,0.000000,0.000000,-0.000344,0.000186,0.000010,0.095541,0.095147,0.094832,0.094480,897,938,913,937
9849,0,0.001091,0.000000,0.006545,-0.00,-0.00,-0.000032,0.095000,-0.000038,-0.000009,0.000000,0.000000,0.000000,0.000000,-0.000351,0.000187,0.000027,0.095566,0.095137,0.094808,0.094489,897,938,913,937
9859,0,0.001091,0.000000,0.006545,-0.00,0.00,0.000378,0.095000,-0.000039,-0.000007,0.000000,0.000000,0.000000,0.000000,-0.000352,0.000183,-0.000041,0.095494,0.095211,0.094872,0.094424,897,938,913,937
9868,0,0.000000,0.000000,0.006545,-0.00,0.00,0.000254,0.095000,-0.000093,-0.000008,0.000000,0.000000,0.000000,0.000000,-0.000382,0.000184,-0.000026,0.095539,0.095224,0.094828,0.094409,897,938,913,937
9878,0,0.000000,0.000000,0.006545,-0.00,-0.00,0.000139,0.095000,-0.000032,-0.000009,0.000000,0.000000,0.000000,0.000000,-0.000373,0.000187,-0.000010,0.095550,0.095197,0.094824,0.094430,897,938,913,937
9889,0,0.000000,0.000000,0.006545,-0.00,-0.00,0.000152,0.095000,-0.000032,-0.000010,0.000000,0.000000,0.000000,0.000000,-0.000373,0.000188,-0.000015,0.095547,0.095200,0.094830,0.094424,897,938,913,937
9906,0,0.000000,0.000000,0.006545,-0.00,-0.00,0.000080,0.095000,-0.000032,-0.000010,0.000000,0.000000,0.000000,0.000000,-0.000373,0.000190,-0.000005,0.095558,0.095188,0.094821,0.094432,897,938,913,937
9917,0,0.000000,0.000000,0.006545,-0.00,-0.00,-0.000159,0.095000,-0.000033,-0.000010,0.000000,0.000000,0.000000,0.000000,-0.000374,0.000189,0.000034,0.095597,0.095150,0.094782,0.094471,897,938,913,937
9928,0,0.000000,0.000000,0.006545,-0.00,-0.00,-0.000406,0.095000,-0.000032,-0.000010,0.000000,0.000000,0.000000,0.000000,-0.000374,0.000189,0.000078,0.095641,0.095107,0.094737,0.094515,897,938,913,937
9940,0,0.001091,0.000000,0.006545,0.00,0.00,-0.000219,0.095000,0.000006,-0.000008,0.000000,0.000000,0.000000,0.000000,-0.000353,0.000187,0.000053,0.095592,0.095113,0.094781,0.094513,897,938,913,937
9949,0,0.001091,0.000000,0.006545,-0.00,0.00,-0.000138,0.095000,-0.000040,-0.000006,0.000000,0.000000,0.000000,0.000000,-0.000360,0.000181,0.000042,0.095583,0.095136,0.094779,0.094502,897,938,913,937
9959,0,0.001091,0.000000,0.006545,-0.00,0.00,-0.000477,0.095000,-0.000040,-0.000006,0.000000,0.000000,0.000000,0.000000,-0.000360,0.000181,0.000101,0.095643,0.095077,0.094720,0.094560,897,937,913,937
9969,0,0.001091,0.000000,0.006545,-0.00,0.00,-0.000349,0.095000,-0.000040,-0.000006,0.000000,0.000000,0.000000,0.000000,-0.000360,0.000180,0.000087,0.095627,0.095094,0.094732,0.094547,897,938,913,937
9979,0,0.001091,0.000000,0.006545,-0.00,0.00,-0.000253,0.095000,-0.000041,-0.000008,0.000000,0.000000,0.000000,0.000000,-0.000361,0.000184,0.000076,0.095621,0.095101,0.094747,0.094531,897,938,913,937
9989,0,0.001091,0.000000,0.007636,-0.00,0.00,0.000349,0.095000,-0.000041,-0.000008,0.000000,0.000000,0.000000,0.000000,-0.000361,0.000183,-0.000021,0.095522,0.095200,0.094843,0.094435,897,938,913,937
9999,0,0.001091,0.000000,0.007636,-0.00,0.00,0.000361,0.095000,-0.000042,-0.000008,0.000000,0.000000,0.000000,0.000000,-0.000362,0.000184,-0.000029,0.095517,0.095207,0.094850,0.094426,897,938,913,937
10009,0,0.001091,0.000000,0.007636,-0.00,-0.00,0.000506,0.095000,-0.000042,-0.000009,0.000000,0.000000,0.000000,0.000000,-0.000362,0.000185,-0.000058,0.095488,0.095235,0.094881,0.094395,897,938,913,937
10019,0,0.001091,0.000000,0.007636,-0.00,0.00,0.000658,0.095000,-0.000043,-0.000006,0.000000,0.000000,0.000000,0.000000,-0.000362,0.000178,-0.000092,0.095449,0.095276,0.094907,0.094368,897,938,913,937
