t,is_crashed,roll,pitch,yaw,p,q,r,throttle,roll_cmd,pitch_cmd,yaw_cmd,roll_pid_out,pitch_pid_out,yaw_pid_out,motor_fl,motor_bl,motor_fr,motor_br,pwm_fl,pwm_bl,pwm_fr,pwm_br
6902,0,0.03,-0.00,0.00,0.00,0.00,-0.00,0.00,0.00,0.00,0.00,0.00,0.00,-0.00,0.00,0.00,0.00,0.00,0,0,0,0
6912,0,0.00,0.00,0.00,-0.00,-0.00,-0.00,0.00,0.00,0.00,0.00,0.00,-0.00,-0.00,0.00,0.00,0.00,0.00,819,819,819,819
6921,0,0.00,0.00,0.00,-0.00,-0.00,-0.00,0.00,0.00,0.00,0.00,0.00,-0.00,-0.00,0.00,0.00,0.00,0.00,819,819,819,819
6931,0,0.00,0.00,0.00,0.00,0.00,0.00,0.00,0.00,0.00,0.00,-0.00,0.00,-0.00,0.00,0.00,0.00,0.00,819,819,819,819
6939,0,0.00,0.00,0.00,0.00,0.00,0.00,0.00,0.00,0.00,0.00,-0.00,0.00,-0.00,0.00,0.00,0.00,0.00,819,819,819,819
6949,0,0.00,0.00,0.00,-0.00,-0.00,-0.00,0.00,0.00,0.00,0.00,0.00,-0.00,-0.00,0.00,0.00,0.00,0.00,819,819,819,819
6958,0,0.00,0.00,0.00,-0.00,-0.00,0.00,0.00,0.00,0.00,0.00,0.00,-0.00,-0.00,0.00,0.00,0.00,0.00,819,819,819,819
6967,0,0.00,0.00,0.00,0.00,-0.00,-0.00,0.00,0.00,0.00,0.00,-0.00,-0.00,-0.00,0.00,0.00,0.00,0.00,819,819,819,819
6974,0,0.00,0.00,0.00,0.00,0.00,0.00,0.00,0.00,0.00,0.00,-0.00,0.00,-0.00,0.00,0.00,0.00,0.00,819,819,819,819
6983,0,0.00,0.00,0.00,0.00,-0.00,0.00,0.00,0.00,0.00,0.00,-0.00,-0.00,-0.00,0.00,0.00,0.00,0.00,819,819,819,819
6992,0,0.00,0.00,0.00,0.00,-0.00,0.00,0.00,0.00,0.00,0.00,-0.00,-0.00,-0.00,0.00,0.00,0.00,0.00,819,819,819,819
7001,0,0.00,0.00,0.00,-0.00,-0.00,-0.00,0.00,0.00,0.00,0.00,0.00,-0.00,-0.00,0.00,0.00,0.00,0.00,819,819,819,819
7011,0,0.00,0.00,0.00,0.00,-0.00,-0.00,0.00,0.00,0.00,0.00,-0.00,0.00,-0.00,0.00,0.00,0.00,0.00,819,819,819,819
7020,0,0.00,0.00,0.00,0.00,0.00,-0.00,0.00,0.00,0.00,0.00,-0.00,0.00,-0.00,0.00,0.00,0.00,0.00,819,819,819,819
7030,0,0.00,0.00,0.00,0.00,0.00,0.00,0.00,0.00,0.00,0.00,-0.00,0.00,-0.00,0.00,0.00,0.00,0.00,819,819,819,819
7037,0,0.00,0.00,0.00,0.00,-0.00,-0.00,0.00,0.00,0.00,0.00,-0.00,-0.00,-0.00,0.00,0.00,0.00,0.00,819,819,819,819
7045,0,0.00,0.00,0.00,0.00,0.00,-0.00,0.00,0.00,0.00,0.00,-0.00,0.00,-0.00,0.00,0.00,0.00,0.00,819,819,819,819
7053,0,0.00,0.00,0.00,0.00,-0.00,-0.00,0.00,0.00,0.00,0.00,-0.00,-0.00,-0.00,0.00,0.00,0.00,0.00,819,819,819,819
7062,0,0.00,0.00,0.00,0.00,-0.00,-0.00,0.00,0.00,0.00,0.00,-0.00,-0.00,-0.00,0.00,0.00,0.00,0.00,819,819,819,819
7095,0,0.00,0.00,0.00,0.00,-0.00,-0.00,0.00,0.00,0.00,0.00,-0.00,0.00,-0.00,0.00,0.00,0.00,0.00,819,819,819,819
7103,0,0.00,0.00,0.00,0.00,-0.00,-0.00,0.00,0.00,0.00,0.00,-0.00,0.00,-0.00,0.00,0.00,0.00,0.00,819,819,819,819
7112,0,0.00,0.00,0.00,0.00,-0.00,-0.00,0.00,0.00,0.00,0.00,-0.00,0.00,-0.00,0.00,0.00,0.00,0.00,819,819,819,819
7121,0,0.00,0.00,0.00,-0.00,-0.00,0.00,0.00,0.00,0.00,0.00,0.00,-0.00,-0.00,0.00,0.00,0.00,0.00,819,819,819,819
7131,0,0.00,0.00,0.00,0.00,0.00,-0.00,0.00,0.00,0.00,0.00,-0.00,0.00,-0.00,0.00,0.00,0.00,0.00,819,819,819,819
7139,0,0.00,0.00,0.00,-0.00,-0.00,-0.00,0.00,0.00,0.00,0.00,0.00,0.00,-0.00,0.00,0.00,0.00,0.00,819,819,819,819
7149,0,0.00,0.00,0.00,0.00,0.00,0.00,0.00,0.00,0.00,0.00,-0.00,0.00,-0.00,0.00,0.00,0.00,0.00,819,819,819,819
7157,0,0.00,0.00,0.00,0.00,0.00,0.00,0.00,0.00,0.00,0.00,-0.00,0.00,-0.00,0.00,0.00,0.00,0.00,819,819,819,819
7165,0,0.00,0.00,0.00,0.00,-0.00,-0.00,0.00,0.00,0.00,0.00,-0.00,-0.00,-0.00,0.00,0.00,0.00,0.00,819,819,819,819
7173,0,0.00,0.00,0.00,0.00,-0.00,-0.00,0.00,0.00,0.00,0.00,-0.00,-0.00,-0.00,0.00,0.00,0.00,0.00,819,819,819,819
7182,0,0.00,0.00,0.00,0.00,-0.00,-0.00,0.00,0.00,0.00,0.00,-0.00,-0.00,-0.00,0.00,0.00,0.00,0.00,819,819,819,819
7191,0,0.00,0.00,0.00,-0.00,-0.00,-0.00,0.00,0.00,0.00,0.00,0.00,-0.00,-0.00,0.00,0.00,0.00,0.00,819,819,819,819
7200,0,0.00,0.00,0.00,0.00,-0.00,0.00,0.00,0.00,0.00,0.00,-0.00,-0.00,-0.00,0.00,0.00,0.00,0.00,819,819,819,819
7210,0,0.00,0.00,0.00,0.00,0.00,0.00,0.00,0.00,0.00,0.00,-0.00,0.00,-0.00,0.00,0.00,0.00,0.00,819,819,819,819
7219,0,0.00,0.00,0.00,0.00,0.00,0.00,0.00,0.00,0.00,0.00,-0.00,0.00,-0.00,0.00,0.00,0.00,0.00,819,819,819,819
7228,0,0.00,0.00,0.00,0.00,-0.00,0.00,0.00,0.00,0.00,0.00,-0.00,-0.00,-0.00,0.00,0.00,0.00,0.00,819,819,819,819
7235,0,0.00,0.00,0.00,-0.00,-0.00,-0.00,0.00,0.00,0.00,0.00,0.00,0.00,-0.00,0.00,0.00,0.00,0.00,819,819,819,819
7243,0,0.00,0.00,0.00,-0.00,-0.00,-0.00,0.00,0.00,0.00,0.00,0.00,0.00,-0.00,0.00,0.00,0.00,0.00,819,819,819,819
7252,0,0.00,0.00,0.00,-0.00,-0.00,-0.00,0.00,0.00,0.00,0.00,0.00,0.00,-0.00,0.00,0.00,0.00,0.00,819,819,819,819
7261,0,0.00,0.00,0.00,0.00,0.00,0.00,0.00,0.00,0.00,0.00,-0.00,0.00,-0.00,0.00,0.00,0.00,0.00,819,819,819,819
7271,0,0.00,0.00,0.00,-0.00,0.00,-0.00,0.00,0.00,0.00,0.00,0.00,0.00,-0.00,0.00,0.00,0.00,0.00,819,819,819,819
7280,0,0.00,0.00,0.00,-0.00,-0.00,-0.00,0.00,0.00,0.00,0.00,0.00,-0.00,-0.00,0.00,0.00,0.00,0.00,819,819,819,819
7288,0,0.00,0.00,0.00,0.00,-0.00,-0.00,0.00,0.00,0.00,0.00,-0.00,-0.00,-0.00,0.00,0.00,0.00,0.00,819,819,819,819
7295,0,0.00,0.00,0.00,0.00,0.00,0.00,0.00,0.00,0.00,0.00,-0.00,0.00,-0.00,0.00,0.00,0.00,0.00,819,819,819,819
7303,0,0.00,0.00,0.00,0.00,0.00,0.00,0.00,0.00,0.00,0.00,-0.00,0.00,-0.00,0.00,0.00,0.00,0.00,819,819,819,819
7312,0,0.00,0.00,0.00,0.00,0.00,0.00,0.00,0.00,0.00,0.00,-0.00,0.00,-0.00,0.00,0.00,0.00,0.00,819,819,819,819
7322,0,0.00,0.00,0.00,0.00,-0.00,-0.00,0.00,0.00,0.00,0.00,-0.00,-0.00,-0.00,0.00,0.00,0.00,0.00,819,819,819,819
7331,0,0.00,0.00,0.00,0.00,-0.00,0.00,0.00,0.00,0.00,0.00,-0.00,-0.00,-0.00,0.00,0.00,0.00,0.00,819,819,819,819
7339,0,0.00,0.00,0.00,0.00,-0.00,0.00,0.00,0.00,0.00,0.00,-0.00,-0.00,-0.00,0.00,0.00,0.00,0.00,819,819,819,819
7348,0,0.00,0.00,0.00,0.00,-0.00,-0.00,0.00,0.00,0.00,0.00,-0.00,-0.00,-0.00,0.00,0.00,0.00,0.00,819,819,819,819
7356,0,0.00,0.00,0.00,0.00,0.00,0.00,0.00,0.00,0.00,0.00,-0.00,0.00,-0.00,0.00,0.00,0.00,0.00,819,819,819,819
7370,0,0.00,0.00,0.00,0.00,0.00,-0.00,0.00,0.00,0.00,0.00,-0.00,0.00,-0.00,0.00,0.00,0.00,0.00,819,819,819,819
7387,0,0.00,0.00,0.00,0.00,-0.00,-0.00,0.00,0.00,0.00,0.00,-0.00,0.00,-0.00,0.00,0.00,0.00,0.00,819,819,819,819
7395,0,0.00,0.00,0.00,-0.00,-0.00,0.00,0.00,0.00,0.00,0.00,0.00,0.00,-0.00,0.00,0.00,0.00,0.00,819,819,819,819
7403,0,0.00,0.00,0.00,-0.00,0.00,-0.00,0.00,0.00,0.00,0.00,0.00,0.00,-0.00,0.00,0.00,0.00,0.00,819,819,819,819
7412,0,0.00,0.00,0.00,-0.00,0.00,-0.00,0.00,0.00,0.00,0.00,0.00,0.00,-0.00,0.00,0.00,0.00,0.00,819,819,819,819
7422,0,0.00,0.00,0.00,0.00,0.00,-0.00,0.00,0.00,0.00,0.00,-0.00,0.00,-0.00,0.00,0.00,0.00,0.00,819,819,819,819
7431,0,0.00,0.00,0.00,0.00,0.00,-0.00,0.00,0.00,0.00,0.00,-0.00,0.00,-0.00,0.00,0.00,0.00,0.00,819,819,819,819
7440,0,0.00,0.00,0.00,0.00,-0.00,-0.00,0.00,0.00,0.00,0.00,-0.00,-0.00,-0.00,0.00,0.00,0.00,0.00,819,819,819,819
7449,0,0.00,0.00,0.00,0.00,-0.00,0.00,0.00,0.00,0.00,0.00,-0.00,-0.00,-0.00,0.00,0.00,0.00,0.00,819,819,819,819
7458,0,0.00,0.00,0.00,0.00,-0.00,-0.00,0.00,0.00,0.00,0.00,-0.00,-0.00,-0.00,0.00,0.00,0.00,0.00,819,819,819,819
7465,0,0.00,0.00,0.00,-0.00,-0.00,0.00,0.00,0.00,0.00,0.00,0.00,-0.00,-0.00,0.00,0.00,0.00,0.00,819,819,819,819
7473,0,0.00,0.00,0.00,0.00,-0.00,-0.00,0.00,0.00,0.00,0.00,-0.00,0.00,-0.00,0.00,0.00,0.00,0.00,819,819,819,819
7483,0,0.00,0.00,0.00,0.00,-0.00,-0.00,0.00,0.00,0.00,0.00,-0.00,0.00,-0.00,0.00,0.00,0.00,0.00,819,819,819,819
7491,0,0.00,0.00,0.00,0.00,-0.00,0.00,0.00,0.00,0.00,0.00,-0.00,-0.00,-0.00,0.00,0.00,0.00,0.00,819,819,819,819
7501,0,0.00,0.00,0.00,0.00,-0.00,-0.00,0.00,0.00,0.00,0.00,-0.00,0.00,-0.00,0.00,0.00,0.00,0.00,819,819,819,819
7510,0,0.00,0.00,0.00,0.00,0.00,-0.00,0.00,0.00,0.00,0.00,-0.00,0.00,-0.00,0.00,0.00,0.00,0.00,819,819,819,819
7520,0,0.00,0.00,0.00,-0.00,-0.00,-0.00,0.00,0.00,0.00,0.00,0.00,-0.00,-0.00,0.00,0.00,0.00,0.00,819,819,819,819
7530,0,0.00,0.00,0.00,0.00,0.00,-0.00,0.00,0.00,0.00,0.00,-0.00,0.00,-0.00,0.00,0.00,0.00,0.00,819,819,819,819
7537,0,0.00,0.00,0.00,-0.00,0.00,0.00,0.00,0.00,0.00,0.00,0.00,0.00,-0.00,0.00,0.00,0.00,0.00,819,819,819,819
7545,0,0.00,0.00,0.00,-0.00,-0.00,0.00,0.00,0.00,0.00,0.00,0.00,0.00,-0.00,0.00,0.00,0.00,0.00,819,819,819,819
7553,0,0.00,0.00,0.00,0.00,0.00,-0.00,0.00,0.00,0.00,0.00,-0.00,0.00,-0.00,0.00,0.00,0.00,0.00,819,819,819,819
7562,0,0.00,0.00,0.00,0.00,0.00,-0.00,0.00,0.00,0.00,0.00,-0.00,0.00,-0.00,0.00,0.00,0.00,0.00,819,819,819,819
7572,0,0.00,0.00,0.00,0.00,-0.00,-0.00,0.00,0.00,0.00,0.00,-0.00,0.00,-0.00,0.00,0.00,0.00,0.00,819,819,819,819
7581,0,0.00,0.00,0.00,0.00,-0.00,0.00,0.00,0.00,0.00,0.00,-0.00,0.00,-0.00,0.00,0.00,0.00,0.00,819,819,819,819
7589,0,0.00,0.00,0.00,0.00,0.00,0.00,0.00,0.00,0.00,0.00,-0.00,0.00,-0.00,0.00,0.00,0.00,0.00,819,819,819,819
7596,0,0.00,0.00,0.00,0.00,0.00,-0.00,0.00,0.00,0.00,0.00,-0.00,0.00,-0.00,0.00,0.00,0.00,0.00,819,819,819,819
7604,0,0.00,0.00,0.00,-0.00,-0.00,-0.00,0.00,0.00,0.00,0.00,0.00,-0.00,-0.00,0.00,0.00,0.00,0.00,819,819,819,819
7613,0,0.00,0.00,0.00,-0.00,-0.00,-0.00,0.00,0.00,0.00,0.00,0.00,-0.00,-0.00,0.00,0.00,0.00,0.00,819,819,819,819
7622,0,0.00,0.00,0.00,0.00,-0.00,-0.00,0.00,0.00,0.00,0.00,-0.00,-0.00,-0.00,0.00,0.00,0.00,0.00,819,819,819,819
7632,0,0.00,0.00,0.00,-0.00,-0.00,-0.00,0.00,0.00,0.00,0.00,0.00,-0.00,-0.00,0.00,0.00,0.00,0.00,819,819,819,819
7641,0,0.00,0.00,0.00,-0.00,-0.00,-0.00,0.00,0.00,0.00,0.00,0.00,-0.00,-0.00,0.00,0.00,0.00,0.00,819,819,819,819
7650,0,0.00,0.00,0.00,0.00,-0.00,0.00,0.00,0.00,0.00,0.00,-0.00,-0.00,-0.00,0.00,0.00,0.00,0.00,819,819,819,819
7664,0,0.00,0.00,0.00,0.00,-0.00,0.00,0.00,0.00,0.00,0.00,-0.00,-0.00,-0.00,0.00,0.00,0.00,0.00,819,819,819,819
7673,0,0.00,0.00,0.00,0.00,0.00,-0.00,0.00,0.00,0.00,0.00,-0.00,0.00,-0.00,0.00,0.00,0.00,0.00,819,819,819,819
7683,0,0.00,0.00,0.00,0.00,0.00,-0.00,0.00,0.00,0.00,0.00,-0.00,0.00,-0.00,0.00,0.00,0.00,0.00,819,819,819,819
7691,0,0.00,0.00,0.00,0.00,-0.00,-0.00,0.00,0.00,0.00,0.00,-0.00,0.00,-0.00,0.00,0.00,0.00,0.00,819,819,819,819
7701,0,0.00,0.00,0.00,-0.00,-0.00,0.00,0.00,0.00,0.00,0.00,0.00,-0.00,-0.00,0.00,0.00,0.00,0.00,819,819,819,819
7710,0,0.00,0.00,0.00,0.00,-0.00,0.00,0.00,0.00,0.00,0.00,-0.00,-0.00,-0.00,0.00,0.00,0.00,0.00,819,819,819,819
7720,0,0.00,0.00,0.00,0.00,-0.00,-0.00,0.00,0.00,0.00,0.00,-0.00,-0.00,-0.00,0.00,0.00,0.00,0.00,819,819,819,819
7729,0,0.00,0.00,0.00,-0.00,0.00,0.00,0.00,0.00,0.00,0.00,0.00,0.00,-0.00,0.00,0.00,0.00,0.00,819,819,819,819
7737,0,0.00,0.00,0.00,-0.00,0.00,-0.00,0.00,0.00,0.00,0.00,0.00,0.00,-0.00,0.00,0.00,0.00,0.00,819,819,819,819
7744,0,0.00,0.00,0.00,0.00,0.00,-0.00,0.00,0.00,0.00,0.00,-0.00,0.00,-0.00,0.00,0.00,0.00,0.00,819,819,819,819
7753,0,0.00,0.00,0.00,0.00,0.00,-0.00,0.00,0.00,0.00,0.00,-0.00,0.00,-0.00,0.00,0.00,0.00,0.00,819,819,819,819
7763,0,0.00,0.00,0.00,0.00,0.00,-0.00,0.00,0.00,0.00,0.00,-0.00,0.00,-0.00,0.00,0.00,0.00,0.00,819,819,819,819
7772,0,0.00,0.00,0.00,0.00,-0.00,0.00,0.00,0.00,0.00,0.00,-0.00,0.00,-0.00,0.00,0.00,0.00,0.00,819,819,819,819
7782,0,0.00,0.00,0.00,-0.00,-0.00,0.00,0.00,0.00,0.00,0.00,0.00,-0.00,-0.00,0.00,0.00,0.00,0.00,819,819,819,819
7790,0,0.00,0.00,0.00,0.00,0.00,-0.00,0.00,0.00,0.00,0.00,-0.00,0.00,-0.00,0.00,0.00,0.00,0.00,819,819,819,819
7799,0,0.00,0.00,0.00,-0.00,-0.00,0.00,0.00,0.00,0.00,0.00,0.00,-0.00,-0.00,0.00,0.00,0.00,0.00,819,819,819,819
7807,0,0.00,0.00,0.00,0.00,0.00,0.00,0.00,0.00,0.00,0.00,-0.00,0.00,-0.00,0.00,0.00,0.00,0.00,819,819,819,819
7815,0,0.00,0.00,0.00,0.00,-0.00,0.00,0.00,0.00,0.00,0.00,-0.00,0.00,-0.00,0.00,0.00,0.00,0.00,819,819,819,819
7823,0,0.00,0.00,0.00,0.00,-0.00,0.00,0.00,0.00,0.00,0.00,-0.00,-0.00,-0.00,0.00,0.00,0.00,0.00,819,819,819,819
7833,0,0.00,0.00,0.00,0.00,-0.00,0.00,0.00,0.00,0.00,0.00,-0.00,-0.00,-0.00,0.00,0.00,0.00,0.00,819,819,819,819
7843,0,0.00,0.00,0.00,-0.00,0.00,0.00,0.00,0.00,0.00,0.00,0.00,0.00,-0.00,0.00,0.00,0.00,0.00,819,819,819,819
7852,0,0.00,0.00,0.00,-0.00,-0.00,0.00,0.00,0.00,0.00,0.00,0.00,0.00,-0.00,0.00,0.00,0.00,0.00,819,819,819,819
7862,0,0.00,0.00,0.00,0.00,-0.00,-0.00,0.00,0.00,0.00,0.00,-0.00,0.00,-0.00,0.00,0.00,0.00,0.00,819,819,819,819
7871,0,0.00,0.00,0.00,-0.00,0.00,-0.00,0.00,0.00,0.00,0.00,0.00,0.00,-0.00,0.00,0.00,0.00,0.00,819,819,819,819
7881,0,0.00,0.00,0.00,0.00,0.00,0.00,0.00,0.00,0.00,0.00,-0.00,0.00,-0.00,0.00,0.00,0.00,0.00,819,819,819,819
7888,0,0.00,0.00,0.00,0.00,0.00,0.00,0.00,0.00,0.00,0.00,-0.00,0.00,-0.00,0.00,0.00,0.00,0.00,819,819,819,819
7896,0,0.00,0.00,0.00,0.00,-0.00,0.00,0.00,0.00,0.00,0.00,-0.00,-0.00,-0.00,0.00,0.00,0.00,0.00,819,819,819,819
7904,0,0.00,0.00,0.00,-0.00,-0.00,0.00,0.00,0.00,0.00,0.00,0.00,0.00,-0.00,0.00,0.00,0.00,0.00,819,819,819,819
7913,0,0.00,0.00,0.00,-0.00,-0.00,0.00,0.00,0.00,0.00,0.00,0.00,0.00,-0.00,0.00,0.00,0.00,0.00,819,819,819,819
7922,0,0.00,0.00,0.00,0.00,0.00,0.00,0.00,0.00,0.00,0.00,-0.00,0.00,-0.00,0.00,0.00,0.00,0.00,819,819,819,819
7932,0,0.00,0.00,0.00,0.00,0.00,0.00,0.00,0.00,0.00,0.00,-0.00,0.00,-0.00,0.00,0.00,0.00,0.00,819,819,819,819
7943,0,0.00,0.00,0.00,0.00,-0.00,0.00,0.00,0.00,0.00,0.00,-0.00,-0.00,-0.00,0.00,0.00,0.00,0.00,819,819,819,819
7952,0,0.00,0.00,0.00,0.00,-0.00,0.00,0.00,0.00,0.00,0.00,-0.00,-0.00,-0.00,0.00,0.00,0.00,0.00,819,819,819,819
7962,0,0.00,0.00,0.00,-0.00,-0.00,-0.00,0.00,0.00,0.00,0.00,0.00,-0.00,-0.00,0.00,0.00,0.00,0.00,819,819,819,819
7972,0,0.00,0.00,0.00,0.00,0.00,0.00,0.00,0.00,0.00,0.00,-0.00,0.00,-0.00,0.00,0.00,0.00,0.00,819,819,819,819
7982,0,0.00,0.00,0.00,0.00,-0.00,0.00,0.00,0.00,0.00,0.00,-0.00,-0.00,-0.00,0.00,0.00,0.00,0.00,819,819,819,819
7989,0,0.00,0.00,0.00,-0.00,-0.00,0.00,0.00,0.00,0.00,0.00,0.00,-0.00,-0.00,0.00,0.00,0.00,0.00,819,819,819,819
7997,0,0.00,0.00,0.00,0.00,0.00,0.00,0.00,0.00,0.00,0.00,-0.00,0.00,-0.00,0.00,0.00,0.00,0.00,819,819,819,819
8004,0,0.00,0.00,0.00,-0.00,0.00,0.00,0.00,0.00,0.00,0.00,0.00,0.00,-0.00,0.00,0.00,0.00,0.00,819,819,819,819
8013,0,0.00,0.00,0.00,-0.00,0.00,0.00,0.00,0.00,0.00,0.00,0.00,0.00,-0.00,0.00,0.00,0.00,0.00,819,819,819,819
8023,0,0.00,0.00,0.00,-0.00,-0.00,-0.00,0.00,0.00,0.00,0.00,0.00,0.00,-0.00,0.00,0.00,0.00,0.00,819,819,819,819
8033,0,0.00,0.00,0.00,0.00,0.00,0.00,0.00,0.00,0.00,0.00,-0.00,0.00,-0.00,0.00,0.00,0.00,0.00,819,819,819,819
8041,0,0.00,0.00,0.00,0.00,-0.00,0.00,0.00,0.00,0.00,0.00,-0.00,-0.00,-0.00,0.00,0.00,0.00,0.00,819,819,819,819
8050,0,0.00,0.00,0.00,0.00,-0.00,0.00,0.00,0.00,0.00,0.00,-0.00,-0.00,-0.00,0.00,0.00,0.00,0.00,819,819,819,819
8059,0,0.00,0.00,0.00,0.00,-0.00,0.00,0.00,0.00,0.00,0.00,-0.00,-0.00,-0.00,0.00,0.00,0.00,0.00,819,819,819,819
8067,0,0.00,0.00,0.00,0.00,-0.00,0.00,0.00,0.00,0.00,0.00,-0.00,0.00,-0.00,0.00,0.00,0.00,0.00,819,819,819,819
8075,0,0.00,0.00,0.00,0.00,-0.00,0.00,0.00,0.00,0.00,0.00,-0.00,-0.00,-0.00,0.00,0.00,0.00,0.00,819,819,819,819
8084,0,0.00,0.00,0.00,-0.00,-0.00,0.00,0.00,0.00,0.00,0.00,0.00,-0.00,-0.00,0.00,0.00,0.00,0.00,819,819,819,819
8092,0,0.00,0.00,0.00,-0.00,-0.00,0.00,0.00,0.00,0.00,0.00,0.00,-0.00,-0.00,0.00,0.00,0.00,0.00,819,819,819,819
8102,0,0.00,0.00,0.00,-0.00,-0.00,0.00,0.00,0.00,0.00,0.00,0.00,-0.00,-0.00,0.00,0.00,0.00,0.00,819,819,819,819
8112,0,0.00,0.00,0.00,0.00,-0.00,-0.00,0.00,0.00,0.00,0.00,-0.00,-0.00,-0.00,0.00,0.00,0.00,0.00,819,819,819,819
8121,0,0.00,0.00,0.00,-0.00,-0.00,0.00,0.00,0.00,0.00,0.00,0.00,-0.00,-0.00,0.00,0.00,0.00,0.00,819,819,819,819
8131,0,0.00,0.00,0.00,0.00,-0.00,0.00,0.00,0.00,0.00,0.00,-0.00,-0.00,-0.00,0.00,0.00,0.00,0.00,819,819,819,819
8139,0,0.00,0.00,0.00,-0.00,-0.00,0.00,0.00,0.00,0.00,0.00,0.00,0.00,-0.00,0.00,0.00,0.00,0.00,819,819,819,819
8146,0,0.00,0.00,0.00,-0.00,0.00,0.00,0.00,0.00,0.00,0.00,0.00,0.00,-0.00,0.00,0.00,0.00,0.00,819,819,819,819
8154,0,0.00,0.00,0.00,-0.00,-0.00,0.00,0.00,0.00,0.00,0.00,0.00,-0.00,-0.00,0.00,0.00,0.00,0.00,819,819,819,819
8164,0,0.00,0.00,0.00,-0.00,-0.00,0.00,0.00,0.00,0.00,0.00,0.00,-0.00,-0.00,0.00,0.00,0.00,0.00,819,819,819,819
8173,0,0.00,0.00,0.00,0.00,-0.00,-0.00,0.00,0.00,0.00,0.00,-0.00,0.00,-0.00,0.00,0.00,0.00,0.00,819,819,819,819
8183,0,0.00,0.00,0.00,-0.00,0.00,0.00,0.00,0.00,0.00,0.00,0.00,0.00,-0.00,0.00,0.00,0.00,0.00,819,819,819,819
8190,0,0.00,0.00,0.00,0.00,0.00,-0.00,0.00,0.00,0.00,0.00,-0.00,0.00,-0.00,0.00,0.00,0.00,0.00,819,819,819,819
8198,0,0.00,0.00,0.00,-0.00,-0.00,0.00,0.00,0.00,0.00,0.00,0.00,-0.00,-0.00,0.00,0.00,0.00,0.00,819,819,819,819
8206,0,0.00,0.00,0.00,0.00,-0.00,0.00,0.00,0.00,0.00,0.00,-0.00,0.00,-0.00,0.00,0.00,0.00,0.00,819,819,819,819
8221,0,0.00,0.00,0.00,0.00,0.00,0.00,0.00,0.00,0.00,0.00,-0.00,0.00,-0.00,0.00,0.00,0.00,0.00,819,819,819,819
8234,0,0.00,0.00,0.00,0.00,0.00,-0.00,0.00,0.00,0.00,0.00,-0.00,0.00,-0.00,0.00,0.00,0.00,0.00,819,819,819,819
8242,0,0.00,0.00,0.00,0.00,0.00,0.00,0.00,0.00,0.00,0.00,-0.00,0.00,-0.00,0.00,0.00,0.00,0.00,819,819,819,819
8252,0,0.00,0.00,0.00,0.00,0.00,0.00,0.00,0.00,0.00,0.00,-0.00,0.00,-0.00,0.00,0.00,0.00,0.00,819,819,819,819
8261,0,0.00,0.00,0.00,-0.00,0.00,0.00,0.00,0.00,0.00,0.00,0.00,0.00,-0.00,0.00,0.00,0.00,0.00,819,819,819,819
8270,0,0.00,0.00,0.00,-0.00,0.00,0.00,0.00,0.00,0.00,0.00,0.00,0.00,-0.00,0.00,0.00,0.00,0.00,819,819,819,819
8279,0,0.00,0.00,0.00,-0.00,-0.00,-0.00,0.00,0.00,0.00,0.00,0.00,-0.00,-0.00,0.00,0.00,0.00,0.00,819,819,819,819
8287,0,0.00,0.00,0.00,-0.00,-0.00,-0.00,0.00,0.00,0.00,0.00,0.00,0.00,-0.00,0.00,0.00,0.00,0.00,819,819,819,819
8295,0,0.00,0.00,0.00,0.00,-0.00,-0.00,0.00,0.00,0.00,0.00,-0.00,-0.00,-0.00,0.00,0.00,0.00,0.00,819,819,819,819
8304,0,0.00,0.00,0.00,0.00,-0.00,-0.00,0.00,0.00,0.00,0.00,-0.00,-0.00,-0.00,0.00,0.00,0.00,0.00,819,819,819,819
8314,0,0.00,0.00,0.00,0.00,-0.00,-0.00,0.00,0.00,0.00,0.00,-0.00,0.00,-0.00,0.00,0.00,0.00,0.00,819,819,819,819
8323,0,0.00,0.00,0.00,0.00,-0.00,-0.00,0.00,0.00,0.00,0.00,-0.00,-0.00,-0.00,0.00,0.00,0.00,0.00,819,819,819,819
8333,0,0.00,0.00,0.00,0.00,-0.00,-0.00,0.00,0.00,0.00,0.00,-0.00,-0.00,-0.00,0.00,0.00,0.00,0.00,819,819,819,819
8341,0,0.00,0.00,0.00,0.00,-0.00,0.00,0.00,0.00,0.00,0.00,-0.00,-0.00,-0.00,0.00,0.00,0.00,0.00,819,819,819,819
8349,0,0.00,0.00,0.00,0.00,0.00,0.00,0.00,0.00,0.00,0.00,-0.00,0.00,-0.00,0.00,0.00,0.00,0.00,819,819,819,819
8357,0,0.00,0.00,0.00,0.00,-0.00,0.00,0.00,0.00,0.00,0.00,-0.00,-0.00,-0.00,0.00,0.00,0.00,0.00,819,819,819,819
8365,0,0.00,0.00,0.00,-0.00,-0.00,0.00,0.00,0.00,0.00,0.00,0.00,-0.00,-0.00,0.00,0.00,0.00,0.00,819,819,819,819
8374,0,0.00,0.00,0.00,-0.00,-0.00,0.00,0.00,0.00,0.00,0.00,0.00,-0.00,-0.00,0.00,0.00,0.00,0.00,819,819,819,819
8384,0,0.00,0.00,0.00,-0.00,-0.00,0.00,0.00,0.00,0.00,0.00,0.00,0.00,-0.00,0.00,0.00,0.00,0.00,819,819,819,819
8392,0,0.00,0.00,0.00,-0.00,0.00,-0.00,0.00,0.00,0.00,0.00,0.00,0.00,-0.00,0.00,0.00,0.00,0.00,819,819,819,819
8401,0,0.00,0.00,0.00,0.00,-0.00,-0.00,0.00,0.00,0.00,0.00,-0.00,-0.00,-0.00,0.00,0.00,0.00,0.00,819,819,819,819
8411,0,0.00,0.00,0.00,0.00,-0.00,-0.00,0.00,0.00,0.00,0.00,-0.00,-0.00,-0.00,0.00,0.00,0.00,0.00,819,819,819,819
8421,0,0.00,0.00,0.00,0.00,-0.00,-0.00,0.00,0.00,0.00,0.00,-0.00,-0.00,-0.00,0.00,0.00,0.00,0.00,819,819,819,819
8429,0,0.00,0.00,0.00,0.00,0.00,0.00,0.00,0.00,0.00,0.00,-0.00,0.00,-0.00,0.00,0.00,0.00,0.00,819,819,819,819
8436,0,0.00,0.00,0.00,0.00,-0.00,0.00,0.00,0.00,0.00,0.00,-0.00,-0.00,-0.00,0.00,0.00,0.00,0.00,819,819,819,819
8445,0,0.00,0.00,0.00,-0.00,-0.00,0.00,0.00,0.00,0.00,0.00,0.00,-0.00,-0.00,0.00,0.00,0.00,0.00,819,819,819,819
8454,0,0.00,0.00,0.00,-0.00,-0.00,0.00,0.00,0.00,0.00,0.00,0.00,-0.00,-0.00,0.00,0.00,0.00,0.00,819,819,819,819
8464,0,0.00,0.00,0.00,0.00,-0.00,0.00,0.00,0.00,0.00,0.00,-0.00,-0.00,-0.00,0.00,0.00,0.00,0.00,819,819,819,819
8473,0,0.00,0.00,0.00,0.00,-0.00,-0.00,0.00,0.00,0.00,0.00,-0.00,-0.00,-0.00,0.00,0.00,0.00,0.00,819,819,819,819
8483,0,0.00,0.00,0.00,0.00,0.00,-0.00,0.00,0.00,0.00,0.00,-0.00,0.00,-0.00,0.00,0.00,0.00,0.00,819,819,819,819
8496,0,0.00,0.00,0.00,0.00,0.00,-0.00,0.00,0.00,0.00,0.00,-0.00,0.00,-0.00,0.00,0.00,0.00,0.00,819,819,819,819
8505,0,0.00,0.00,0.00,0.00,0.00,-0.00,0.00,0.00,0.00,0.00,-0.00,0.00,-0.00,0.00,0.00,0.00,0.00,819,819,819,819
8514,0,0.00,0.00,0.00,0.00,0.00,-0.00,0.00,0.00,0.00,0.00,-0.00,0.00,-0.00,0.00,0.00,0.00,0.00,819,819,819,819
8523,0,0.00,0.00,0.00,0.00,-0.00,-0.00,0.00,0.00,0.00,0.00,-0.00,-0.00,-0.00,0.00,0.00,0.00,0.00,819,819,819,819
8533,0,0.00,0.00,0.00,0.00,-0.00,0.00,0.00,0.00,0.00,0.00,-0.00,0.00,-0.00,0.00,0.00,0.00,0.00,819,819,819,819
8540,0,0.00,0.00,0.00,-0.00,0.00,-0.00,0.00,0.00,0.00,0.00,0.00,0.00,-0.00,0.00,0.00,0.00,0.00,819,819,819,819
8547,0,0.00,0.00,0.00,0.00,-0.00,0.00,0.00,0.00,0.00,0.00,-0.00,-0.00,-0.00,0.00,0.00,0.00,0.00,819,819,819,819
8555,0,0.00,0.00,0.00,-0.00,-0.00,0.00,0.00,0.00,0.00,0.00,0.00,0.00,-0.00,0.00,0.00,0.00,0.00,819,819,819,819
8564,0,0.00,0.00,0.00,-0.00,-0.00,0.00,0.00,0.00,0.00,0.00,0.00,0.00,-0.00,0.00,0.00,0.00,0.00,819,819,819,819
8573,0,0.00,0.00,0.00,0.00,0.00,0.00,0.00,0.00,0.00,0.00,-0.00,0.00,-0.00,0.00,0.00,0.00,0.00,819,819,819,819
8583,0,0.00,0.00,0.00,0.00,-0.00,0.00,0.00,0.00,0.00,0.00,-0.00,0.00,-0.00,0.00,0.00,0.00,0.00,819,819,819,819
8590,0,0.00,0.00,0.00,-0.00,-0.00,-0.00,0.00,0.00,0.00,0.00,0.00,0.00,-0.00,0.00,0.00,0.00,0.00,819,819,819,819
8597,0,0.00,0.00,0.00,0.00,-0.00,0.00,0.00,0.00,0.00,0.00,-0.00,-0.00,-0.00,0.00,0.00,0.00,0.00,819,819,819,819
8605,0,0.00,0.00,0.00,-0.00,-0.00,-0.00,0.00,0.00,0.00,0.00,0.00,-0.00,-0.00,0.00,0.00,0.00,0.00,819,819,819,819
8614,0,0.00,0.00,0.00,-0.00,-0.00,-0.00,0.00,0.00,0.00,0.00,0.00,-0.00,-0.00,0.00,0.00,0.00,0.00,819,819,819,819
8624,0,0.00,0.00,0.00,0.00,-0.00,-0.00,0.00,0.00,0.00,0.00,-0.00,0.00,-0.00,0.00,0.00,0.00,0.00,819,819,819,819
8634,0,0.00,0.00,0.00,0.00,0.00,0.00,0.00,0.00,0.00,0.00,-0.00,0.00,-0.00,0.00,0.00,0.00,0.00,819,819,819,819
8642,0,0.00,0.00,0.00,-0.00,-0.00,-0.00,0.00,0.00,0.00,0.00,0.00,-0.00,-0.00,0.00,0.00,0.00,0.00,819,819,819,819
8652,0,0.00,0.00,0.00,0.00,-0.00,-0.00,0.00,0.00,0.00,0.00,-0.00,-0.00,-0.00,0.00,0.00,0.00,0.00,819,819,819,819
8661,0,0.00,0.00,0.00,0.00,0.00,-0.00,0.00,0.00,0.00,0.00,-0.00,0.00,-0.00,0.00,0.00,0.00,0.00,819,819,819,819
8670,0,0.00,0.00,0.00,-0.00,0.00,-0.00,0.00,0.00,0.00,0.00,0.00,0.00,-0.00,0.00,0.00,0.00,0.00,819,819,819,819
8677,0,0.00,0.00,0.00,0.00,-0.00,0.00,0.00,0.00,0.00,0.00,-0.00,-0.00,-0.00,0.00,0.00,0.00,0.00,819,819,819,819
8686,0,0.00,0.00,0.00,-0.00,-0.00,0.00,0.00,0.00,0.00,0.00,0.00,-0.00,-0.00,0.00,0.00,0.00,0.00,819,819,819,819
8695,0,0.00,0.00,0.00,-0.00,-0.00,0.00,0.00,0.00,0.00,0.00,0.00,-0.00,-0.00,0.00,0.00,0.00,0.00,819,819,819,819
8704,0,0.00,0.00,0.00,-0.00,-0.00,0.00,0.00,0.00,0.00,0.00,0.00,-0.00,-0.00,0.00,0.00,0.00,0.00,819,819,819,819
8714,0,0.00,0.00,0.00,0.00,-0.00,0.00,0.00,0.00,0.00,0.00,-0.00,0.00,-0.00,0.00,0.00,0.00,0.00,819,819,819,819
8723,0,0.00,0.00,0.00,-0.00,-0.00,0.00,0.00,0.00,0.00,0.00,0.00,-0.00,-0.00,0.00,0.00,0.00,0.00,819,819,819,819
8733,0,0.00,0.00,0.00,0.00,-0.00,-0.00,0.00,0.00,0.00,0.00,-0.00,-0.00,-0.00,0.00,0.00,0.00,0.00,819,819,819,819
8741,0,0.00,0.00,0.00,0.00,-0.00,0.00,0.00,0.00,0.00,0.00,-0.00,-0.00,-0.00,0.00,0.00,0.00,0.00,819,819,819,819
8748,0,0.00,0.00,0.00,-0.00,0.00,-0.00,0.00,0.00,0.00,0.00,0.00,0.00,-0.00,0.00,0.00,0.00,0.00,819,819,819,819
8756,0,0.00,0.00,0.00,-0.00,-0.00,0.00,0.00,0.00,0.00,0.00,0.00,-0.00,-0.00,0.00,0.00,0.00,0.00,819,819,819,819
8766,0,0.00,0.00,0.00,-0.00,-0.00,-0.00,0.00,0.00,0.00,0.00,0.00,0.00,-0.00,0.00,0.00,0.00,0.00,819,819,819,819
8775,0,0.00,0.00,0.00,-0.00,-0.00,-0.00,0.00,0.00,0.00,0.00,0.00,0.00,-0.00,0.00,0.00,0.00,0.00,819,819,819,819
8784,0,0.00,0.00,0.00,-0.00,-0.00,0.00,0.00,0.00,0.00,0.00,0.00,-0.00,-0.00,0.00,0.00,0.00,0.00,819,819,819,819
8792,0,0.00,0.00,0.00,-0.00,-0.00,0.00,0.00,0.00,0.00,0.00,0.00,0.00,-0.00,0.00,0.00,0.00,0.00,819,819,819,819
8801,0,0.00,0.00,0.00,0.00,0.00,-0.00,0.00,0.00,0.00,0.00,-0.00,0.00,-0.00,0.00,0.00,0.00,0.00,819,819,819,819
8810,0,0.00,0.00,0.00,-0.00,-0.00,-0.00,0.00,0.00,0.00,0.00,0.00,-0.00,-0.00,0.00,0.00,0.00,0.00,819,819,819,819
8818,0,0.00,0.00,0.00,0.00,0.00,-0.00,0.03,0.00,0.00,0.00,-0.00,0.00,-0.00,0.03,0.03,0.03,0.03,840,840,857,840
8826,0,0.00,0.00,0.00,-0.00,0.00,0.00,0.03,0.00,0.00,0.00,0.00,0.00,-0.00,0.03,0.03,0.03,0.03,840,840,857,840
8835,0,0.00,0.00,0.00,0.00,0.00,0.00,0.05,0.00,0.00,0.00,-0.00,0.00,-0.00,0.05,0.05,0.05,0.05,863,863,880,863
8844,0,0.00,0.00,0.00,0.00,0.00,0.00,0.06,0.00,0.00,0.00,-0.00,0.00,-0.00,0.06,0.06,0.06,0.06,870,871,887,870
8854,0,0.00,0.00,0.00,-0.00,0.00,0.00,0.06,0.00,0.00,0.00,0.00,0.00,-0.00,0.06,0.06,0.06,0.06,870,871,887,870
8863,0,0.00,0.00,0.00,0.00,0.00,0.00,0.06,0.00,0.00,0.00,-0.00,0.00,-0.00,0.06,0.06,0.06,0.06,870,871,887,870
8873,0,0.00,0.00,0.00,0.00,0.00,-0.00,0.07,0.00,0.00,0.00,-0.00,0.00,-0.00,0.07,0.07,0.07,0.07,873,874,890,873
8883,0,0.00,0.00,0.00,0.00,0.00,-0.00,0.07,0.00,0.00,0.00,-0.00,0.00,-0.00,0.07,0.07,0.07,0.07,873,874,890,873
8890,0,0.00,0.00,0.00,0.00,-0.00,-0.00,0.07,0.00,0.00,0.00,-0.00,0.00,-0.00,0.07,0.07,0.07,0.07,874,875,891,874
8936,0,0.00,0.00,0.00,-0.00,0.00,0.00,0.07,0.00,0.00,0.00,0.00,0.00,-0.00,0.07,0.07,0.07,0.07,874,875,891,874
8945,0,0.00,0.00,0.00,0.00,-0.00,0.00,0.07,0.00,0.00,0.00,-0.00,-0.00,-0.00,0.07,0.07,0.07,0.07,874,875,891,874
8955,0,0.00,0.00,0.00,0.00,-0.00,0.00,0.07,0.00,0.00,0.00,-0.00,-0.00,-0.00,0.07,0.07,0.07,0.07,874,875,891,874
8964,0,0.00,0.00,0.00,0.00,-0.00,0.00,0.07,0.00,0.00,0.00,-0.00,-0.00,-0.00,0.07,0.07,0.07,0.07,874,875,891,874
8974,0,0.00,0.00,0.00,-0.00,0.00,0.00,0.07,0.00,0.00,0.00,0.00,0.00,-0.00,0.07,0.07,0.07,0.07,874,875,891,874
8984,0,0.00,0.00,0.00,-0.00,0.00,-0.00,0.07,0.00,0.00,0.00,0.00,0.00,-0.00,0.07,0.07,0.07,0.07,874,875,891,874
8992,0,0.00,0.00,0.00,-0.00,0.00,-0.00,0.07,0.00,0.00,0.00,0.00,0.00,-0.00,0.07,0.07,0.07,0.07,874,875,891,874
8999,0,0.00,0.00,0.00,0.00,0.00,-0.00,0.07,0.00,0.00,0.00,-0.00,0.00,-0.00,0.07,0.07,0.07,0.07,874,875,891,874
9007,0,0.00,0.00,0.00,0.00,0.00,0.00,0.07,0.00,0.00,0.00,-0.00,0.00,-0.00,0.07,0.07,0.07,0.07,874,875,891,874
9015,0,0.00,0.00,0.00,0.00,0.00,0.00,0.07,0.00,0.00,0.00,-0.00,0.00,-0.00,0.07,0.07,0.07,0.07,874,875,891,874
9025,0,0.00,0.00,0.00,0.00,0.00,0.00,0.07,0.00,0.00,0.00,-0.00,0.00,-0.00,0.07,0.07,0.07,0.07,874,875,891,874
9034,0,0.00,0.00,0.00,-0.00,0.00,-0.00,0.07,0.00,0.00,0.00,0.00,0.00,-0.00,0.07,0.07,0.07,0.07,874,875,891,874
9043,0,0.00,0.00,0.00,0.00,-0.00,-0.00,0.07,0.00,0.00,0.00,-0.00,0.00,-0.00,0.07,0.07,0.07,0.07,874,875,891,874
9053,0,0.00,0.00,0.00,0.00,-0.00,-0.00,0.07,0.00,0.00,0.00,-0.00,-0.00,-0.00,0.07,0.07,0.07,0.07,874,875,891,874
9063,0,0.00,0.00,0.00,-0.00,0.00,0.00,0.07,0.00,0.00,0.00,0.00,0.00,-0.00,0.07,0.07,0.07,0.07,874,875,891,874
9072,0,0.00,0.00,0.00,0.00,0.00,0.00,0.07,0.00,0.00,0.00,-0.00,0.00,-0.00,0.07,0.07,0.07,0.07,874,875,891,874
9082,0,0.00,0.00,0.00,-0.00,-0.00,0.00,0.07,0.00,0.00,0.00,0.00,0.00,-0.00,0.07,0.07,0.07,0.07,877,877,893,877
9090,0,0.00,0.00,0.00,-0.00,0.00,0.00,0.07,0.00,0.00,0.00,0.00,0.00,-0.00,0.07,0.07,0.07,0.07,877,878,894,877
9098,0,0.00,0.00,0.00,0.00,0.00,0.00,0.07,0.00,0.00,0.00,-0.00,0.00,-0.00,0.07,0.07,0.07,0.07,877,878,894,877
9106,0,0.00,0.00,0.00,0.00,0.00,-0.00,0.07,0.00,0.00,0.00,-0.00,0.00,-0.00,0.07,0.07,0.07,0.07,877,878,894,877
9115,0,0.00,0.00,0.00,0.00,0.00,-0.00,0.07,0.00,0.00,0.00,-0.00,0.00,-0.00,0.07,0.07,0.07,0.07,877,878,894,877
9125,0,0.00,0.00,0.00,0.00,-0.00,-0.00,0.07,0.00,0.00,0.00,-0.00,0.00,-0.00,0.07,0.07,0.07,0.07,877,878,894,877
9135,0,0.00,0.00,0.00,0.00,0.00,0.00,0.07,0.00,0.00,0.00,-0.00,0.00,-0.00,0.07,0.07,0.07,0.07,879,880,896,879
9144,0,0.00,0.00,0.00,-0.00,-0.00,0.00,0.08,0.00,0.00,0.00,0.00,-0.00,-0.00,0.07,0.08,0.08,0.07,880,880,897,880
9154,0,0.00,0.00,0.00,0.00,0.00,0.00,0.08,0.00,0.00,0.00,-0.00,0.00,-0.00,0.08,0.08,0.08,0.08,881,881,898,881
9164,0,0.00,0.00,0.00,0.00,-0.00,0.00,0.08,0.00,0.00,0.00,-0.00,0.00,-0.00,0.08,0.08,0.08,0.08,881,881,898,881
9173,0,0.00,0.00,0.00,0.00,0.00,0.00,0.08,0.00,0.00,0.00,-0.00,0.00,-0.00,0.08,0.08,0.08,0.08,881,882,898,881
9183,0,0.00,0.00,0.00,-0.00,0.00,0.00,0.09,0.00,0.00,0.00,0.00,0.00,-0.00,0.09,0.09,0.09,0.09,890,890,907,890
9191,0,0.00,0.00,0.00,0.00,0.00,0.00,0.09,0.00,0.00,0.00,-0.00,0.00,-0.00,0.09,0.09,0.09,0.09,892,893,909,892
9198,0,0.00,0.00,0.00,0.00,-0.00,0.00,0.09,0.00,0.00,0.00,-0.00,-0.00,-0.00,0.09,0.09,0.09,0.09,892,893,909,892
9206,0,0.00,0.00,0.00,0.00,0.00,0.00,0.09,0.00,0.00,0.00,-0.00,0.00,-0.00,0.09,0.09,0.09,0.09,892,893,909,892
9218,0,0.00,0.00,0.00,0.00,0.00,0.00,0.09,0.00,0.00,0.00,-0.00,0.00,-0.00,0.09,0.09,0.09,0.09,892,893,909,892
9226,0,0.00,0.00,0.00,-0.00,-0.00,-0.00,0.09,0.00,0.00,0.00,0.00,0.00,-0.00,0.09,0.09,0.09,0.09,895,896,912,895
9236,0,0.00,0.00,0.00,-0.00,-0.00,0.00,0.10,0.00,0.00,0.00,0.00,-0.00,-0.00,0.10,0.10,0.10,0.10,897,898,914,897
9245,0,0.00,0.00,0.00,-0.00,-0.00,0.00,0.10,0.00,0.00,0.00,0.00,-0.00,-0.00,0.10,0.10,0.10,0.10,899,899,916,899
9255,0,0.00,0.00,0.00,-0.00,-0.00,-0.00,0.10,0.00,0.00,0.00,0.00,0.00,-0.00,0.10,0.10,0.10,0.10,899,899,916,899
9264,0,0.00,0.00,0.00,-0.00,0.00,0.00,0.10,0.00,0.00,0.00,0.00,0.00,-0.00,0.10,0.10,0.10,0.10,899,899,916,899
9274,0,0.00,0.00,0.00,0.00,-0.00,0.00,0.10,0.00,0.00,0.00,-0.00,-0.00,-0.00,0.10,0.10,0.10,0.10,900,901,917,900
9283,0,0.00,0.00,0.00,-0.00,-0.00,-0.00,0.10,0.00,0.00,0.00,0.00,0.00,-0.00,0.10,0.10,0.10,0.10,900,901,917,900
9290,0,0.00,0.00,0.00,-0.00,-0.00,0.00,0.10,0.00,0.00,0.00,0.00,-0.00,-0.00,0.10,0.10,0.10,0.10,900,901,917,900
9298,0,0.00,0.00,0.00,-0.00,0.00,-0.00,0.10,0.00,0.00,0.00,0.00,0.00,-0.00,0.10,0.10,0.10,0.10,900,901,917,900
9306,0,0.00,0.00,0.00,0.00,0.00,-0.00,0.10,0.00,0.00,0.00,-0.00,0.00,-0.00,0.10,0.10,0.10,0.10,900,901,917,900
9315,0,0.00,0.00,0.00,0.00,0.00,-0.00,0.10,0.00,0.00,0.00,-0.00,0.00,-0.00,0.10,0.10,0.10,0.10,900,901,917,900
9325,0,0.00,0.00,0.00,-0.00,-0.00,0.00,0.10,0.00,0.00,0.00,0.00,-0.00,-0.00,0.10,0.10,0.10,0.10,900,901,917,900
9335,0,0.00,0.00,0.00,0.00,0.00,0.00,0.10,0.00,0.00,0.00,-0.00,0.00,-0.00,0.10,0.10,0.10,0.10,902,903,919,902
9344,0,0.00,0.00,0.00,-0.00,-0.00,0.00,0.10,0.00,0.00,0.00,0.00,-0.00,-0.00,0.10,0.10,0.10,0.10,903,903,920,903
9353,0,0.00,0.00,0.00,-0.00,0.00,-0.00,0.10,0.00,0.00,0.00,0.00,0.00,-0.00,0.10,0.10,0.10,0.10,903,903,920,903
9363,0,0.00,0.00,0.00,0.00,-0.00,-0.00,0.10,0.00,0.00,0.00,-0.00,-0.00,-0.00,0.10,0.10,0.10,0.10,903,903,920,903
9373,0,0.00,0.00,0.00,0.00,-0.00,0.00,0.10,0.00,0.00,0.00,-0.00,-0.00,-0.00,0.10,0.10,0.10,0.10,903,903,920,903
9382,0,0.00,0.00,0.00,0.00,0.00,-0.00,0.11,0.00,0.00,0.00,-0.00,0.00,-0.00,0.11,0.11,0.11,0.11,905,906,922,905
9390,0,0.00,0.00,0.00,0.00,0.00,0.00,0.11,0.00,0.00,0.00,-0.00,0.00,-0.00,0.11,0.11,0.11,0.11,905,906,922,905
9398,0,0.00,0.00,0.00,-0.00,-0.00,-0.00,0.11,0.00,0.00,0.00,0.00,0.00,-0.00,0.11,0.11,0.11,0.11,905,906,922,905
9406,0,0.00,0.00,0.00,0.00,-0.00,-0.00,0.11,0.00,0.00,0.00,-0.00,0.00,-0.00,0.11,0.11,0.11,0.11,905,906,922,905
9415,0,0.00,0.00,0.00,0.00,-0.00,-0.00,0.11,0.00,0.00,0.00,-0.00,0.00,-0.00,0.11,0.11,0.11,0.11,905,906,922,905
9425,0,0.00,0.00,0.00,-0.00,-0.00,-0.00,0.11,0.00,0.00,0.00,0.00,0.00,-0.00,0.11,0.11,0.11,0.11,905,906,922,905
9434,0,0.00,0.00,0.00,0.00,0.00,0.00,0.11,0.00,0.00,0.00,-0.00,0.00,-0.00,0.11,0.11,0.11,0.11,905,906,922,905
9442,0,0.00,0.00,0.00,-0.00,-0.00,-0.00,0.11,0.00,0.00,0.00,0.00,-0.00,-0.00,0.11,0.11,0.11,0.11,905,906,922,905
9450,0,0.00,0.00,0.00,0.00,0.00,-0.00,0.11,0.00,0.00,0.00,-0.00,0.00,-0.00,0.11,0.11,0.11,0.11,905,906,922,905
9458,0,0.00,0.00,0.00,-0.00,0.00,-0.00,0.11,0.00,0.00,0.00,0.00,0.00,-0.00,0.11,0.11,0.11,0.11,905,906,922,905
9466,0,0.00,0.00,0.00,0.00,-0.00,-0.00,0.11,0.00,0.00,0.00,-0.00,-0.00,-0.00,0.11,0.11,0.11,0.11,905,906,922,905
9476,0,0.00,0.00,0.00,0.00,-0.00,-0.00,0.11,0.00,0.00,0.00,-0.00,-0.00,-0.00,0.11,0.11,0.11,0.11,905,906,922,905
9485,0,0.00,0.00,0.00,-0.00,0.00,-0.00,0.11,0.00,0.00,0.00,0.00,0.00,-0.00,0.11,0.11,0.11,0.11,905,906,922,905
9498,0,0.00,0.00,0.00,-0.00,0.00,-0.00,0.11,0.00,0.00,0.00,0.00,0.00,-0.00,0.11,0.11,0.11,0.11,905,906,922,905
9507,0,0.00,0.00,0.00,0.00,0.00,-0.00,0.11,0.00,0.00,0.00,-0.00,0.00,-0.00,0.11,0.11,0.11,0.11,905,906,922,905
9516,0,0.00,0.00,0.00,-0.00,-0.00,0.00,0.11,0.00,0.00,0.00,0.00,-0.00,-0.00,0.11,0.11,0.11,0.11,905,906,922,905
9525,0,0.00,0.00,0.00,-0.00,-0.00,0.00,0.11,0.00,0.00,0.00,0.00,-0.00,-0.00,0.11,0.11,0.11,0.11,905,906,922,905
9536,0,0.00,0.00,0.00,-0.00,0.00,0.00,0.11,0.00,0.00,0.00,0.00,0.00,-0.00,0.11,0.11,0.11,0.11,905,906,922,905
9543,0,0.00,0.00,0.00,-0.00,0.00,0.00,0.12,0.00,0.00,0.00,0.00,0.00,-0.00,0.12,0.12,0.12,0.12,913,914,930,913
9553,0,0.00,0.00,0.00,0.00,-0.00,0.00,0.12,0.00,0.00,0.00,-0.00,-0.00,-0.00,0.12,0.12,0.12,0.12,916,916,933,916
9562,0,0.00,0.00,0.00,-0.00,0.00,-0.00,0.12,0.00,0.00,0.00,0.00,0.00,-0.00,0.12,0.12,0.12,0.12,916,916,933,916
9575,0,0.00,0.00,0.00,0.00,0.00,-0.00,0.12,0.00,0.00,0.00,-0.00,0.00,-0.00,0.12,0.12,0.12,0.12,916,916,933,916
9584,0,0.00,0.00,0.00,-0.00,0.00,-0.00,0.12,0.00,0.00,0.00,0.00,0.00,-0.00,0.12,0.12,0.12,0.12,917,917,934,917
9592,0,0.00,0.00,0.00,-0.00,0.00,-0.00,0.12,0.00,0.00,0.00,0.00,0.00,-0.00,0.12,0.12,0.12,0.12,917,917,934,917
9599,0,0.00,0.00,0.00,-0.00,0.00,-0.00,0.12,0.00,0.00,0.00,0.00,0.00,-0.00,0.12,0.12,0.12,0.12,917,917,934,917
9607,0,0.00,0.00,0.00,-0.00,-0.00,-0.00,0.12,0.00,0.00,0.00,0.00,0.00,-0.00,0.12,0.12,0.12,0.12,917,917,934,917
9616,0,0.00,0.00,0.00,-0.00,-0.00,-0.00,0.12,0.00,0.00,0.00,0.00,0.00,-0.00,0.12,0.12,0.12,0.12,917,917,934,917
9626,0,0.00,0.00,0.00,-0.00,-0.00,0.00,0.12,0.00,0.00,0.00,0.00,-0.00,-0.00,0.12,0.12,0.12,0.12,917,917,934,917
9635,0,0.00,0.00,0.00,-0.00,-0.00,-0.00,0.12,0.00,0.00,0.00,0.00,0.00,-0.00,0.12,0.12,0.12,0.12,917,917,934,917
9643,0,0.00,0.00,0.00,-0.00,0.00,-0.00,0.12,0.00,0.00,0.00,0.00,0.00,-0.00,0.12,0.12,0.12,0.12,917,917,934,917
9652,0,0.00,0.00,0.00,0.00,0.00,0.00,0.12,0.00,0.00,0.00,-0.00,0.00,-0.00,0.12,0.12,0.12,0.12,917,917,934,917
9659,0,0.00,0.00,0.00,-0.00,0.00,-0.00,0.12,0.00,0.00,0.00,0.00,0.00,-0.00,0.12,0.12,0.12,0.12,917,917,934,917
9667,0,0.00,0.00,0.00,0.00,0.00,-0.00,0.12,0.00,0.00,0.00,-0.00,0.00,-0.00,0.12,0.12,0.12,0.12,917,917,934,917
9676,0,0.00,0.00,0.00,0.00,0.00,-0.00,0.12,0.00,0.00,0.00,-0.00,0.00,-0.00,0.12,0.12,0.12,0.12,917,917,934,917
9686,0,0.00,0.00,0.00,-0.00,0.00,-0.00,0.12,0.00,0.00,0.00,0.00,0.00,-0.00,0.12,0.12,0.12,0.12,917,917,934,917
9694,0,0.00,0.00,0.00,-0.00,-0.00,-0.00,0.12,0.00,0.00,0.00,0.00,0.00,-0.00,0.12,0.12,0.12,0.12,917,917,934,917
9703,0,0.00,-0.00,0.00,-0.00,-0.00,-0.00,0.12,0.00,0.00,0.00,0.00,0.00,-0.00,0.12,0.12,0.12,0.12,918,918,935,917
9712,0,0.00,-0.00,0.00,-0.00,-0.00,-0.00,0.12,0.00,0.00,0.00,0.00,0.00,-0.00,0.12,0.12,0.12,0.12,918,918,935,917
9720,0,0.00,-0.00,0.00,-0.00,-0.00,-0.00,0.12,0.00,0.00,0.00,0.00,0.00,-0.00,0.12,0.12,0.12,0.12,918,918,935,917
9727,0,0.00,-0.00,0.00,-0.00,0.00,0.00,0.12,0.00,0.00,0.00,0.00,0.00,-0.00,0.12,0.12,0.12,0.12,918,919,936,918
9737,0,0.00,-0.00,0.00,-0.00,0.00,0.00,0.12,0.00,0.00,0.00,0.00,0.00,-0.00,0.12,0.12,0.12,0.12,918,919,936,918
9746,0,0.00,-0.00,0.00,-0.00,0.00,0.00,0.12,0.00,0.00,0.00,0.00,0.00,-0.00,0.12,0.12,0.12,0.12,919,920,936,919
9756,0,0.00,-0.00,0.00,-0.00,0.00,0.00,0.12,0.00,0.00,0.00,0.00,0.00,-0.00,0.12,0.12,0.12,0.12,919,920,936,919
9768,0,0.00,-0.00,0.00,-0.00,-0.00,-0.00,0.12,0.00,0.00,0.00,0.00,0.00,-0.00,0.12,0.12,0.12,0.12,919,920,936,919
9777,0,0.00,-0.00,0.00,0.00,-0.00,-0.00,0.12,0.00,0.00,0.00,-0.00,0.00,-0.00,0.12,0.12,0.12,0.12,919,920,936,919
9786,0,0.00,-0.00,0.00,0.00,-0.00,-0.00,0.12,0.00,0.00,0.00,-0.00,0.00,-0.00,0.12,0.12,0.12,0.12,919,920,936,919
9795,0,0.00,-0.00,0.00,-0.00,0.00,-0.00,0.13,0.00,0.00,0.00,0.00,0.00,-0.00,0.13,0.13,0.13,0.13,923,924,941,923
9805,0,0.00,-0.00,0.00,-0.00,0.00,0.00,0.13,0.00,0.00,0.00,0.00,0.00,-0.00,0.13,0.13,0.13,0.13,925,925,942,925
9814,0,0.00,-0.00,0.00,-0.00,0.00,0.00,0.13,0.00,0.00,0.00,0.00,0.00,-0.00,0.13,0.13,0.13,0.13,925,925,942,925
9824,0,0.00,-0.00,0.00,0.00,-0.00,-0.00,0.13,0.00,0.00,0.00,-0.00,0.00,-0.00,0.13,0.13,0.13,0.13,926,926,943,925
9834,0,0.00,-0.00,0.00,-0.00,0.00,-0.00,0.13,0.00,0.00,0.00,0.00,0.00,-0.00,0.13,0.13,0.13,0.13,926,926,943,925
9842,0,0.00,-0.00,0.00,0.00,-0.00,-0.00,0.13,0.00,0.00,0.00,-0.00,0.00,-0.00,0.13,0.13,0.13,0.13,927,927,944,926
9850,0,0.00,-0.00,0.00,-0.00,0.00,-0.00,0.13,0.00,0.00,0.00,0.00,0.00,-0.00,0.13,0.13,0.13,0.13,927,927,944,926
9857,0,0.00,-0.00,0.00,0.00,-0.00,-0.00,0.13,0.00,0.00,0.00,-0.00,0.00,-0.00,0.13,0.13,0.13,0.13,927,927,944,926
9866,0,0.00,-0.00,0.00,0.00,-0.00,-0.00,0.14,0.00,0.00,0.00,-0.00,0.00,-0.00,0.13,0.14,0.14,0.13,929,929,946,929
9876,0,0.00,-0.00,0.00,0.00,0.00,-0.00,0.14,0.00,0.00,0.00,-0.00,0.00,-0.00,0.13,0.14,0.14,0.13,929,929,946,929
9885,0,0.00,-0.00,0.00,-0.00,0.00,0.00,0.14,0.00,0.00,0.00,0.00,0.00,-0.00,0.14,0.14,0.14,0.14,935,935,952,934
9892,0,0.00,-0.00,0.00,-0.00,0.00,0.00,0.14,0.00,0.00,0.00,0.00,0.00,-0.00,0.14,0.14,0.14,0.14,935,935,952,934
9900,0,0.00,-0.00,0.00,0.00,0.00,0.00,0.14,0.00,0.00,0.00,-0.00,0.00,-0.00,0.14,0.14,0.14,0.14,935,935,952,934
9908,0,0.00,-0.00,0.00,-0.00,-0.00,-0.00,0.14,0.00,0.00,0.00,0.00,0.00,-0.00,0.14,0.14,0.14,0.14,935,935,952,934
9916,0,0.00,-0.00,0.00,0.00,-0.00,-0.00,0.14,0.00,0.00,0.00,-0.00,0.00,-0.00,0.14,0.14,0.14,0.14,935,935,952,934
9926,0,0.00,-0.00,0.00,0.00,-0.00,-0.00,0.14,0.00,0.00,0.00,-0.00,0.00,-0.00,0.14,0.14,0.14,0.14,935,935,952,934
9936,0,0.00,-0.00,0.00,-0.00,-0.00,-0.00,0.15,0.00,0.00,0.00,0.00,0.00,-0.00,0.15,0.15,0.15,0.15,945,945,962,944
9943,0,0.00,-0.00,0.00,-0.00,0.00,-0.00,0.15,0.00,0.00,0.00,0.00,0.00,-0.00,0.15,0.15,0.15,0.15,945,945,962,944
9952,0,0.00,-0.00,0.00,-0.00,-0.00,0.00,0.15,0.00,0.00,0.00,0.00,0.00,-0.00,0.15,0.15,0.15,0.15,945,945,962,944
9960,0,0.00,-0.00,0.00,-0.00,-0.00,0.00,0.16,0.00,0.00,0.00,0.00,0.00,-0.00,0.16,0.16,0.16,0.16,952,952,969,951
9968,0,0.00,-0.00,0.00,0.00,-0.00,0.00,0.16,0.00,0.00,0.00,-0.00,0.00,-0.00,0.16,0.16,0.16,0.16,952,952,969,951
9977,0,0.00,-0.00,0.00,-0.00,0.00,0.00,0.16,0.00,0.00,0.00,0.00,0.00,-0.00,0.16,0.16,0.16,0.16,952,952,969,951
9986,0,0.00,-0.00,0.00,-0.00,0.00,0.00,0.16,0.00,0.00,0.00,0.00,0.00,-0.00,0.16,0.16,0.16,0.16,952,952,969,951
9995,0,0.00,-0.00,0.00,-0.00,0.00,-0.00,0.16,0.00,0.00,0.00,0.00,0.00,-0.00,0.16,0.16,0.16,0.16,952,952,969,951
10004,0,0.00,-0.00,0.00,-0.00,0.00,-0.00,0.17,0.00,0.00,0.00,0.00,0.00,-0.00,0.16,0.17,0.17,0.16,954,954,971,953
10014,0,0.00,-0.00,0.00,-0.00,0.00,0.00,0.17,0.00,0.00,0.00,0.00,0.00,-0.00,0.17,0.17,0.17,0.17,955,956,973,955
10023,0,0.00,-0.00,0.00,-0.00,0.00,0.00,0.17,0.00,0.00,0.00,0.00,0.00,-0.00,0.17,0.17,0.17,0.17,955,956,973,955
10032,0,0.00,-0.00,0.00,-0.00,0.00,0.00,0.17,0.00,0.00,0.00,0.00,0.00,-0.00,0.17,0.17,0.17,0.17,955,956,973,955
10046,0,0.00,-0.00,0.00,-0.00,0.00,-0.00,0.17,0.00,0.00,0.00,0.00,0.00,-0.00,0.17,0.17,0.17,0.17,955,956,973,955
10057,0,0.00,-0.00,0.00,-0.00,0.00,-0.00,0.17,0.00,0.00,0.00,0.00,0.00,-0.00,0.17,0.17,0.17,0.17,955,956,973,955
10066,0,0.00,-0.00,0.00,-0.00,0.00,-0.00,0.17,0.00,0.00,0.00,0.00,0.00,-0.00,0.17,0.17,0.17,0.17,955,956,973,955
10076,0,0.00,-0.00,0.00,-0.00,0.00,-0.00,0.17,0.00,0.00,0.00,0.00,0.00,-0.00,0.17,0.17,0.17,0.17,955,956,973,955
10086,0,0.00,-0.00,0.00,-0.00,0.00,-0.00,0.17,0.00,0.00,0.00,0.00,0.00,-0.00,0.17,0.17,0.17,0.17,955,956,973,955
10094,0,0.00,-0.00,0.00,-0.00,0.00,-0.00,0.17,0.00,0.00,0.00,0.00,0.00,-0.00,0.17,0.17,0.17,0.17,955,956,973,955
10102,0,0.00,-0.00,0.00,-0.00,0.00,0.00,0.17,0.00,0.00,0.00,0.00,0.00,-0.00,0.17,0.17,0.17,0.17,955,956,973,955
10110,0,0.00,-0.00,0.00,-0.00,0.00,0.00,0.17,0.00,0.00,0.00,0.00,0.00,-0.00,0.17,0.17,0.17,0.17,955,956,973,955
10118,0,0.00,-0.00,0.00,-0.00,-0.00,0.00,0.17,0.00,0.00,0.00,0.00,0.00,-0.00,0.17,0.17,0.17,0.17,955,956,973,955
10127,0,0.00,-0.00,0.00,-0.00,-0.00,0.00,0.17,0.00,0.00,0.00,0.00,0.00,-0.00,0.17,0.17,0.17,0.17,955,956,973,955
10137,0,0.00,-0.00,0.00,-0.00,-0.00,0.00,0.17,0.00,0.00,0.00,0.00,0.00,-0.00,0.17,0.17,0.17,0.17,955,956,973,955
10146,0,0.00,-0.00,0.00,-0.00,-0.00,0.00,0.17,0.00,0.00,0.00,0.00,0.00,-0.00,0.17,0.17,0.17,0.17,955,956,973,955
10156,0,0.00,-0.00,0.00,-0.00,0.00,0.00,0.17,0.00,0.00,0.00,0.00,0.00,-0.00,0.17,0.17,0.17,0.17,955,956,973,954
10166,0,0.00,-0.00,0.00,-0.00,0.00,0.00,0.17,0.00,0.00,0.00,0.00,0.00,-0.00,0.17,0.17,0.17,0.17,955,956,973,954
10176,0,0.00,-0.00,0.00,-0.00,0.00,-0.00,0.17,0.00,0.00,0.00,0.00,0.00,-0.00,0.17,0.17,0.17,0.17,956,956,974,955
10186,0,0.00,-0.00,0.00,-0.00,-0.00,0.00,0.17,0.00,0.00,0.00,0.00,0.00,-0.00,0.17,0.17,0.17,0.17,956,956,974,955
10193,0,0.00,-0.00,0.00,-0.00,-0.00,0.00,0.17,0.00,0.00,0.00,0.00,0.00,-0.00,0.17,0.17,0.17,0.17,956,956,974,955
10201,0,0.00,-0.00,0.00,-0.00,-0.00,-0.00,0.17,0.00,0.00,0.00,0.00,0.00,-0.00,0.17,0.17,0.17,0.17,956,956,974,955
10208,0,0.00,-0.00,0.00,-0.00,0.00,-0.00,0.17,0.00,0.00,0.00,0.00,0.00,-0.00,0.17,0.17,0.17,0.17,956,956,974,955
10217,0,0.00,-0.00,0.00,-0.00,0.00,-0.00,0.17,0.00,0.00,0.00,0.00,0.00,-0.00,0.17,0.17,0.17,0.17,956,956,974,955
10227,0,0.00,-0.00,0.00,-0.00,0.00,-0.00,0.17,0.00,0.00,0.00,0.00,0.00,-0.00,0.17,0.17,0.17,0.17,956,956,974,955
10237,0,0.00,-0.00,0.00,-0.00,-0.00,-0.00,0.17,0.00,0.00,0.00,0.00,0.00,-0.00,0.17,0.17,0.17,0.17,956,956,974,955
10244,0,0.00,-0.00,0.00,-0.00,-0.00,0.00,0.17,0.00,0.00,0.00,0.00,0.00,-0.00,0.17,0.17,0.17,0.17,957,957,974,956
10253,0,0.00,-0.00,0.00,-0.00,-0.00,0.00,0.17,0.00,0.00,0.00,0.00,0.00,-0.00,0.17,0.17,0.17,0.17,957,957,974,956
10261,0,0.00,-0.00,0.00,-0.00,0.00,-0.00,0.17,0.00,0.00,0.00,0.00,0.00,-0.00,0.17,0.17,0.17,0.17,957,957,974,956
10268,0,0.00,-0.00,0.00,-0.00,0.00,-0.00,0.17,0.00,0.00,0.00,0.00,0.00,-0.00,0.17,0.17,0.17,0.17,957,957,975,956
10277,0,0.00,-0.00,0.00,-0.00,0.00,0.00,0.17,0.00,0.00,0.00,0.00,0.00,-0.00,0.17,0.17,0.17,0.17,957,957,975,956
10287,0,0.00,-0.00,0.00,-0.00,0.00,0.00,0.17,0.00,0.00,0.00,0.00,0.00,-0.00,0.17,0.17,0.17,0.17,957,957,975,956
10295,0,0.00,-0.00,0.00,-0.00,-0.00,0.00,0.17,0.00,0.00,0.00,0.00,0.00,-0.00,0.17,0.17,0.17,0.17,960,960,978,959
10305,0,0.00,-0.00,0.00,0.00,-0.00,0.00,0.17,0.00,0.00,0.00,-0.00,0.00,-0.00,0.17,0.17,0.17,0.17,960,960,978,959
10315,0,-0.00,-0.00,0.00,0.00,-0.00,0.00,0.17,0.00,0.00,0.00,-0.00,0.00,-0.00,0.17,0.17,0.17,0.17,961,960,978,959
10328,0,-0.00,-0.00,0.00,-0.00,0.00,0.00,0.17,0.00,0.00,0.00,-0.00,0.00,-0.00,0.17,0.17,0.17,0.17,961,960,978,959
10338,0,-0.00,-0.00,0.00,-0.00,0.00,0.00,0.17,0.00,0.00,0.00,-0.00,0.00,-0.00,0.17,0.17,0.17,0.17,961,960,978,959
10347,0,-0.00,-0.00,0.00,-0.00,0.00,0.00,0.17,0.00,0.00,0.00,-0.00,0.00,-0.00,0.17,0.17,0.17,0.17,961,960,978,959
10357,0,-0.00,-0.00,0.00,-0.00,-0.00,-0.00,0.17,0.00,0.00,0.00,-0.00,0.00,-0.00,0.17,0.17,0.17,0.17,961,960,978,959
10367,0,-0.00,-0.00,0.00,-0.00,-0.00,-0.00,0.17,0.00,0.00,0.00,-0.00,0.00,-0.00,0.17,0.17,0.18,0.17,961,961,979,960
10378,0,0.00,-0.00,0.00,-0.00,0.00,-0.00,0.17,0.00,0.00,0.00,-0.00,0.00,-0.00,0.17,0.17,0.18,0.17,961,961,979,960
10387,0,0.00,-0.00,0.00,-0.00,0.00,-0.00,0.17,0.00,0.00,0.00,-0.00,0.00,-0.00,0.17,0.17,0.18,0.17,961,961,979,960
10395,0,0.00,-0.00,0.00,-0.00,0.00,-0.00,0.17,0.00,0.00,0.00,-0.00,0.00,-0.00,0.17,0.17,0.18,0.17,961,961,979,960
10405,0,0.00,-0.00,0.00,0.00,-0.00,-0.00,0.19,0.00,0.00,0.00,-0.00,0.00,-0.00,0.19,0.19,0.19,0.19,973,973,990,971
10414,0,0.00,-0.00,0.00,-0.00,-0.00,0.00,0.19,0.00,0.00,0.00,-0.00,0.00,-0.00,0.19,0.19,0.19,0.19,974,973,991,972
10423,0,0.00,-0.00,0.00,-0.00,-0.00,0.00,0.19,0.00,0.00,0.00,-0.00,0.00,-0.00,0.19,0.19,0.19,0.19,974,973,991,972
10431,0,-0.00,-0.00,0.00,-0.00,0.00,0.00,0.19,0.00,0.00,0.00,-0.00,0.00,-0.00,0.19,0.19,0.19,0.19,974,973,991,972
10439,0,-0.00,-0.00,0.00,-0.00,0.00,0.00,0.19,0.00,0.00,0.00,-0.00,0.00,-0.00,0.19,0.19,0.19,0.19,974,973,991,972
10447,0,-0.00,-0.00,0.00,-0.00,0.00,0.00,0.19,0.00,0.00,0.00,-0.00,0.00,-0.00,0.19,0.19,0.19,0.19,974,973,991,972
10454,0,-0.00,-0.00,0.00,-0.00,0.00,0.00,0.19,0.00,0.00,0.00,-0.00,0.00,-0.00,0.19,0.19,0.19,0.19,974,973,991,972
10464,0,-0.00,-0.00,0.00,-0.00,0.00,0.00,0.19,0.00,0.00,0.00,-0.00,0.00,-0.00,0.19,0.19,0.19,0.19,974,973,991,972
10474,0,-0.00,-0.00,0.00,-0.00,-0.00,-0.00,0.19,0.00,0.00,0.00,-0.00,0.00,-0.00,0.19,0.19,0.19,0.19,974,973,991,972
10484,0,-0.00,-0.00,0.00,-0.00,0.00,-0.00,0.20,0.00,0.00,0.00,-0.00,0.00,-0.00,0.20,0.20,0.20,0.19,980,979,997,978
10491,0,-0.00,-0.00,0.00,-0.00,-0.00,-0.00,0.20,0.00,0.00,0.00,-0.00,0.00,-0.00,0.20,0.20,0.20,0.19,980,979,997,978
10499,0,0.00,-0.00,0.00,-0.00,0.00,-0.00,0.20,0.00,0.00,0.00,-0.00,0.00,-0.00,0.20,0.20,0.20,0.19,980,979,997,978
10507,0,0.00,-0.00,0.00,-0.00,0.00,-0.00,0.20,0.00,0.00,0.00,-0.00,0.00,-0.00,0.20,0.20,0.20,0.19,980,979,997,978
10517,0,0.00,-0.00,0.00,-0.00,-0.00,-0.00,0.20,0.00,0.00,0.00,-0.00,0.00,-0.00,0.20,0.20,0.20,0.19,980,979,997,978
10526,0,0.00,-0.00,0.00,-0.00,-0.00,-0.00,0.20,0.00,0.00,0.00,-0.00,0.00,-0.00,0.20,0.20,0.20,0.19,980,979,997,978
10536,0,0.00,-0.00,0.00,-0.00,-0.00,0.00,0.23,0.00,0.00,0.00,-0.00,0.00,-0.00,0.23,0.23,0.23,0.22,1005,1004,1023,1003
10543,0,0.00,-0.00,0.00,-0.00,-0.00,0.00,0.23,0.00,0.00,0.00,-0.00,0.00,-0.00,0.23,0.23,0.23,0.23,1006,1005,1023,1004
10551,0,0.00,-0.00,0.00,-0.00,-0.00,0.00,0.23,0.00,0.00,0.00,-0.00,0.00,-0.00,0.23,0.23,0.23,0.23,1006,1005,1023,1004
10558,0,0.00,-0.00,0.00,-0.00,-0.00,0.00,0.23,0.00,0.00,0.00,-0.00,0.00,-0.00,0.23,0.23,0.23,0.23,1006,1005,1023,1004
10568,0,0.00,-0.00,0.00,-0.00,0.00,0.00,0.23,0.00,0.00,0.00,-0.00,0.00,-0.00,0.23,0.23,0.23,0.23,1006,1005,1023,1004
10577,0,0.00,-0.00,0.00,-0.00,0.00,0.00,0.23,0.00,0.00,0.00,-0.00,0.00,-0.00,0.23,0.23,0.23,0.23,1007,1006,1024,1004
10587,0,0.00,-0.00,0.00,-0.00,0.00,0.00,0.23,0.00,0.00,0.00,-0.00,0.00,-0.00,0.23,0.23,0.23,0.23,1007,1006,1024,1004
10595,0,-0.00,-0.00,0.00,-0.00,0.00,0.00,0.23,0.00,0.00,0.00,-0.00,0.00,-0.00,0.23,0.23,0.23,0.23,1007,1006,1024,1004
10608,0,-0.00,-0.00,0.00,-0.00,-0.00,-0.00,0.23,0.00,0.00,0.00,-0.00,0.00,-0.00,0.23,0.23,0.23,0.23,1007,1007,1025,1005
10618,0,0.00,-0.00,0.00,-0.00,-0.00,-0.00,0.23,0.00,0.00,0.00,-0.00,0.00,-0.00,0.23,0.23,0.23,0.23,1007,1007,1025,1005
10627,0,0.00,-0.00,0.00,-0.00,-0.00,-0.00,0.23,0.00,0.00,0.00,-0.00,0.00,-0.00,0.23,0.23,0.23,0.23,1007,1007,1025,1005
10638,0,0.00,-0.00,0.00,-0.00,-0.00,-0.00,0.23,0.00,0.00,0.00,-0.00,0.00,-0.00,0.23,0.23,0.23,0.23,1008,1008,1026,1006
10646,0,0.00,-0.00,0.00,-0.00,-0.00,-0.00,0.23,0.00,0.00,0.00,-0.00,0.00,-0.00,0.23,0.23,0.23,0.23,1008,1008,1026,1006
10656,0,0.00,-0.00,0.00,-0.00,-0.00,-0.00,0.23,0.00,0.00,0.00,0.00,0.00,-0.00,0.23,0.23,0.23,0.23,1008,1008,1026,1006
10665,0,0.00,-0.00,0.00,-0.00,-0.00,-0.00,0.23,0.00,0.00,0.00,0.00,0.00,-0.00,0.23,0.23,0.23,0.23,1008,1008,1026,1006
10675,0,0.00,-0.00,0.00,-0.00,0.00,-0.00,0.24,0.00,0.00,0.00,0.00,0.00,-0.00,0.24,0.24,0.24,0.23,1013,1013,1031,1011
10685,0,0.00,-0.00,0.00,-0.00,0.00,0.00,0.24,0.00,0.00,0.00,0.00,0.00,-0.00,0.24,0.24,0.24,0.24,1015,1015,1034,1013
10693,0,0.00,-0.00,0.00,0.00,0.00,0.00,0.24,0.00,0.00,0.00,0.00,0.00,-0.00,0.24,0.24,0.24,0.24,1015,1015,1034,1013
10700,0,0.00,-0.00,0.00,0.00,-0.00,0.00,0.24,0.00,0.00,0.00,0.00,0.00,-0.00,0.24,0.24,0.24,0.24,1015,1015,1034,1013
10708,0,0.00,-0.00,0.00,-0.00,-0.00,0.00,0.24,0.00,0.00,0.00,0.00,0.00,-0.00,0.24,0.24,0.24,0.24,1015,1015,1034,1013
10718,0,0.00,-0.00,0.00,-0.00,-0.00,0.00,0.24,0.00,0.00,0.00,-0.00,0.00,-0.00,0.24,0.24,0.24,0.24,1015,1015,1033,1013
10727,0,0.00,-0.00,0.00,-0.00,-0.00,0.00,0.24,0.00,0.00,0.00,-0.00,0.00,-0.00,0.24,0.24,0.24,0.24,1015,1015,1033,1013
10737,0,0.00,-0.00,0.00,-0.00,0.00,0.00,0.24,0.00,0.00,0.00,-0.00,0.00,-0.00,0.24,0.24,0.24,0.24,1017,1017,1035,1015
10746,0,0.00,-0.00,0.00,-0.00,0.00,0.00,0.24,0.00,0.00,0.00,-0.00,0.00,-0.00,0.24,0.24,0.24,0.24,1017,1017,1035,1015
10756,0,0.00,-0.00,0.00,0.00,0.00,0.00,0.24,0.00,0.00,0.00,-0.00,0.00,-0.00,0.24,0.24,0.24,0.24,1017,1017,1035,1015
10766,0,0.00,-0.00,0.00,0.00,-0.00,0.00,0.24,0.00,0.00,0.00,-0.00,0.00,-0.00,0.24,0.24,0.24,0.24,1017,1017,1035,1015
10778,0,0.00,-0.00,0.00,-0.00,-0.00,-0.00,0.24,0.00,0.00,0.00,-0.00,0.00,-0.00,0.24,0.24,0.24,0.24,1017,1017,1035,1015
10787,0,0.00,-0.00,0.00,-0.00,-0.00,0.00,0.24,0.00,0.00,0.00,-0.00,0.00,-0.00,0.24,0.24,0.24,0.24,1017,1017,1035,1015
10795,0,0.00,-0.00,0.00,-0.00,-0.00,0.00,0.24,0.00,0.00,0.00,-0.00,0.00,-0.00,0.24,0.24,0.24,0.24,1017,1017,1035,1015
10804,0,0.00,-0.00,0.00,-0.00,0.00,0.00,0.24,0.00,0.00,0.00,-0.00,0.00,-0.00,0.24,0.24,0.24,0.24,1017,1017,1035,1015
10812,0,0.00,-0.00,0.00,0.00,0.00,-0.00,0.24,0.00,0.00,0.00,-0.00,0.00,-0.00,0.24,0.24,0.25,0.24,1018,1018,1036,1016
10819,0,0.00,-0.00,0.00,0.00,0.00,-0.00,0.24,0.00,0.00,0.00,-0.00,0.00,-0.00,0.24,0.24,0.25,0.24,1018,1018,1036,1016
10828,0,0.00,-0.00,0.00,-0.00,-0.00,0.00,0.24,0.00,0.00,0.00,-0.00,0.00,-0.00,0.24,0.24,0.25,0.24,1018,1018,1036,1015
10838,0,0.00,-0.00,0.00,-0.00,-0.00,0.00,0.24,0.00,0.00,0.00,-0.00,0.00,-0.00,0.24,0.24,0.25,0.24,1018,1018,1036,1015
10847,0,0.00,-0.00,0.00,-0.00,-0.00,0.00,0.24,0.00,0.00,0.00,-0.00,0.00,-0.00,0.24,0.24,0.25,0.24,1018,1018,1036,1015
10857,0,0.00,-0.00,0.00,-0.00,-0.00,0.00,0.24,0.00,0.00,0.00,-0.00,0.00,-0.00,0.24,0.24,0.25,0.24,1018,1018,1036,1015
10869,0,0.00,-0.00,0.00,0.00,-0.00,0.00,0.24,0.00,0.00,0.00,-0.00,0.00,-0.00,0.24,0.24,0.25,0.24,1018,1018,1036,1015
10878,0,0.00,-0.00,0.00,0.00,-0.00,0.00,0.24,0.00,0.00,0.00,-0.00,0.00,-0.00,0.24,0.24,0.25,0.24,1018,1018,1036,1015
10890,0,0.00,-0.00,0.00,-0.00,0.00,-0.00,0.24,0.00,0.00,0.00,-0.00,0.00,-0.00,0.24,0.24,0.25,0.24,1018,1018,1036,1015
10899,0,0.00,-0.00,0.00,-0.00,0.00,-0.00,0.24,0.00,0.00,0.00,-0.00,0.00,-0.00,0.24,0.24,0.25,0.24,1018,1018,1036,1015
10908,0,0.00,-0.00,0.00,-0.00,0.00,-0.00,0.24,0.00,0.00,0.00,-0.00,0.00,-0.00,0.24,0.24,0.25,0.24,1018,1018,1036,1015
10918,0,0.00,-0.00,0.00,0.00,-0.00,0.00,0.24,0.00,0.00,0.00,-0.00,0.00,-0.00,0.24,0.24,0.25,0.24,1018,1017,1036,1015
10928,0,0.00,-0.00,0.00,0.00,-0.00,0.00,0.24,0.00,0.00,0.00,-0.00,0.00,-0.00,0.24,0.24,0.25,0.24,1018,1017,1036,1015
10938,0,0.00,-0.00,0.00,0.00,-0.00,-0.00,0.24,0.00,0.00,0.00,-0.00,0.00,-0.00,0.24,0.24,0.25,0.24,1019,1018,1037,1016
10946,0,0.00,-0.00,0.00,-0.00,0.00,-0.00,0.25,0.00,0.00,0.00,-0.00,0.00,-0.00,0.25,0.24,0.25,0.24,1020,1019,1038,1017
10953,0,0.00,-0.00,0.00,-0.00,0.00,-0.00,0.25,0.00,0.00,0.00,-0.00,0.00,-0.00,0.25,0.24,0.25,0.24,1020,1019,1038,1017
10961,0,0.00,-0.00,0.00,-0.00,0.00,-0.00,0.25,0.00,0.00,0.00,0.00,0.00,-0.00,0.25,0.24,0.25,0.24,1020,1019,1038,1017
10969,0,0.00,-0.00,0.00,0.00,-0.00,-0.00,0.25,0.00,0.00,0.00,0.00,0.00,-0.00,0.25,0.24,0.25,0.24,1020,1019,1038,1017
10978,0,0.00,-0.00,0.00,-0.00,-0.00,-0.00,0.25,0.00,0.00,0.00,0.00,0.00,-0.00,0.25,0.24,0.25,0.24,1020,1019,1038,1017
10988,0,0.00,-0.00,0.00,-0.00,-0.00,-0.00,0.25,0.00,0.00,0.00,0.00,0.00,-0.00,0.25,0.24,0.25,0.24,1020,1019,1038,1017
10996,0,0.00,-0.00,0.00,0.00,-0.00,0.00,0.27,0.00,0.00,0.00,-0.00,0.00,-0.00,0.27,0.27,0.27,0.27,1039,1039,1058,1037
11004,0,0.00,-0.00,0.00,0.00,0.00,0.00,0.27,0.00,0.00,0.00,-0.00,0.00,-0.00,0.27,0.27,0.28,0.27,1043,1042,1061,1040
11011,0,0.00,-0.00,0.00,0.00,0.00,0.00,0.27,0.00,0.00,0.00,-0.00,0.00,-0.00,0.27,0.27,0.28,0.27,1043,1042,1061,1040
11019,0,0.00,-0.00,0.00,-0.00,0.00,0.00,0.28,0.00,0.00,0.00,-0.00,0.00,-0.00,0.28,0.28,0.28,0.27,1045,1044,1064,1042
11028,0,0.00,-0.00,0.00,-0.00,0.00,0.00,0.28,0.00,0.00,0.00,-0.00,0.00,-0.00,0.28,0.28,0.28,0.27,1045,1044,1064,1042
11038,0,-0.00,-0.00,0.00,0.00,-0.00,0.00,0.28,0.00,0.00,0.00,-0.00,0.00,-0.00,0.28,0.28,0.28,0.27,1047,1046,1065,1044
11046,0,-0.00,-0.00,0.00,-0.00,-0.00,-0.00,0.28,0.00,0.00,0.00,-0.00,0.00,-0.00,0.28,0.28,0.28,0.27,1047,1046,1065,1044
11054,0,0.00,-0.00,0.00,-0.00,-0.00,-0.00,0.28,0.00,0.00,0.00,-0.00,0.00,-0.00,0.28,0.28,0.28,0.27,1047,1046,1065,1044
11062,0,0.00,-0.00,0.00,0.00,0.00,-0.00,0.28,0.00,0.00,0.00,-0.00,0.00,-0.00,0.28,0.28,0.28,0.27,1047,1046,1065,1044
11070,0,0.00,-0.00,0.00,-0.00,0.00,-0.00,0.28,0.00,0.00,0.00,-0.00,0.00,-0.00,0.28,0.28,0.28,0.27,1047,1046,1065,1044
11079,0,0.00,-0.00,0.00,0.00,0.00,-0.00,0.28,0.00,0.00,0.00,-0.00,0.00,-0.00,0.28,0.28,0.28,0.27,1047,1046,1065,1044
11088,0,0.00,-0.00,0.00,0.00,0.00,-0.00,0.28,0.00,0.00,0.00,-0.00,0.00,-0.00,0.28,0.28,0.28,0.27,1047,1046,1065,1044
11096,0,0.00,-0.00,0.00,-0.00,0.00,-0.00,0.29,0.00,0.00,0.00,-0.00,0.00,-0.00,0.29,0.29,0.29,0.28,1055,1054,1073,1052
11104,0,0.00,-0.00,0.00,-0.00,-0.00,0.00,0.29,0.00,0.00,0.00,-0.00,0.00,-0.00,0.29,0.29,0.29,0.29,1057,1056,1075,1054
11112,0,-0.00,-0.00,0.00,0.00,-0.00,0.00,0.29,0.00,0.00,0.00,-0.00,0.00,-0.00,0.29,0.29,0.30,0.29,1058,1058,1077,1055
11120,0,-0.00,-0.00,0.00,-0.00,-0.00,0.00,0.29,0.00,0.00,0.00,-0.00,0.00,-0.00,0.29,0.29,0.30,0.29,1058,1058,1077,1055
11129,0,-0.00,-0.00,0.00,-0.00,0.00,-0.00,0.29,0.00,0.00,0.00,-0.00,0.00,-0.00,0.29,0.29,0.30,0.29,1058,1058,1077,1055
11138,0,-0.00,-0.00,0.00,-0.00,0.00,-0.00,0.30,0.00,0.00,0.00,-0.00,0.00,-0.00,0.30,0.30,0.30,0.29,1062,1062,1081,1059
11146,0,-0.00,-0.00,0.00,-0.00,0.00,0.00,0.30,0.00,0.00,0.00,-0.00,0.00,-0.00,0.30,0.30,0.30,0.29,1063,1062,1081,1059
11159,0,-0.00,-0.00,0.00,-0.00,-0.00,0.00,0.30,0.00,0.00,0.00,-0.00,0.00,-0.00,0.30,0.30,0.30,0.29,1063,1062,1081,1059
11169,0,-0.00,-0.00,0.00,-0.00,-0.00,-0.00,0.30,0.00,0.00,0.00,-0.00,0.00,-0.00,0.30,0.30,0.30,0.29,1063,1062,1082,1060
11178,0,-0.00,-0.00,0.00,-0.00,-0.00,-0.00,0.30,0.00,0.00,0.00,-0.00,0.00,-0.00,0.30,0.30,0.30,0.29,1063,1062,1082,1060
11188,0,-0.00,-0.00,0.00,0.00,0.00,-0.00,0.30,0.00,0.00,0.00,-0.00,0.00,-0.00,0.30,0.30,0.30,0.29,1063,1062,1082,1060
11196,0,-0.00,-0.00,0.00,0.00,0.00,-0.00,0.30,0.00,0.00,0.00,-0.00,0.00,-0.00,0.30,0.30,0.31,0.30,1067,1066,1085,1063
11204,0,-0.00,-0.00,0.00,-0.00,-0.00,-0.00,0.30,0.00,0.00,0.00,-0.00,0.00,-0.00,0.30,0.30,0.31,0.30,1067,1066,1085,1063
11211,0,0.00,-0.00,0.00,-0.00,0.00,-0.00,0.31,0.00,0.00,0.00,-0.00,0.00,-0.00,0.31,0.30,0.31,0.30,1069,1068,1088,1066
11219,0,0.00,-0.00,0.00,-0.00,-0.00,-0.00,0.31,0.00,0.00,0.00,-0.00,0.00,-0.00,0.31,0.30,0.31,0.30,1069,1068,1088,1066
11229,0,0.00,-0.00,0.00,-0.00,-0.00,-0.00,0.31,0.00,0.00,0.00,-0.00,0.00,-0.00,0.31,0.30,0.31,0.30,1069,1068,1088,1066
11239,0,0.00,-0.00,0.00,0.00,-0.00,0.00,0.31,0.00,0.00,0.00,-0.00,0.00,-0.00,0.31,0.31,0.31,0.30,1072,1071,1090,1068
11249,0,0.00,-0.00,0.00,0.00,-0.00,0.00,0.31,0.00,0.00,0.00,-0.00,0.00,-0.00,0.31,0.31,0.31,0.30,1072,1071,1090,1068
11258,0,0.00,-0.00,0.00,-0.00,0.00,-0.00,0.31,0.00,0.00,0.00,-0.00,0.00,-0.00,0.31,0.31,0.31,0.30,1072,1071,1090,1068
11268,0,0.00,-0.00,0.00,-0.00,0.00,-0.00,0.31,0.00,0.00,0.00,-0.00,0.00,-0.00,0.31,0.31,0.31,0.31,1074,1073,1093,1071
11278,0,0.00,-0.00,0.00,-0.00,0.00,-0.00,0.31,0.00,0.00,0.00,-0.00,0.00,-0.00,0.31,0.31,0.32,0.31,1075,1074,1093,1071
11288,0,0.00,-0.00,0.00,0.00,-0.00,0.00,0.31,0.00,0.00,0.00,-0.00,0.00,-0.00,0.31,0.31,0.32,0.31,1075,1074,1093,1071
11295,0,0.00,-0.00,0.00,-0.00,-0.00,-0.00,0.31,0.00,0.00,0.00,-0.00,0.00,-0.00,0.31,0.31,0.32,0.31,1075,1074,1093,1071
11303,0,0.00,-0.00,0.00,0.00,-0.00,-0.00,0.31,0.00,0.00,0.00,-0.00,0.00,-0.00,0.31,0.31,0.32,0.31,1076,1075,1094,1072
11311,0,0.00,-0.00,0.00,-0.00,-0.00,-0.00,0.31,0.00,0.00,0.00,-0.00,0.00,-0.00,0.31,0.31,0.32,0.31,1076,1075,1095,1073
11319,0,0.00,-0.00,0.00,-0.00,-0.00,-0.00,0.31,0.00,0.00,0.00,-0.00,0.00,-0.00,0.31,0.31,0.32,0.31,1076,1075,1095,1073
11329,0,0.00,-0.00,0.00,-0.00,-0.00,-0.00,0.31,0.00,0.00,0.00,0.00,0.00,-0.00,0.31,0.31,0.32,0.31,1076,1075,1095,1073
11339,0,0.00,-0.00,0.00,-0.00,-0.00,0.00,0.31,0.00,0.00,0.00,-0.00,0.00,-0.00,0.31,0.31,0.32,0.31,1076,1075,1095,1073
11346,0,0.00,-0.00,0.00,0.00,0.00,0.00,0.32,0.00,0.00,0.00,-0.00,0.00,-0.00,0.32,0.32,0.32,0.31,1080,1079,1098,1076
11354,0,0.00,-0.00,0.00,0.00,0.00,0.00,0.32,0.00,0.00,0.00,-0.00,0.00,-0.00,0.32,0.32,0.32,0.31,1080,1079,1098,1076
11362,0,-0.00,-0.00,0.00,0.00,0.00,0.00,0.32,0.00,0.00,0.00,-0.00,0.00,-0.00,0.32,0.32,0.32,0.31,1080,1079,1098,1076
11370,0,-0.00,-0.00,0.00,0.00,0.00,0.00,0.32,0.00,0.00,0.00,-0.00,0.00,-0.00,0.32,0.32,0.32,0.31,1080,1079,1098,1076
11379,0,-0.00,-0.00,0.00,0.00,0.00,0.00,0.32,0.00,0.00,0.00,-0.00,0.00,-0.00,0.32,0.32,0.32,0.31,1080,1079,1098,1076
11389,0,-0.00,-0.00,0.00,-0.00,0.00,0.00,0.32,0.00,0.00,0.00,-0.00,0.00,-0.00,0.32,0.32,0.32,0.31,1080,1079,1098,1076
11397,0,-0.00,-0.00,0.00,-0.00,-0.00,-0.00,0.33,0.00,0.00,0.00,-0.00,0.00,-0.00,0.33,0.33,0.33,0.32,1086,1085,1105,1082
11405,0,0.00,-0.00,0.00,-0.00,-0.00,-0.00,0.33,0.00,0.00,0.00,-0.00,0.00,-0.00,0.33,0.33,0.33,0.32,1086,1085,1105,1083
11414,0,0.00,-0.00,0.00,0.00,-0.00,-0.00,0.33,0.00,0.00,0.00,-0.00,0.00,-0.00,0.33,0.33,0.33,0.33,1090,1088,1108,1086
11421,0,0.00,-0.00,0.00,0.00,-0.00,-0.00,0.33,0.00,0.00,0.00,-0.00,0.00,-0.00,0.33,0.33,0.33,0.33,1091,1089,1109,1087
11436,0,0.00,-0.00,0.00,0.00,0.00,-0.00,0.33,0.00,0.00,0.00,-0.00,0.00,-0.00,0.33,0.33,0.33,0.33,1090,1089,1109,1087
11444,0,0.00,-0.00,0.00,0.00,0.00,-0.00,0.33,0.00,0.00,0.00,-0.00,0.00,-0.00,0.33,0.33,0.33,0.33,1090,1089,1109,1087
11452,0,0.00,-0.00,0.00,-0.00,0.00,0.00,0.33,0.00,0.00,0.00,-0.00,0.00,-0.00,0.33,0.33,0.34,0.33,1091,1090,1110,1087
11460,0,0.00,-0.00,0.00,0.00,0.00,0.00,0.33,0.00,0.00,0.00,0.00,0.00,-0.00,0.33,0.33,0.34,0.33,1091,1090,1110,1087
11469,0,0.00,-0.00,0.00,0.00,0.00,0.00,0.33,0.00,0.00,0.00,0.00,0.00,-0.00,0.33,0.33,0.34,0.33,1091,1090,1110,1087
11479,0,0.00,-0.00,0.00,0.00,-0.00,0.00,0.33,0.00,0.00,0.00,-0.00,0.00,-0.00,0.33,0.33,0.34,0.33,1092,1090,1110,1087
11489,0,-0.00,-0.00,0.00,-0.00,-0.00,0.00,0.33,0.00,0.00,0.00,-0.00,0.00,-0.00,0.33,0.33,0.34,0.33,1091,1090,1110,1087
11498,0,-0.00,-0.00,0.00,0.00,-0.00,0.00,0.33,0.00,0.00,0.00,-0.00,0.00,-0.00,0.33,0.33,0.34,0.33,1091,1090,1110,1087
11506,0,-0.00,-0.00,0.00,0.00,-0.00,0.00,0.33,0.00,0.00,0.00,-0.00,0.00,-0.00,0.33,0.33,0.34,0.33,1092,1090,1110,1087
11516,0,-0.00,-0.00,0.00,-0.00,0.00,0.00,0.33,0.00,0.00,0.00,-0.00,0.00,-0.00,0.33,0.33,0.34,0.33,1092,1091,1111,1088
11526,0,-0.00,-0.00,0.00,-0.00,0.00,0.00,0.33,0.00,0.00,0.00,-0.00,0.00,-0.00,0.33,0.33,0.34,0.33,1092,1091,1111,1088
11535,0,-0.00,-0.00,0.00,-0.00,-0.00,-0.00,0.33,0.00,0.00,0.00,-0.00,0.00,-0.00,0.33,0.33,0.34,0.33,1092,1091,1111,1088
11543,0,-0.00,-0.00,0.00,0.00,0.00,-0.00,0.33,0.00,0.00,0.00,-0.00,0.00,-0.00,0.33,0.33,0.34,0.33,1092,1091,1111,1088
11551,0,-0.00,-0.00,0.00,0.00,-0.00,-0.00,0.33,0.00,0.00,0.00,-0.00,0.00,-0.00,0.33,0.33,0.34,0.33,1092,1091,1111,1088
11559,0,-0.00,-0.00,0.00,0.00,-0.00,-0.00,0.33,0.00,0.00,0.00,-0.00,0.00,-0.00,0.33,0.33,0.34,0.33,1092,1091,1111,1088
11569,0,0.00,-0.00,0.00,-0.00,0.00,-0.00,0.33,0.00,0.00,0.00,-0.00,0.00,-0.00,0.33,0.33,0.34,0.33,1092,1091,1111,1088
11580,0,0.00,-0.00,0.00,-0.00,-0.00,-0.00,0.33,0.00,0.00,0.00,-0.00,0.00,-0.00,0.34,0.33,0.34,0.33,1093,1092,1112,1089
11589,0,0.00,-0.00,0.00,-0.00,-0.00,-0.00,0.33,0.00,0.00,0.00,-0.00,0.00,-0.00,0.34,0.33,0.34,0.33,1093,1092,1112,1089
11597,0,0.00,-0.00,0.00,-0.00,-0.00,-0.00,0.33,0.00,0.00,0.00,-0.00,0.00,-0.00,0.34,0.33,0.34,0.33,1093,1092,1112,1089
11605,0,0.00,-0.00,0.00,-0.00,-0.00,-0.00,0.33,0.00,0.00,0.00,-0.00,0.00,-0.00,0.34,0.33,0.34,0.33,1093,1092,1112,1089
11612,0,0.00,-0.00,0.00,-0.00,0.00,0.00,0.33,0.00,0.00,0.00,-0.00,0.00,-0.00,0.33,0.33,0.34,0.33,1093,1092,1112,1089
11620,0,0.00,-0.00,0.00,-0.00,0.00,0.00,0.33,0.00,0.00,0.00,-0.00,0.00,-0.00,0.33,0.33,0.34,0.33,1093,1092,1112,1089
11630,0,0.00,-0.00,0.00,-0.00,0.00,0.00,0.33,0.00,0.00,0.00,-0.00,0.00,-0.00,0.33,0.33,0.34,0.33,1093,1092,1112,1089
11640,0,0.00,-0.00,0.00,-0.00,0.00,0.00,0.34,0.00,0.00,0.00,-0.00,0.00,-0.00,0.34,0.34,0.34,0.33,1095,1093,1114,1090
11647,0,0.00,-0.00,0.00,-0.00,-0.00,0.00,0.34,0.00,0.00,0.00,-0.00,0.00,-0.00,0.34,0.34,0.34,0.33,1095,1093,1114,1090
11655,0,0.00,-0.00,0.00,-0.00,-0.00,0.00,0.34,0.00,0.00,0.00,-0.00,0.00,-0.00,0.34,0.34,0.34,0.33,1095,1093,1114,1090
