t,is_crashed,roll,pitch,yaw,p,q,r,throttle,p_cmd,q_cmd,r_cmd,roll_cmd,pitch_cmd,yaw_cmd,roll_pid_out,pitch_pid_out,yaw_pid_out,motor_fl,motor_bl,motor_fr,motor_br,pwm_fl,pwm_bl,pwm_fr,pwm_br
7108,0,2.250000,0.625000,1.125000,0.12,0.00,0.059375,-1.000000,0.000000,0.000000,0.000000,0.000000,0.000000,0.000000,0.000000,0.000000,0.000000,0.000000,0.000000,0.000000,0.000000,0,0,0,0
7121,0,0.000000,0.000000,1.125000,-8.65,-2.46,-0.115781,-1.000000,0.000000,0.000000,0.000000,0.000000,0.000000,0.000000,0.000000,0.000000,0.000000,0.000000,0.000000,0.000000,0.000000,819,819,819,819
7132,0,0.000000,0.000000,1.125000,-0.06,0.00,-0.005789,-1.000000,0.000000,0.000000,0.000000,0.000000,0.000000,0.000000,0.000000,0.000000,0.000000,0.000000,0.000000,0.000000,0.000000,819,819,819,819
7141,0,0.000000,0.000000,1.125000,0.00,0.12,-0.000289,-1.000000,0.000000,0.000000,0.000000,0.000000,0.000000,0.000000,0.000000,0.000000,0.000000,0.000000,0.000000,0.000000,0.000000,819,819,819,819
7152,0,0.000000,0.000000,1.125000,0.00,0.06,-0.059389,-1.000000,0.000000,0.000000,0.000000,0.000000,0.000000,0.000000,0.000000,0.000000,0.000000,0.000000,0.000000,0.000000,0.000000,819,819,819,819
7162,0,0.000000,0.000000,1.125000,0.06,0.06,-0.062344,-1.000000,0.000000,0.000000,0.000000,0.000000,0.000000,0.000000,0.000000,0.000000,0.000000,0.000000,0.000000,0.000000,0.000000,819,819,819,819
7173,0,0.000000,0.000000,1.125000,-0.06,0.06,-0.003117,-1.000000,0.000000,0.000000,0.000000,0.000000,0.000000,0.000000,0.000000,0.000000,0.000000,0.000000,0.000000,0.000000,0.000000,819,819,819,819
7182,0,0.000000,0.000000,1.125000,-0.12,-0.12,-0.059531,-1.000000,0.000000,0.000000,0.000000,0.000000,0.000000,0.000000,0.000000,0.000000,0.000000,0.000000,0.000000,0.000000,0.000000,819,819,819,819
7193,0,0.000000,0.000000,1.125000,-0.18,0.00,0.175148,-1.000000,0.000000,0.000000,0.000000,0.000000,0.000000,0.000000,0.000000,0.000000,0.000000,0.000000,0.000000,0.000000,0.000000,819,819,819,819
7203,0,0.000000,0.000000,1.125000,0.00,-0.06,0.008757,-1.000000,0.000000,0.000000,0.000000,0.000000,0.000000,0.000000,0.000000,0.000000,0.000000,0.000000,0.000000,0.000000,0.000000,819,819,819,819
7213,0,0.000000,0.000000,1.125000,0.00,0.06,0.000438,-1.000000,0.000000,0.000000,0.000000,0.000000,0.000000,0.000000,0.000000,0.000000,0.000000,0.000000,0.000000,0.000000,0.000000,819,819,819,819
7223,0,0.000000,0.000000,1.125000,-0.06,0.06,0.000022,-1.000000,0.000000,0.000000,0.000000,0.000000,0.000000,0.000000,0.000000,0.000000,0.000000,0.000000,0.000000,0.000000,0.000000,819,819,819,819
7233,0,0.000000,0.000000,1.125000,-0.12,0.06,-0.118749,-1.000000,0.000000,0.000000,0.000000,0.000000,0.000000,0.000000,0.000000,0.000000,0.000000,0.000000,0.000000,0.000000,0.000000,819,819,819,819
7244,0,0.000000,0.000000,1.125000,-0.12,-0.12,0.053438,-1.000000,0.000000,0.000000,0.000000,0.000000,0.000000,0.000000,0.000000,0.000000,0.000000,0.000000,0.000000,0.000000,0.000000,819,819,819,819
7254,0,0.000000,0.000000,1.125000,0.12,0.06,-0.116078,-1.000000,0.000000,0.000000,0.000000,0.000000,0.000000,0.000000,0.000000,0.000000,0.000000,0.000000,0.000000,0.000000,0.000000,819,819,819,819
7271,0,0.000000,0.000000,1.125000,-0.06,0.12,-0.005804,-1.000000,0.000000,0.000000,0.000000,0.000000,0.000000,0.000000,0.000000,0.000000,0.000000,0.000000,0.000000,0.000000,0.000000,819,819,819,819
7282,0,0.000000,0.000000,1.125000,0.00,0.06,-0.000290,-1.000000,0.000000,0.000000,0.000000,0.000000,0.000000,0.000000,0.000000,0.000000,0.000000,0.000000,0.000000,0.000000,0.000000,819,819,819,819
7292,0,0.000000,0.000000,1.125000,-0.06,-0.06,-0.059390,-1.000000,0.000000,0.000000,0.000000,0.000000,0.000000,0.000000,0.000000,0.000000,0.000000,0.000000,0.000000,0.000000,0.000000,819,819,819,819
7302,0,0.000000,0.000000,1.125000,-0.06,-0.06,-0.002969,-1.000000,0.000000,0.000000,0.000000,0.000000,0.000000,0.000000,0.000000,0.000000,0.000000,0.000000,0.000000,0.000000,0.000000,819,819,819,819
7312,0,0.000000,0.000000,1.125000,-0.12,-0.12,0.059227,-1.000000,0.000000,0.000000,0.000000,0.000000,0.000000,0.000000,0.000000,0.000000,0.000000,0.000000,0.000000,0.000000,0.000000,819,819,819,819
7323,0,0.000000,0.000000,1.125000,0.00,0.06,-0.115789,-1.000000,0.000000,0.000000,0.000000,0.000000,0.000000,0.000000,0.000000,0.000000,0.000000,0.000000,0.000000,0.000000,0.000000,819,819,819,819
7333,0,0.000000,0.000000,1.125000,0.00,0.00,-0.065164,-1.000000,0.000000,0.000000,0.000000,0.000000,0.000000,0.000000,0.000000,0.000000,0.000000,0.000000,0.000000,0.000000,0.000000,819,819,819,819
7343,0,0.000000,0.000000,1.125000,0.06,-0.24,0.056117,-1.000000,0.000000,0.000000,0.000000,0.000000,0.000000,0.000000,0.000000,0.000000,0.000000,0.000000,0.000000,0.000000,0.000000,819,819,819,819
7352,0,0.000000,0.000000,1.125000,-0.06,-0.18,-0.115944,-1.000000,0.000000,0.000000,0.000000,0.000000,0.000000,0.000000,0.000000,0.000000,0.000000,0.000000,0.000000,0.000000,0.000000,819,819,819,819
7362,0,0.000000,0.000000,1.125000,0.06,-0.12,-0.005797,-1.000000,0.000000,0.000000,0.000000,0.000000,0.000000,0.000000,0.000000,0.000000,0.000000,0.000000,0.000000,0.000000,0.000000,819,819,819,819
7373,0,0.000000,0.000000,1.125000,0.00,0.12,0.059085,-1.000000,0.000000,0.000000,0.000000,0.000000,0.000000,0.000000,0.000000,0.000000,0.000000,0.000000,0.000000,0.000000,0.000000,819,819,819,819
7383,0,0.000000,0.000000,1.125000,-0.12,-0.18,0.002954,-1.000000,0.000000,0.000000,0.000000,0.000000,0.000000,0.000000,0.000000,0.000000,0.000000,0.000000,0.000000,0.000000,0.000000,819,819,819,819
7393,0,0.000000,0.000000,1.125000,0.00,0.18,-0.059227,-1.000000,0.000000,0.000000,0.000000,0.000000,0.000000,0.000000,0.000000,0.000000,0.000000,0.000000,0.000000,0.000000,0.000000,819,819,819,819
7403,0,0.000000,0.000000,1.125000,0.00,-0.30,0.472039,-1.000000,0.000000,0.000000,0.000000,0.000000,0.000000,0.000000,0.000000,0.000000,0.000000,0.000000,0.000000,0.000000,0.000000,819,819,819,819
7413,0,0.000000,0.000000,1.125000,-0.06,1.01,-0.035773,-1.000000,0.000000,0.000000,0.000000,0.000000,0.000000,0.000000,0.000000,0.000000,0.000000,0.000000,0.000000,0.000000,0.000000,819,819,819,819
7424,0,0.000000,-0.062500,1.125000,0.00,1.08,-0.654914,-1.000000,0.000000,0.000000,0.000000,0.000000,0.000000,0.000000,0.000000,0.000000,0.000000,0.000000,0.000000,0.000000,0.000000,819,819,819,819
7434,0,0.000000,0.000000,1.125000,0.06,-1.05,0.442254,-1.000000,0.000000,0.000000,0.000000,0.000000,0.000000,0.000000,0.000000,0.000000,0.000000,0.000000,0.000000,0.000000,0.000000,819,819,819,819
7444,0,0.000000,0.000000,1.125000,-0.12,-0.59,0.556488,-1.000000,0.000000,0.000000,0.000000,0.000000,0.000000,0.000000,0.000000,0.000000,0.000000,0.000000,0.000000,0.000000,0.000000,819,819,819,819
7454,0,0.000000,-0.062500,1.125000,-0.06,1.23,-0.922176,-1.000000,0.000000,0.000000,0.000000,0.000000,0.000000,0.000000,0.000000,0.000000,0.000000,0.000000,0.000000,0.000000,0.000000,819,819,819,819
7464,0,0.000000,0.000000,1.125000,-0.12,-0.70,0.132016,-1.000000,0.000000,0.000000,0.000000,0.000000,0.000000,0.000000,0.000000,0.000000,0.000000,0.000000,0.000000,0.000000,0.000000,819,819,819,819
7474,0,0.000000,0.000000,1.125000,0.06,-0.59,0.303476,-1.000000,0.000000,0.000000,0.000000,0.000000,0.000000,0.000000,0.000000,0.000000,0.000000,0.000000,0.000000,0.000000,0.000000,819,819,819,819
7484,0,0.000000,0.000000,1.125000,0.00,-0.24,-0.162951,-1.000000,0.000000,0.000000,0.000000,0.000000,0.000000,0.000000,0.000000,0.000000,0.000000,0.000000,0.000000,0.000000,0.000000,819,819,819,819
7494,0,0.000000,0.000000,1.125000,0.00,0.71,-0.305023,-1.000000,0.000000,0.000000,0.000000,0.000000,0.000000,0.000000,0.000000,0.000000,0.000000,0.000000,0.000000,0.000000,0.000000,819,819,819,819
7504,0,0.000000,-0.062500,1.125000,-0.12,0.82,-0.787126,-1.000000,0.000000,0.000000,0.000000,0.000000,0.000000,0.000000,0.000000,0.000000,0.000000,0.000000,0.000000,0.000000,0.000000,819,819,819,819
7514,0,0.000000,-0.062500,1.125000,-0.06,-0.42,0.316894,-1.000000,0.000000,0.000000,0.000000,0.000000,0.000000,0.000000,0.000000,0.000000,0.000000,0.000000,0.000000,0.000000,0.000000,819,819,819,819
7524,0,0.000000,-0.062500,1.125000,0.06,0.12,-0.281030,-1.000000,0.000000,0.000000,0.000000,0.000000,0.000000,0.000000,0.000000,0.000000,0.000000,0.000000,0.000000,0.000000,0.000000,819,819,819,819
7535,0,0.000000,-0.062500,1.125000,-0.06,0.83,-0.310927,-1.000000,0.000000,0.000000,0.000000,0.000000,0.000000,0.000000,0.000000,0.000000,0.000000,0.000000,0.000000,0.000000,0.000000,819,819,819,819
7544,0,0.000000,-0.062500,1.125000,0.06,-0.59,0.578204,-1.000000,0.000000,0.000000,0.000000,0.000000,0.000000,0.000000,0.000000,0.000000,0.000000,0.000000,0.000000,0.000000,0.000000,819,819,819,819
7554,0,0.000000,-0.062500,1.125000,-0.06,-0.53,0.325785,-1.000000,0.000000,0.000000,0.000000,0.000000,0.000000,0.000000,0.000000,0.000000,0.000000,0.000000,0.000000,0.000000,0.000000,819,819,819,819
7564,0,0.000000,-0.062500,1.125000,0.00,-1.25,0.372539,-1.000000,0.000000,0.000000,0.000000,0.000000,0.000000,0.000000,0.000000,0.000000,0.000000,0.000000,0.000000,0.000000,0.000000,819,819,819,819
7575,0,0.000000,-0.062500,1.125000,-0.06,0.47,-0.753248,-1.000000,0.000000,0.000000,0.000000,0.000000,0.000000,0.000000,0.000000,0.000000,0.000000,0.000000,0.000000,0.000000,0.000000,819,819,819,819
7590,0,0.062500,-0.062500,1.125000,0.27,0.65,-2.768912,-1.000000,0.000000,0.000000,0.000000,0.000000,0.000000,0.000000,0.000000,0.000000,0.000000,0.000000,0.000000,0.000000,0.000000,819,819,819,819
7601,0,0.125000,-0.062500,1.125000,0.17,1.07,-4.888446,-1.000000,0.000000,0.000000,0.000000,0.000000,0.000000,0.000000,0.000000,0.000000,0.000000,0.000000,0.000000,0.000000,0.000000,819,819,819,819
7612,0,0.125000,-0.062500,1.125000,0.12,-1.96,-1.253797,-1.000000,0.000000,0.000000,0.000000,0.000000,0.000000,0.000000,0.000000,0.000000,0.000000,0.000000,0.000000,0.000000,0.000000,819,819,819,819
7622,0,0.125000,0.000000,1.125000,0.00,-0.22,2.371685,-1.000000,0.000000,0.000000,0.000000,0.000000,0.000000,0.000000,0.000000,0.000000,0.000000,0.000000,0.000000,0.000000,0.000000,819,819,819,819
7633,0,0.062500,0.000000,1.125000,-0.22,0.30,5.581084,-1.000000,0.000000,0.000000,0.000000,0.000000,0.000000,0.000000,0.000000,0.000000,0.000000,0.000000,0.000000,0.000000,0.000000,819,819,819,819
7643,0,0.000000,-0.062500,1.125000,-0.19,0.99,6.810304,-1.000000,0.000000,0.000000,0.000000,0.000000,0.000000,0.000000,0.000000,0.000000,0.000000,0.000000,0.000000,0.000000,0.000000,819,819,819,819
7653,0,-0.062500,-0.062500,1.125000,-0.37,1.78,4.259265,-1.000000,0.000000,0.000000,0.000000,0.000000,0.000000,0.000000,0.000000,0.000000,0.000000,0.000000,0.000000,0.000000,0.000000,819,819,819,819
7663,0,-0.062500,-0.062500,1.125000,0.00,1.60,-0.202662,-1.000000,0.000000,0.000000,0.000000,0.000000,0.000000,0.000000,0.000000,0.000000,0.000000,0.000000,0.000000,0.000000,0.000000,819,819,819,819
7673,0,0.000000,-0.062500,1.125000,0.25,-0.42,-3.632008,-1.000000,0.000000,0.000000,0.000000,0.000000,0.000000,0.000000,0.000000,0.000000,0.000000,0.000000,0.000000,0.000000,0.000000,819,819,819,819
7683,0,0.062500,-0.062500,1.125000,0.31,-1.31,-7.009726,-1.000000,0.000000,0.000000,0.000000,0.000000,0.000000,0.000000,0.000000,0.000000,0.000000,0.000000,0.000000,0.000000,0.000000,819,819,819,819
7693,0,0.125000,-0.062500,1.125000,0.31,-1.96,-7.712986,-1.000000,0.000000,0.000000,0.000000,0.000000,0.000000,0.000000,0.000000,0.000000,0.000000,0.000000,0.000000,0.000000,0.000000,819,819,819,819
7703,0,0.187500,0.000000,1.125000,0.31,-1.53,-4.898149,-1.000000,0.000000,0.000000,0.000000,0.000000,0.000000,0.000000,0.000000,0.000000,0.000000,0.000000,0.000000,0.000000,0.000000,819,819,819,819
7713,0,0.187500,0.000000,1.125000,0.00,-0.24,-1.254282,-1.000000,0.000000,0.000000,0.000000,0.000000,0.000000,0.000000,0.000000,0.000000,0.000000,0.000000,0.000000,0.000000,0.000000,819,819,819,819
7723,0,0.187500,-0.062500,1.125000,-0.06,1.41,1.599786,-1.000000,0.000000,0.000000,0.000000,0.000000,0.000000,0.000000,0.000000,0.000000,0.000000,0.000000,0.000000,0.000000,0.000000,819,819,819,819
7733,0,0.125000,-0.062500,1.125000,-0.25,0.00,3.286239,-1.000000,0.000000,0.000000,0.000000,0.000000,0.000000,0.000000,0.000000,0.000000,0.000000,0.000000,0.000000,0.000000,0.000000,819,819,819,819
7743,0,0.125000,0.000000,1.125000,0.06,-0.82,3.251812,-1.000000,0.000000,0.000000,0.000000,0.000000,0.000000,0.000000,0.000000,0.000000,0.000000,0.000000,0.000000,0.000000,0.000000,819,819,819,819
7753,0,0.125000,-0.062500,1.125000,0.06,1.11,1.112591,-1.000000,0.000000,0.000000,0.000000,0.000000,0.000000,0.000000,0.000000,0.000000,0.000000,0.000000,0.000000,0.000000,0.000000,819,819,819,819
7763,0,0.125000,-0.062500,1.125000,0.06,0.77,-0.775620,-1.000000,0.000000,0.000000,0.000000,0.000000,0.000000,0.000000,0.000000,0.000000,0.000000,0.000000,0.000000,0.000000,0.000000,819,819,819,819
7773,0,0.125000,0.000000,1.125000,0.00,-1.71,-0.157531,-1.000000,0.000000,0.000000,0.000000,0.000000,0.000000,0.000000,0.000000,0.000000,0.000000,0.000000,0.000000,0.000000,0.000000,819,819,819,819
7783,0,0.125000,0.000000,1.125000,-0.12,-2.85,0.348373,-1.000000,0.000000,0.000000,0.000000,0.000000,0.000000,0.000000,0.000000,0.000000,0.000000,0.000000,0.000000,0.000000,0.000000,819,819,819,819
7793,0,0.125000,0.000000,1.187500,0.06,-0.95,1.145544,-1.000000,0.000000,0.000000,0.000000,0.000000,0.000000,0.000000,0.000000,0.000000,0.000000,0.000000,0.000000,0.000000,0.000000,819,819,819,819
7803,0,0.062500,0.000000,1.187500,-0.31,0.00,2.254152,-1.000000,0.000000,0.000000,0.000000,0.000000,0.000000,0.000000,0.000000,0.000000,0.000000,0.000000,0.000000,0.000000,0.000000,819,819,819,819
7813,0,0.062500,0.000000,1.187500,0.00,0.89,2.725207,-1.000000,0.000000,0.000000,0.000000,0.000000,0.000000,0.000000,0.000000,0.000000,0.000000,0.000000,0.000000,0.000000,0.000000,819,819,819,819
7823,0,0.062500,0.000000,1.125000,0.00,1.37,1.680010,-1.000000,0.000000,0.000000,0.000000,0.000000,0.000000,0.000000,0.000000,0.000000,0.000000,0.000000,0.000000,0.000000,0.000000,819,819,819,819
7833,0,0.000000,0.000000,1.187500,-0.31,-0.12,1.330876,-1.000000,0.000000,0.000000,0.000000,0.000000,0.000000,0.000000,0.000000,0.000000,0.000000,0.000000,0.000000,0.000000,0.000000,819,819,819,819
7844,0,0.000000,0.000000,1.187500,0.18,-0.95,0.719669,-1.000000,0.000000,0.000000,0.000000,0.000000,0.000000,0.000000,0.000000,0.000000,0.000000,0.000000,0.000000,0.000000,0.000000,819,819,819,819
7854,0,0.062500,0.000000,1.187500,0.37,0.36,-1.032767,-1.000000,0.000000,0.000000,0.000000,0.000000,0.000000,0.000000,0.000000,0.000000,0.000000,0.000000,0.000000,0.000000,0.000000,819,819,819,819
7864,0,0.062500,0.000000,1.187500,0.06,-0.77,0.126487,-1.000000,0.000000,0.000000,0.000000,0.000000,0.000000,0.000000,0.000000,0.000000,0.000000,0.000000,0.000000,0.000000,0.000000,819,819,819,819
7875,0,0.000000,0.000000,1.187500,-0.28,-1.01,0.956324,-1.000000,0.000000,0.000000,0.000000,0.000000,0.000000,0.000000,0.000000,0.000000,0.000000,0.000000,0.000000,0.000000,0.000000,819,819,819,819
7885,0,0.000000,0.062500,1.187500,-0.06,-1.23,2.422816,-1.000000,0.000000,0.000000,0.000000,0.000000,0.000000,0.000000,0.000000,0.000000,0.000000,0.000000,0.000000,0.000000,0.000000,819,819,819,819
7895,0,-0.062500,0.062500,1.187500,-0.49,0.30,3.149266,-1.000000,0.000000,0.000000,0.000000,0.000000,0.000000,0.000000,0.000000,0.000000,0.000000,0.000000,0.000000,0.000000,0.000000,819,819,819,819
7912,0,-0.062500,0.000000,1.187500,0.00,0.83,2.651213,-1.000000,0.000000,0.000000,0.000000,0.000000,0.000000,0.000000,0.000000,0.000000,0.000000,0.000000,0.000000,0.000000,0.000000,819,819,819,819
7923,0,-0.062500,0.000000,1.187500,-0.12,0.47,0.073186,-1.000000,0.000000,0.000000,0.000000,0.000000,0.000000,0.000000,0.000000,0.000000,0.000000,0.000000,0.000000,0.000000,0.000000,819,819,819,819
7933,0,-0.062500,0.000000,1.187500,-0.06,-0.18,-1.480716,-1.000000,0.000000,0.000000,0.000000,0.000000,0.000000,0.000000,0.000000,0.000000,0.000000,0.000000,0.000000,0.000000,0.000000,819,819,819,819
7943,0,-0.062500,0.000000,1.187500,0.00,-0.53,-1.736536,-1.000000,0.000000,0.000000,0.000000,0.000000,0.000000,0.000000,0.000000,0.000000,0.000000,0.000000,0.000000,0.000000,0.000000,819,819,819,819
7953,0,0.000000,0.000000,1.187500,0.19,-0.83,-0.918077,-1.000000,0.000000,0.000000,0.000000,0.000000,0.000000,0.000000,0.000000,0.000000,0.000000,0.000000,0.000000,0.000000,0.000000,819,819,819,819
7966,0,-0.062500,0.000000,1.187500,-0.24,-0.42,0.844721,-1.000000,0.000000,0.000000,0.000000,0.000000,0.000000,0.000000,0.000000,0.000000,0.000000,0.000000,0.000000,0.000000,0.000000,819,819,819,819
7975,0,-0.062500,0.000000,1.187500,-0.06,0.06,2.417236,-1.000000,0.000000,0.000000,0.000000,0.000000,0.000000,0.000000,0.000000,0.000000,0.000000,0.000000,0.000000,0.000000,0.000000,819,819,819,819
7985,0,-0.062500,0.000000,1.187500,0.06,0.71,3.089612,-1.000000,0.000000,0.000000,0.000000,0.000000,0.000000,0.000000,0.000000,0.000000,0.000000,0.000000,0.000000,0.000000,0.000000,819,819,819,819
8113,0,-0.062500,0.000000,1.187500,-0.06,-0.47,-1.092394,-1.000000,0.000000,0.000000,0.000000,0.000000,0.000000,0.000000,0.000000,0.000000,0.000000,0.000000,0.000000,0.000000,0.000000,819,819,819,819
8213,0,0.000000,0.000000,1.187500,0.03,-0.12,-0.173370,-1.000000,0.000000,0.000000,0.000000,0.000000,0.000000,0.000000,0.000000,0.000000,0.000000,0.000000,0.000000,0.000000,0.000000,819,819,819,819
8224,0,0.000000,0.000000,1.187500,0.06,-0.30,-0.543043,-1.000000,0.000000,0.000000,0.000000,0.000000,0.000000,0.000000,0.000000,0.000000,0.000000,0.000000,0.000000,0.000000,0.000000,819,819,819,819
8234,0,0.000000,0.000000,1.187500,0.06,-0.24,-0.858402,-1.000000,0.000000,0.000000,0.000000,0.000000,0.000000,0.000000,0.000000,0.000000,0.000000,0.000000,0.000000,0.000000,0.000000,819,819,819,819
8244,0,0.000000,0.000000,1.187500,0.00,-0.06,-0.696045,-1.000000,0.000000,0.000000,0.000000,0.000000,0.000000,0.000000,0.000000,0.000000,0.000000,0.000000,0.000000,0.000000,0.000000,819,819,819,819
8254,0,0.000000,0.000000,1.187500,-0.18,0.06,-0.391052,-1.000000,0.000000,0.000000,0.000000,0.000000,0.000000,0.000000,0.000000,0.000000,0.000000,0.000000,0.000000,0.000000,0.000000,819,819,819,819
8264,0,0.000000,0.000000,1.187500,0.00,0.06,-0.257053,-1.000000,0.000000,0.000000,0.000000,0.000000,0.000000,0.000000,0.000000,0.000000,0.000000,0.000000,0.000000,0.000000,0.000000,819,819,819,819
8274,0,0.000000,0.000000,1.187500,-0.06,0.06,-0.190978,-1.000000,0.000000,0.000000,0.000000,0.000000,0.000000,0.000000,0.000000,0.000000,0.000000,0.000000,0.000000,0.000000,0.000000,819,819,819,819
8285,0,0.000000,0.000000,1.187500,0.00,-0.18,-0.365799,-1.000000,0.000000,0.000000,0.000000,0.000000,0.000000,0.000000,0.000000,0.000000,0.000000,0.000000,0.000000,0.000000,0.000000,819,819,819,819
8295,0,0.000000,0.000000,1.187500,0.00,-0.12,-0.552665,-1.000000,0.000000,0.000000,0.000000,0.000000,0.000000,0.000000,0.000000,0.000000,0.000000,0.000000,0.000000,0.000000,0.000000,819,819,819,819
8305,0,0.000000,0.000000,1.187500,0.00,0.00,-0.918258,-1.000000,0.000000,0.000000,0.000000,0.000000,0.000000,0.000000,0.000000,0.000000,0.000000,0.000000,0.000000,0.000000,0.000000,819,819,819,819
8315,0,0.000000,0.000000,1.187500,0.00,0.00,-0.995913,-1.000000,0.000000,0.000000,0.000000,0.000000,0.000000,0.000000,0.000000,0.000000,0.000000,0.000000,0.000000,0.000000,0.000000,819,819,819,819
8325,0,0.000000,0.000000,1.187500,-0.12,-0.06,-0.999796,-1.000000,0.000000,0.000000,0.000000,0.000000,0.000000,0.000000,0.000000,0.000000,0.000000,0.000000,0.000000,0.000000,0.000000,819,819,819,819
8335,0,0.062500,0.000000,1.187500,0.25,-0.24,-0.703115,-1.000000,0.000000,0.000000,0.000000,0.000000,0.000000,0.000000,0.000000,0.000000,0.000000,0.000000,0.000000,0.000000,0.000000,819,819,819,819
8345,0,0.062500,0.000000,1.187500,0.00,-0.24,-0.391406,-1.000000,0.000000,0.000000,0.000000,0.000000,0.000000,0.000000,0.000000,0.000000,0.000000,0.000000,0.000000,0.000000,0.000000,819,819,819,819
8355,0,0.062500,0.000000,1.187500,0.00,-0.42,-0.078945,-1.000000,0.000000,0.000000,0.000000,0.000000,0.000000,0.000000,0.000000,0.000000,0.000000,0.000000,0.000000,0.000000,0.000000,819,819,819,819
8365,0,0.062500,0.000000,1.187500,-0.06,-0.12,-0.182072,-1.000000,0.000000,0.000000,0.000000,0.000000,0.000000,0.000000,0.000000,0.000000,0.000000,0.000000,0.000000,0.000000,0.000000,819,819,819,819
8375,0,0.062500,0.000000,1.187500,0.00,0.00,0.109646,-1.000000,0.000000,0.000000,0.000000,0.000000,0.000000,0.000000,0.000000,0.000000,0.000000,0.000000,0.000000,0.000000,0.000000,819,819,819,819
8385,0,0.062500,0.000000,1.187500,0.00,0.18,0.183607,-1.000000,0.000000,0.000000,0.000000,0.000000,0.000000,0.000000,0.000000,0.000000,0.000000,0.000000,0.000000,0.000000,0.000000,819,819,819,819
8395,0,0.062500,0.000000,1.187500,0.06,0.06,0.009180,-1.000000,0.000000,0.000000,0.000000,0.000000,0.000000,0.000000,0.000000,0.000000,0.000000,0.000000,0.000000,0.000000,0.000000,819,819,819,819
8405,0,0.062500,0.000000,1.187500,0.06,0.06,0.178584,-1.000000,0.000000,0.000000,0.000000,0.000000,0.000000,0.000000,0.000000,0.000000,0.000000,0.000000,0.000000,0.000000,0.000000,819,819,819,819
8415,0,0.062500,0.000000,1.187500,-0.12,-0.24,0.127679,-1.000000,0.000000,0.000000,0.000000,0.000000,0.000000,0.000000,0.000000,0.000000,0.000000,0.000000,0.000000,0.000000,0.000000,819,819,819,819
8425,0,0.062500,0.000000,1.187500,-0.06,-0.24,-0.112366,-1.000000,0.000000,0.000000,0.000000,0.000000,0.000000,0.000000,0.000000,0.000000,0.000000,0.000000,0.000000,0.000000,0.000000,819,819,819,819
8435,0,0.062500,0.000000,1.187500,0.06,-0.12,-0.183743,-1.000000,0.000000,0.000000,0.000000,0.000000,0.000000,0.000000,0.000000,0.000000,0.000000,0.000000,0.000000,0.000000,0.000000,819,819,819,819
8445,0,0.062500,0.000000,1.187500,-0.06,-0.06,-0.365437,-1.000000,0.000000,0.000000,0.000000,0.000000,0.000000,0.000000,0.000000,0.000000,0.000000,0.000000,0.000000,0.000000,0.000000,819,819,819,819
8455,0,0.062500,0.000000,1.187500,0.06,-0.18,0.100478,-1.000000,0.000000,0.000000,0.000000,0.000000,0.000000,0.000000,0.000000,0.000000,0.000000,0.000000,0.000000,0.000000,0.000000,819,819,819,819
8466,0,0.000000,0.000000,1.187500,-0.17,0.18,0.776899,-1.000000,0.000000,0.000000,0.000000,0.000000,0.000000,0.000000,0.000000,0.000000,0.000000,0.000000,0.000000,0.000000,0.000000,819,819,819,819
8476,0,0.000000,0.000000,1.187500,0.06,0.30,1.345095,-1.000000,0.000000,0.000000,0.000000,0.000000,0.000000,0.000000,0.000000,0.000000,0.000000,0.000000,0.000000,0.000000,0.000000,819,819,819,819
8486,0,0.000000,0.000000,1.187500,0.00,0.06,1.136005,-1.000000,0.000000,0.000000,0.000000,0.000000,0.000000,0.000000,0.000000,0.000000,0.000000,0.000000,0.000000,0.000000,0.000000,819,819,819,819
8496,0,0.000000,0.000000,1.187500,0.00,-0.06,-0.002575,-1.000000,0.000000,0.000000,0.000000,0.000000,0.000000,0.000000,0.000000,0.000000,0.000000,0.000000,0.000000,0.000000,0.000000,819,819,819,819
8506,0,0.000000,0.000000,1.187500,-0.06,-0.30,-1.543879,-1.000000,0.000000,0.000000,0.000000,0.000000,0.000000,0.000000,0.000000,0.000000,0.000000,0.000000,0.000000,0.000000,0.000000,819,819,819,819
8516,0,0.062500,0.000000,1.187500,0.25,-0.71,-2.749069,-1.000000,0.000000,0.000000,0.000000,0.000000,0.000000,0.000000,0.000000,0.000000,0.000000,0.000000,0.000000,0.000000,0.000000,819,819,819,819
8533,0,0.062500,0.000000,1.187500,0.06,-0.53,-2.809329,-1.000000,0.000000,0.000000,0.000000,0.000000,0.000000,0.000000,0.000000,0.000000,0.000000,0.000000,0.000000,0.000000,0.000000,819,819,819,819
8544,0,0.125000,0.000000,1.187500,0.17,-0.12,-0.971716,-1.000000,0.000000,0.000000,0.000000,0.000000,0.000000,0.000000,0.000000,0.000000,0.000000,0.000000,0.000000,0.000000,0.000000,819,819,819,819
8554,0,0.062500,0.000000,1.187500,-0.31,0.36,0.604539,-1.000000,0.000000,0.000000,0.000000,0.000000,0.000000,0.000000,0.000000,0.000000,0.000000,0.000000,0.000000,0.000000,0.000000,819,819,819,819
8565,0,0.062500,0.000000,1.187500,0.06,0.59,1.752102,-1.000000,0.000000,0.000000,0.000000,0.000000,0.000000,0.000000,0.000000,0.000000,0.000000,0.000000,0.000000,0.000000,0.000000,819,819,819,819
8575,0,0.062500,0.000000,1.187500,0.00,0.53,2.403230,-1.000000,0.000000,0.000000,0.000000,0.000000,0.000000,0.000000,0.000000,0.000000,0.000000,0.000000,0.000000,0.000000,0.000000,819,819,819,819
8585,0,0.000000,0.000000,1.187500,-0.31,0.24,2.138911,-1.000000,0.000000,0.000000,0.000000,0.000000,0.000000,0.000000,0.000000,0.000000,0.000000,0.000000,0.000000,0.000000,0.000000,819,819,819,819
8595,0,0.000000,0.000000,1.187500,0.06,0.06,1.294446,-1.000000,0.000000,0.000000,0.000000,0.000000,0.000000,0.000000,0.000000,0.000000,0.000000,0.000000,0.000000,0.000000,0.000000,819,819,819,819
8605,0,0.000000,0.000000,1.187500,0.06,-0.12,-0.113403,-1.000000,0.000000,0.000000,0.000000,0.000000,0.000000,0.000000,0.000000,0.000000,0.000000,0.000000,0.000000,0.000000,0.000000,819,819,819,819
8615,0,0.000000,0.000000,1.187500,0.00,0.06,-0.955670,-1.000000,0.000000,0.000000,0.000000,0.000000,0.000000,0.000000,0.000000,0.000000,0.000000,0.000000,0.000000,0.000000,0.000000,819,819,819,819
8624,0,0.062500,0.000000,1.187500,0.35,-0.06,-1.235283,-1.000000,0.000000,0.000000,0.000000,0.000000,0.000000,0.000000,0.000000,0.000000,0.000000,0.000000,0.000000,0.000000,0.000000,819,819,819,819
8635,0,0.062500,0.000000,1.187500,0.00,-0.12,-1.130514,-1.000000,0.000000,0.000000,0.000000,0.000000,0.000000,0.000000,0.000000,0.000000,0.000000,0.000000,0.000000,0.000000,0.000000,819,819,819,819
8645,0,0.062500,0.000000,1.187500,0.00,0.06,-0.472151,-1.000000,0.000000,0.000000,0.000000,0.000000,0.000000,0.000000,0.000000,0.000000,0.000000,0.000000,0.000000,0.000000,0.000000,819,819,819,819
8655,0,0.062500,0.000000,1.187500,-0.06,0.30,0.273267,-1.000000,0.000000,0.000000,0.000000,0.000000,0.000000,0.000000,0.000000,0.000000,0.000000,0.000000,0.000000,0.000000,0.000000,819,819,819,819
8665,0,0.062500,0.000000,1.187500,0.06,0.36,0.607413,-1.000000,0.000000,0.000000,0.000000,0.000000,0.000000,0.000000,0.000000,0.000000,0.000000,0.000000,0.000000,0.000000,0.000000,819,819,819,819
8675,0,0.062500,0.000000,1.187500,0.12,0.18,0.624121,-1.000000,0.000000,0.000000,0.000000,0.000000,0.000000,0.000000,0.000000,0.000000,0.000000,0.000000,0.000000,0.000000,0.000000,819,819,819,819
8685,0,0.062500,0.000000,1.187500,0.06,-0.18,0.209331,-1.000000,0.000000,0.000000,0.000000,0.000000,0.000000,0.000000,0.000000,0.000000,0.000000,0.000000,0.000000,0.000000,0.000000,819,819,819,819
8695,0,0.062500,0.000000,1.187500,-0.06,-0.18,-0.345783,-1.000000,0.000000,0.000000,0.000000,0.000000,0.000000,0.000000,0.000000,0.000000,0.000000,0.000000,0.000000,0.000000,0.000000,819,819,819,819
8706,0,0.062500,0.000000,1.187500,-0.12,-0.18,-1.026664,-1.000000,0.000000,0.000000,0.000000,0.000000,0.000000,0.000000,0.000000,0.000000,0.000000,0.000000,0.000000,0.000000,0.000000,819,819,819,819
8715,0,0.062500,0.000000,1.187500,0.00,0.06,-1.357583,-1.000000,0.000000,0.000000,0.000000,0.000000,0.000000,0.000000,0.000000,0.000000,0.000000,0.000000,0.000000,0.000000,0.000000,819,819,819,819
8726,0,0.062500,0.000000,1.187500,0.06,0.24,-0.958504,-1.000000,0.000000,0.000000,0.000000,0.000000,0.000000,0.000000,0.000000,0.000000,0.000000,0.000000,0.000000,0.000000,0.000000,819,819,819,819
8736,0,0.062500,0.000000,1.187500,0.00,-0.12,-0.226050,-1.000000,0.000000,0.000000,0.000000,0.000000,0.000000,0.000000,0.000000,0.000000,0.000000,0.000000,0.000000,0.000000,0.000000,819,819,819,819
8746,0,0.062500,0.000000,1.187500,0.00,-0.18,0.285572,-1.000000,0.000000,0.000000,0.000000,0.000000,0.000000,0.000000,0.000000,0.000000,0.000000,0.000000,0.000000,0.000000,0.000000,819,819,819,819
8756,0,0.062500,0.000000,1.187500,-0.06,-0.24,0.786154,-1.000000,0.000000,0.000000,0.000000,0.000000,0.000000,0.000000,0.000000,0.000000,0.000000,0.000000,0.000000,0.000000,0.000000,819,819,819,819
8766,0,0.062500,0.000000,1.187500,-0.06,-0.12,0.929933,-1.000000,0.000000,0.000000,0.000000,0.000000,0.000000,0.000000,0.000000,0.000000,0.000000,0.000000,0.000000,0.000000,0.000000,819,819,819,819
8776,0,0.062500,0.000000,1.187500,-0.12,-0.06,1.233997,-1.000000,0.000000,0.000000,0.000000,0.000000,0.000000,0.000000,0.000000,0.000000,0.000000,0.000000,0.000000,0.000000,0.000000,819,819,819,819
8786,0,0.062500,0.000000,1.187500,-0.06,-0.06,1.189825,-1.000000,0.000000,0.000000,0.000000,0.000000,0.000000,0.000000,0.000000,0.000000,0.000000,0.000000,0.000000,0.000000,0.000000,819,819,819,819
8796,0,0.062500,0.000000,1.187500,0.00,0.06,0.593866,-1.000000,0.000000,0.000000,0.000000,0.000000,0.000000,0.000000,0.000000,0.000000,0.000000,0.000000,0.000000,0.000000,0.000000,819,819,819,819
8806,0,0.062500,0.000000,1.187500,-0.18,0.24,0.445318,-1.000000,0.000000,0.000000,0.000000,0.000000,0.000000,0.000000,0.000000,0.000000,0.000000,0.000000,0.000000,0.000000,0.000000,819,819,819,819
8816,0,0.062500,0.000000,1.187500,0.06,0.42,0.022266,-1.000000,0.000000,0.000000,0.000000,0.000000,0.000000,0.000000,0.000000,0.000000,0.000000,0.000000,0.000000,0.000000,0.000000,819,819,819,819
8826,0,0.062500,0.000000,1.187500,-0.06,0.12,0.238613,-1.000000,0.000000,0.000000,0.000000,0.000000,0.000000,0.000000,0.000000,0.000000,0.000000,0.000000,0.000000,0.000000,0.000000,819,819,819,819
8836,0,0.062500,0.000000,1.187500,0.00,-0.36,0.071306,-1.000000,0.000000,0.000000,0.000000,0.000000,0.000000,0.000000,0.000000,0.000000,0.000000,0.000000,0.000000,0.000000,0.000000,819,819,819,819
8917,0,0.062500,0.000000,1.187500,0.00,-0.24,0.478565,-1.000000,0.000000,0.000000,0.000000,0.000000,0.000000,0.000000,0.000000,0.000000,0.000000,0.000000,0.000000,0.000000,0.000000,819,819,819,819
8933,0,0.062500,0.000000,1.187500,0.00,-0.06,0.439553,-1.000000,0.000000,0.000000,0.000000,0.000000,0.000000,0.000000,0.000000,0.000000,0.000000,0.000000,0.000000,0.000000,0.000000,819,819,819,819
8947,0,0.062500,0.000000,1.187500,-0.06,-0.18,0.378228,-1.000000,0.000000,0.000000,0.000000,0.000000,0.000000,0.000000,0.000000,0.000000,0.000000,0.000000,0.000000,0.000000,0.000000,819,819,819,819
8957,0,0.062500,0.000000,1.187500,-0.06,-0.12,0.197036,-1.000000,0.000000,0.000000,0.000000,0.000000,0.000000,0.000000,0.000000,0.000000,0.000000,0.000000,0.000000,0.000000,0.000000,819,819,819,819
8967,0,0.062500,0.000000,1.187500,0.12,-0.06,-0.168273,-1.000000,0.000000,0.000000,0.000000,0.000000,0.000000,0.000000,0.000000,0.000000,0.000000,0.000000,0.000000,0.000000,0.000000,819,819,819,819
8977,0,0.062500,0.000000,1.187500,-0.06,0.12,-0.305289,-1.000000,0.000000,0.000000,0.000000,0.000000,0.000000,0.000000,0.000000,0.000000,0.000000,0.000000,0.000000,0.000000,0.000000,819,819,819,819
8988,0,0.062500,0.000000,1.187500,-0.06,0.18,-0.490264,-1.000000,0.000000,0.000000,0.000000,0.000000,0.000000,0.000000,0.000000,0.000000,0.000000,0.000000,0.000000,0.000000,0.000000,819,819,819,819
8998,0,0.062500,0.000000,1.187500,0.06,-0.18,-0.440138,-1.000000,0.000000,0.000000,0.000000,0.000000,0.000000,0.000000,0.000000,0.000000,0.000000,0.000000,0.000000,0.000000,0.000000,819,819,819,819
9008,0,0.062500,0.000000,1.187500,-0.06,-0.53,-0.318882,-1.000000,0.000000,0.000000,0.000000,0.000000,0.000000,0.000000,0.000000,0.000000,0.000000,0.000000,0.000000,0.000000,0.000000,819,819,819,819
9019,0,0.062500,0.000000,1.187500,-0.12,-0.53,0.043431,-1.000000,0.000000,0.000000,0.000000,0.000000,0.000000,0.000000,0.000000,0.000000,0.000000,0.000000,0.000000,0.000000,0.000000,819,819,819,819
9031,0,0.062500,0.000000,1.187500,-0.12,-0.42,0.299047,-1.000000,0.000000,0.000000,0.000000,0.000000,0.000000,0.000000,0.000000,0.000000,0.000000,0.000000,0.000000,0.000000,0.000000,819,819,819,819
9042,0,0.062500,0.000000,1.187500,-0.06,-0.24,0.608702,-1.000000,0.000000,0.000000,0.000000,0.000000,0.000000,0.000000,0.000000,0.000000,0.000000,0.000000,0.000000,0.000000,0.000000,819,819,819,819
9054,0,0.062500,0.000000,1.187500,0.00,0.24,0.564810,-1.000000,0.000000,0.000000,0.000000,0.000000,0.000000,0.000000,0.000000,0.000000,0.000000,0.000000,0.000000,0.000000,0.000000,819,819,819,819
9065,0,0.062500,0.000000,1.187500,0.06,0.12,0.146991,-1.000000,0.000000,0.000000,0.000000,0.000000,0.000000,0.000000,0.000000,0.000000,0.000000,0.000000,0.000000,0.000000,0.000000,819,819,819,819
9075,0,0.062500,0.000000,1.187500,-0.06,0.00,-0.111400,-1.000000,0.000000,0.000000,0.000000,0.000000,0.000000,0.000000,0.000000,0.000000,0.000000,0.000000,0.000000,0.000000,0.000000,819,819,819,819
9085,0,0.062500,0.000000,1.187500,0.00,0.06,-0.183695,-1.000000,0.000000,0.000000,0.000000,0.000000,0.000000,0.000000,0.000000,0.000000,0.000000,0.000000,0.000000,0.000000,0.000000,819,819,819,819
9095,0,0.062500,0.000000,1.187500,-0.12,0.24,-0.127935,-1.000000,0.000000,0.000000,0.000000,0.000000,0.000000,0.000000,0.000000,0.000000,0.000000,0.000000,0.000000,0.000000,0.000000,819,819,819,819
9113,0,0.062500,0.000000,1.187500,0.06,0.30,0.052978,-1.000000,0.000000,0.000000,0.000000,0.000000,0.000000,0.000000,0.000000,0.000000,0.000000,0.000000,0.000000,0.000000,0.000000,819,819,819,819
9124,0,0.062500,0.000000,1.187500,0.18,0.12,0.240149,-1.000000,0.000000,0.000000,0.000000,0.000000,0.000000,0.000000,0.000000,0.000000,0.000000,0.000000,0.000000,0.000000,0.000000,819,819,819,819
9135,0,0.062500,0.000000,1.187500,0.06,-0.18,0.487007,-1.000000,0.000000,0.000000,0.000000,0.000000,0.000000,0.000000,0.000000,0.000000,0.000000,0.000000,0.000000,0.000000,0.000000,819,819,819,819
9145,0,0.062500,0.000000,1.187500,-0.06,-0.12,0.261850,-1.000000,0.000000,0.000000,0.000000,0.000000,0.000000,0.000000,0.000000,0.000000,0.000000,0.000000,0.000000,0.000000,0.000000,819,819,819,819
9156,0,0.062500,0.000000,1.187500,-0.06,-0.18,-0.165032,-1.000000,0.000000,0.000000,0.000000,0.000000,0.000000,0.000000,0.000000,0.000000,0.000000,0.000000,0.000000,0.000000,0.000000,819,819,819,819
9166,0,0.062500,0.000000,1.187500,-0.06,-0.36,-0.542627,-1.000000,0.000000,0.000000,0.000000,0.000000,0.000000,0.000000,0.000000,0.000000,0.000000,0.000000,0.000000,0.000000,0.000000,819,819,819,819
9176,0,0.062500,0.000000,1.187500,0.00,-0.18,-0.799006,-1.000000,0.000000,0.000000,0.000000,0.000000,0.000000,0.000000,0.000000,0.000000,0.000000,0.000000,0.000000,0.000000,0.000000,819,819,819,819
9186,0,0.062500,0.000000,1.187500,-0.06,-0.24,-0.811825,-1.000000,0.000000,0.000000,0.000000,0.000000,0.000000,0.000000,0.000000,0.000000,0.000000,0.000000,0.000000,0.000000,0.000000,819,819,819,819
9196,0,0.062500,0.000000,1.187500,0.00,-0.18,-0.515591,-1.000000,0.000000,0.000000,0.000000,0.000000,0.000000,0.000000,0.000000,0.000000,0.000000,0.000000,0.000000,0.000000,0.000000,819,819,819,819
9206,0,0.062500,0.000000,1.187500,-0.06,0.18,-0.025780,-1.000000,0.000000,0.000000,0.000000,0.000000,0.000000,0.000000,0.000000,0.000000,0.000000,0.000000,0.000000,0.000000,0.000000,819,819,819,819
9217,0,0.062500,0.000000,1.187500,0.12,0.47,0.176836,-1.000000,0.000000,0.000000,0.000000,0.000000,0.000000,0.000000,0.000000,0.000000,0.000000,0.000000,0.000000,0.000000,0.000000,819,819,819,819
9227,0,0.062500,0.000000,1.187500,0.00,0.36,0.483842,-1.000000,0.000000,0.000000,0.000000,0.000000,0.000000,0.000000,0.000000,0.000000,0.000000,0.000000,0.000000,0.000000,0.000000,819,819,819,819
9237,0,0.062500,0.000000,1.187500,0.00,0.36,0.439817,-1.000000,0.000000,0.000000,0.000000,0.000000,0.000000,0.000000,0.000000,0.000000,0.000000,0.000000,0.000000,0.000000,0.000000,819,819,819,819
9253,0,0.062500,0.000000,1.187500,-0.06,0.12,0.259491,-1.000000,0.000000,0.000000,0.000000,0.000000,0.000000,0.000000,0.000000,0.000000,0.000000,0.000000,0.000000,0.000000,0.000000,819,819,819,819
9289,0,0.062500,0.000000,1.187500,0.06,0.00,-0.224525,-1.000000,0.000000,0.000000,0.000000,0.000000,0.000000,0.000000,0.000000,0.000000,0.000000,0.000000,0.000000,0.000000,0.000000,819,819,819,819
9304,0,0.062500,0.000000,1.187500,-0.06,0.06,-0.308101,-1.000000,0.000000,0.000000,0.000000,0.000000,0.000000,0.000000,0.000000,0.000000,0.000000,0.000000,0.000000,0.000000,0.000000,819,819,819,819
9316,0,0.062500,0.000000,1.187500,0.06,-0.18,-0.312280,-1.000000,0.000000,0.000000,0.000000,0.000000,0.000000,0.000000,0.000000,0.000000,0.000000,0.000000,0.000000,0.000000,0.000000,819,819,819,819
9326,0,0.062500,0.000000,1.187500,-0.06,-0.18,-0.312489,-1.000000,0.000000,0.000000,0.000000,0.000000,0.000000,0.000000,0.000000,0.000000,0.000000,0.000000,0.000000,0.000000,0.000000,819,819,819,819
9336,0,0.062500,0.000000,1.187500,0.00,-0.24,-0.193749,-1.000000,0.000000,0.000000,0.000000,0.000000,0.000000,0.000000,0.000000,0.000000,0.000000,0.000000,0.000000,0.000000,0.000000,819,819,819,819
9346,0,0.062500,0.000000,1.187500,0.00,-0.30,-0.069062,-1.000000,0.000000,0.000000,0.000000,0.000000,0.000000,0.000000,0.000000,0.000000,0.000000,0.000000,0.000000,0.000000,0.000000,819,819,819,819
9356,0,0.062500,0.000000,1.187500,-0.12,-0.30,0.115297,-1.000000,0.000000,0.000000,0.000000,0.000000,0.000000,0.000000,0.000000,0.000000,0.000000,0.000000,0.000000,0.000000,0.000000,819,819,819,819
9366,0,0.062500,0.000000,1.187500,0.06,-0.24,0.183890,-1.000000,0.000000,0.000000,0.000000,0.000000,0.000000,0.000000,0.000000,0.000000,0.000000,0.000000,0.000000,0.000000,0.000000,819,819,819,819
9376,0,0.062500,0.000000,1.187500,0.00,0.36,0.424819,-1.000000,0.000000,0.000000,0.000000,0.000000,0.000000,0.000000,0.000000,0.000000,0.000000,0.000000,0.000000,0.000000,0.000000,819,819,819,819
9386,0,0.062500,0.000000,1.187500,0.06,0.71,0.674366,-1.000000,0.000000,0.000000,0.000000,0.000000,0.000000,0.000000,0.000000,0.000000,0.000000,0.000000,0.000000,0.000000,0.000000,819,819,819,819
9396,0,0.062500,0.000000,1.187500,-0.06,0.47,0.805593,-1.000000,0.000000,0.000000,0.000000,0.000000,0.000000,0.000000,0.000000,0.000000,0.000000,0.000000,0.000000,0.000000,0.000000,819,819,819,819
9406,0,0.062500,0.000000,1.187500,0.06,0.24,0.515280,-1.000000,0.000000,0.000000,0.000000,0.000000,0.000000,0.000000,0.000000,0.000000,0.000000,0.000000,0.000000,0.000000,0.000000,819,819,819,819
9416,0,0.062500,0.000000,1.187500,0.00,-0.30,0.263264,-1.000000,0.000000,0.000000,0.000000,0.000000,0.000000,0.000000,0.000000,0.000000,0.000000,0.000000,0.000000,0.000000,0.000000,819,819,819,819
9426,0,0.062500,0.000000,1.187500,-0.06,-0.24,0.072538,-1.000000,0.000000,0.000000,0.000000,0.000000,0.000000,0.000000,0.000000,0.000000,0.000000,0.000000,0.000000,0.000000,0.000000,819,819,819,819
9436,0,0.062500,0.000000,1.187500,0.06,-0.24,-0.233873,-1.000000,0.000000,0.000000,0.000000,0.000000,0.000000,0.000000,0.000000,0.000000,0.000000,0.000000,0.000000,0.000000,0.000000,819,819,819,819
9447,0,0.062500,0.000000,1.187500,0.06,-0.24,-0.664819,-1.000000,0.000000,0.000000,0.000000,0.000000,0.000000,0.000000,0.000000,0.000000,0.000000,0.000000,0.000000,0.000000,0.000000,819,819,819,819
9457,0,0.062500,0.000000,1.187500,0.00,-0.18,-0.805116,-1.000000,0.000000,0.000000,0.000000,0.000000,0.000000,0.000000,0.000000,0.000000,0.000000,0.000000,0.000000,0.000000,0.000000,819,819,819,819
9467,0,0.062500,0.000000,1.187500,-0.06,-0.12,-0.634006,-1.000000,0.000000,0.000000,0.000000,0.000000,0.000000,0.000000,0.000000,0.000000,0.000000,0.000000,0.000000,0.000000,0.000000,819,819,819,819
9477,0,0.062500,0.000000,1.187500,-0.06,0.00,-0.506700,-1.000000,0.000000,0.000000,0.000000,0.000000,0.000000,0.000000,0.000000,0.000000,0.000000,0.000000,0.000000,0.000000,0.000000,819,819,819,819
9487,0,0.062500,0.000000,1.187500,0.12,0.12,-0.322210,-1.000000,0.000000,0.000000,0.000000,0.000000,0.000000,0.000000,0.000000,0.000000,0.000000,0.000000,0.000000,0.000000,0.000000,819,819,819,819
9497,0,0.062500,0.000000,1.187500,-0.12,-0.12,-0.372360,-1.000000,0.000000,0.000000,0.000000,0.000000,0.000000,0.000000,0.000000,0.000000,0.000000,0.000000,0.000000,0.000000,0.000000,819,819,819,819
9508,0,0.062500,0.000000,1.187500,-0.06,-0.24,0.159507,-1.000000,0.000000,0.000000,0.000000,0.000000,0.000000,0.000000,0.000000,0.000000,0.000000,0.000000,0.000000,0.000000,0.000000,819,819,819,819
9518,0,0.062500,0.000000,1.187500,0.06,0.06,0.126725,-1.000000,0.000000,0.000000,0.000000,0.000000,0.000000,0.000000,0.000000,0.000000,0.000000,0.000000,0.000000,0.000000,0.000000,819,819,819,819
9528,0,0.062500,0.000000,1.187500,-0.12,0.36,0.421961,-1.000000,0.000000,0.000000,0.000000,0.000000,0.000000,0.000000,0.000000,0.000000,0.000000,0.000000,0.000000,0.000000,0.000000,819,819,819,819
9538,0,0.062500,0.000000,1.187500,0.00,0.30,0.614848,-1.000000,0.000000,0.000000,0.000000,0.000000,0.000000,0.000000,0.000000,0.000000,0.000000,0.000000,0.000000,0.000000,0.000000,819,819,819,819
9548,0,0.062500,0.000000,1.187500,-0.06,0.06,0.861992,-1.000000,0.000000,0.000000,0.000000,0.000000,0.000000,0.000000,0.000000,0.000000,0.000000,0.000000,0.000000,0.000000,0.000000,819,819,819,819
9557,0,0.062500,0.000000,1.187500,-0.06,-0.36,0.518100,-1.000000,0.000000,0.000000,0.000000,0.000000,0.000000,0.000000,0.000000,0.000000,0.000000,0.000000,0.000000,0.000000,0.000000,819,819,819,819
9568,0,0.062500,0.000000,1.187500,0.00,-0.12,0.500905,-1.000000,0.000000,0.000000,0.000000,0.000000,0.000000,0.000000,0.000000,0.000000,0.000000,0.000000,0.000000,0.000000,0.000000,819,819,819,819
9577,0,0.062500,0.000000,1.187500,0.00,-0.36,0.143795,-1.000000,0.000000,0.000000,0.000000,0.000000,0.000000,0.000000,0.000000,0.000000,0.000000,0.000000,0.000000,0.000000,0.000000,819,819,819,819
9587,0,0.062500,0.000000,1.187500,-0.06,-0.06,-0.408435,-1.000000,0.000000,0.000000,0.000000,0.000000,0.000000,0.000000,0.000000,0.000000,0.000000,0.000000,0.000000,0.000000,0.000000,819,819,819,819
9597,0,0.062500,0.000000,1.187500,-0.06,0.00,-0.792297,-1.000000,0.000000,0.000000,0.000000,0.000000,0.000000,0.000000,0.000000,0.000000,0.000000,0.000000,0.000000,0.000000,0.000000,819,819,819,819
9638,0,0.062500,0.000000,1.187500,-0.06,0.00,-0.098990,-1.000000,0.000000,0.000000,0.000000,0.000000,0.000000,0.000000,0.000000,0.000000,0.000000,0.000000,0.000000,0.000000,0.000000,819,819,819,819
9653,0,0.062500,0.000000,1.187500,0.06,0.53,0.113801,-1.000000,0.000000,0.000000,0.000000,0.000000,0.000000,0.000000,0.000000,0.000000,0.000000,0.000000,0.000000,0.000000,0.000000,819,819,819,819
9669,0,0.062500,0.000000,1.187500,0.00,-0.18,0.718190,-1.000000,0.000000,0.000000,0.000000,0.000000,0.000000,0.000000,0.000000,0.000000,0.000000,0.000000,0.000000,0.000000,0.000000,819,819,819,819
9679,0,0.062500,0.000000,1.187500,-0.06,-0.42,0.570285,-1.000000,0.000000,0.000000,0.000000,0.000000,0.000000,0.000000,0.000000,0.000000,0.000000,0.000000,0.000000,0.000000,0.000000,819,819,819,819
9689,0,0.062500,0.000000,1.187500,-0.12,-0.18,0.206639,-1.000000,0.000000,0.000000,0.000000,0.000000,0.000000,0.000000,0.000000,0.000000,0.000000,0.000000,0.000000,0.000000,0.000000,819,819,819,819
9701,0,0.062500,0.000000,1.187500,0.06,0.18,-0.405293,-1.000000,0.000000,0.000000,0.000000,0.000000,0.000000,0.000000,0.000000,0.000000,0.000000,0.000000,0.000000,0.000000,0.000000,819,819,819,819
9713,0,0.062500,0.000000,1.187500,-0.06,0.47,-0.792140,-1.000000,0.000000,0.000000,0.000000,0.000000,0.000000,0.000000,0.000000,0.000000,0.000000,0.000000,0.000000,0.000000,0.000000,819,819,819,819
9725,0,0.062500,0.000000,1.187500,0.12,0.47,-0.870857,-1.000000,0.000000,0.000000,0.000000,0.000000,0.000000,0.000000,0.000000,0.000000,0.000000,0.000000,0.000000,0.000000,0.000000,819,819,819,819
9736,0,0.062500,0.000000,1.187500,0.06,-0.36,-0.399793,-1.000000,0.000000,0.000000,0.000000,0.000000,0.000000,0.000000,0.000000,0.000000,0.000000,0.000000,0.000000,0.000000,0.000000,819,819,819,819
9746,0,0.062500,0.000000,1.187500,-0.12,-0.53,0.039385,-1.000000,0.000000,0.000000,0.000000,0.000000,0.000000,0.000000,0.000000,0.000000,0.000000,0.000000,0.000000,0.000000,0.000000,819,819,819,819
9756,0,0.062500,0.000000,1.187500,0.00,-0.30,0.536344,-1.000000,0.000000,0.000000,0.000000,0.000000,0.000000,0.000000,0.000000,0.000000,0.000000,0.000000,0.000000,0.000000,0.000000,819,819,819,819
9767,0,0.062500,0.000000,1.187500,0.06,0.24,0.798692,-1.000000,0.000000,0.000000,0.000000,0.000000,0.000000,0.000000,0.000000,0.000000,0.000000,0.000000,0.000000,0.000000,0.000000,819,819,819,819
9777,0,0.062500,0.000000,1.187500,0.06,0.42,0.989935,-1.000000,0.000000,0.000000,0.000000,0.000000,0.000000,0.000000,0.000000,0.000000,0.000000,0.000000,0.000000,0.000000,0.000000,819,819,819,819
9787,0,0.062500,0.000000,1.187500,-0.06,0.47,0.821372,-1.000000,0.000000,0.000000,0.000000,0.000000,0.000000,0.000000,0.000000,0.000000,0.000000,0.000000,0.000000,0.000000,0.000000,819,819,819,819
9797,0,0.062500,0.000000,1.187500,0.00,0.18,0.337944,-1.000000,0.000000,0.000000,0.000000,0.000000,0.000000,0.000000,0.000000,0.000000,0.000000,0.000000,0.000000,0.000000,0.000000,819,819,819,819
9807,0,0.062500,0.000000,1.187500,0.00,-0.18,0.016897,-1.000000,0.000000,0.000000,0.000000,0.000000,0.000000,0.000000,0.000000,0.000000,0.000000,0.000000,0.000000,0.000000,0.000000,819,819,819,819
9817,0,0.062500,0.000000,1.187500,-0.06,-0.42,-0.474155,-1.000000,0.000000,0.000000,0.000000,0.000000,0.000000,0.000000,0.000000,0.000000,0.000000,0.000000,0.000000,0.000000,0.000000,819,819,819,819
9827,0,0.062500,0.000000,1.187500,0.06,-0.30,-0.676833,-1.000000,0.000000,0.000000,0.000000,0.000000,0.000000,0.000000,0.000000,0.000000,0.000000,0.000000,0.000000,0.000000,0.000000,819,819,819,819
9837,0,0.062500,0.000000,1.187500,0.00,-0.06,-0.805717,-1.000000,0.000000,0.000000,0.000000,0.000000,0.000000,0.000000,0.000000,0.000000,0.000000,0.000000,0.000000,0.000000,0.000000,819,819,819,819
9847,0,0.062500,0.000000,1.187500,-0.06,0.00,-0.455911,-1.000000,0.000000,0.000000,0.000000,0.000000,0.000000,0.000000,0.000000,0.000000,0.000000,0.000000,0.000000,0.000000,0.000000,819,819,819,819
9857,0,0.062500,0.000000,1.187500,0.06,0.18,-0.141546,-1.000000,0.000000,0.000000,0.000000,0.000000,0.000000,0.000000,0.000000,0.000000,0.000000,0.000000,0.000000,0.000000,0.000000,819,819,819,819
9867,0,0.062500,0.000000,1.187500,0.06,0.24,0.408548,-1.000000,0.000000,0.000000,0.000000,0.000000,0.000000,0.000000,0.000000,0.000000,0.000000,0.000000,0.000000,0.000000,0.000000,819,819,819,819
9877,0,0.062500,0.000000,1.187500,0.18,-0.06,0.495427,-1.000000,0.000000,0.000000,0.000000,0.000000,0.000000,0.000000,0.000000,0.000000,0.000000,0.000000,0.000000,0.000000,0.000000,819,819,819,819
9887,0,0.062500,0.000000,1.187500,-0.12,-0.30,0.856021,-1.000000,0.000000,0.000000,0.000000,0.000000,0.000000,0.000000,0.000000,0.000000,0.000000,0.000000,0.000000,0.000000,0.000000,819,819,819,819
9898,0,0.062500,0.000000,1.187500,0.12,-0.36,0.458426,-1.000000,0.000000,0.000000,0.000000,0.000000,0.000000,0.000000,0.000000,0.000000,0.000000,0.000000,0.000000,0.000000,0.000000,819,819,819,819
9908,0,0.062500,0.000000,1.187500,0.12,-0.36,0.438546,-1.000000,0.000000,0.000000,0.000000,0.000000,0.000000,0.000000,0.000000,0.000000,0.000000,0.000000,0.000000,0.000000,0.000000,819,819,819,819
9918,0,0.062500,0.000000,1.187500,-0.06,-0.06,0.140677,-1.000000,0.000000,0.000000,0.000000,0.000000,0.000000,0.000000,0.000000,0.000000,0.000000,0.000000,0.000000,0.000000,0.000000,819,819,819,819
9928,0,0.062500,0.000000,1.187500,-0.06,0.06,-0.230466,-1.000000,0.000000,0.000000,0.000000,0.000000,0.000000,0.000000,0.000000,0.000000,0.000000,0.000000,0.000000,0.000000,0.000000,819,819,819,819
9938,0,0.062500,0.000000,1.187500,0.00,0.12,-0.545898,-1.000000,0.000000,0.000000,0.000000,0.000000,0.000000,0.000000,0.000000,0.000000,0.000000,0.000000,0.000000,0.000000,0.000000,819,819,819,819
9948,0,0.062500,0.000000,1.187500,-0.06,-0.12,-0.561670,-1.000000,0.000000,0.000000,0.000000,0.000000,0.000000,0.000000,0.000000,0.000000,0.000000,0.000000,0.000000,0.000000,0.000000,819,819,819,819
9958,0,0.062500,0.000000,1.187500,-0.06,-0.12,-0.562459,-1.000000,0.000000,0.000000,0.000000,0.000000,0.000000,0.000000,0.000000,0.000000,0.000000,0.000000,0.000000,0.000000,0.000000,819,819,819,819
9974,0,0.062500,0.000000,1.187500,0.00,0.06,-0.324998,-1.000000,0.000000,0.000000,0.000000,0.000000,0.000000,0.000000,0.000000,0.000000,0.000000,0.000000,0.000000,0.000000,0.000000,819,819,819,819
9992,0,0.062500,0.000000,1.187500,-0.06,-0.06,0.577500,-1.000000,0.000000,0.000000,0.000000,0.000000,0.000000,0.000000,0.000000,0.000000,0.000000,0.000000,0.000000,0.000000,0.000000,819,819,819,819
10007,0,0.062500,0.000000,1.187500,0.00,-0.06,0.385125,-1.000000,0.000000,0.000000,0.000000,0.000000,0.000000,0.000000,0.000000,0.000000,0.000000,0.000000,0.000000,0.000000,0.000000,819,819,819,819
10017,0,0.062500,0.000000,1.187500,0.00,0.12,0.078631,-1.000000,0.000000,0.000000,0.000000,0.000000,0.000000,0.000000,0.000000,0.000000,0.000000,0.000000,0.000000,0.000000,0.000000,819,819,819,819
10027,0,0.062500,0.000000,1.187500,0.06,0.24,-0.233568,-1.000000,0.000000,0.000000,0.000000,0.000000,0.000000,0.000000,0.000000,0.000000,0.000000,0.000000,0.000000,0.000000,0.000000,819,819,819,819
10039,0,0.062500,0.000000,1.187500,-0.18,0.12,-0.546053,-1.000000,0.000000,0.000000,0.000000,0.000000,0.000000,0.000000,0.000000,0.000000,0.000000,0.000000,0.000000,0.000000,0.000000,819,819,819,819
10054,0,0.062500,0.000000,1.187500,-0.06,-0.24,-0.739803,-1.000000,0.000000,0.000000,0.000000,0.000000,0.000000,0.000000,0.000000,0.000000,0.000000,0.000000,0.000000,0.000000,0.000000,819,819,819,819
10066,0,0.062500,0.000000,1.187500,0.00,-0.30,-0.452615,-1.000000,0.000000,0.000000,0.000000,0.000000,0.000000,0.000000,0.000000,0.000000,0.000000,0.000000,0.000000,0.000000,0.000000,819,819,819,819
10077,0,0.062500,0.000000,1.187500,0.06,0.18,0.333619,-1.000000,0.000000,0.000000,0.000000,0.000000,0.000000,0.000000,0.000000,0.000000,0.000000,0.000000,0.000000,0.000000,0.000000,819,819,819,819
10087,0,0.062500,0.000000,1.187500,0.06,0.30,0.669806,-1.000000,0.000000,0.000000,0.000000,0.000000,0.000000,0.000000,0.000000,0.000000,0.000000,0.000000,0.000000,0.000000,0.000000,819,819,819,819
10097,0,0.062500,0.000000,1.187500,-0.06,0.18,0.864740,-1.000000,0.000000,0.000000,0.000000,0.000000,0.000000,0.000000,0.000000,0.000000,0.000000,0.000000,0.000000,0.000000,0.000000,819,819,819,819
10108,0,0.062500,0.000000,1.187500,0.00,-0.06,0.518237,-1.000000,0.000000,0.000000,0.000000,0.000000,0.000000,0.000000,0.000000,0.000000,0.000000,0.000000,0.000000,0.000000,0.000000,819,819,819,819
10118,0,0.062500,0.000000,1.187500,-0.06,-0.06,0.204037,-1.000000,0.000000,0.000000,0.000000,0.000000,0.000000,0.000000,0.000000,0.000000,0.000000,0.000000,0.000000,0.000000,0.000000,819,819,819,819
10128,0,0.062500,0.000000,1.187500,0.00,0.00,-0.346048,-1.000000,0.000000,0.000000,0.000000,0.000000,0.000000,0.000000,0.000000,0.000000,0.000000,0.000000,0.000000,0.000000,0.000000,819,819,819,819
10138,0,0.062500,0.000000,1.187500,0.00,0.00,-0.729802,-1.000000,0.000000,0.000000,0.000000,0.000000,0.000000,0.000000,0.000000,0.000000,0.000000,0.000000,0.000000,0.000000,0.000000,819,819,819,819
10148,0,0.062500,0.000000,1.187500,-0.12,0.00,-0.808365,-1.000000,0.000000,0.000000,0.000000,0.000000,0.000000,0.000000,0.000000,0.000000,0.000000,0.000000,0.000000,0.000000,0.000000,819,819,819,819
10158,0,0.062500,0.000000,1.187500,0.00,0.12,-0.574793,-1.000000,0.000000,0.000000,0.000000,0.000000,0.000000,0.000000,0.000000,0.000000,0.000000,0.000000,0.000000,0.000000,0.000000,819,819,819,819
10168,0,0.062500,0.000000,1.187500,0.06,-0.30,-0.206865,-1.000000,0.000000,0.000000,0.000000,0.000000,0.000000,0.000000,0.000000,0.000000,0.000000,0.000000,0.000000,0.000000,0.000000,819,819,819,819
10178,0,0.062500,0.000000,1.187500,0.00,-0.12,0.049032,-1.000000,0.000000,0.000000,0.000000,0.000000,0.000000,0.000000,0.000000,0.000000,0.000000,0.000000,0.000000,0.000000,0.000000,819,819,819,819
10188,0,0.062500,0.000000,1.187500,0.00,-0.18,0.002452,-1.000000,0.000000,0.000000,0.000000,0.000000,0.000000,0.000000,0.000000,0.000000,0.000000,0.000000,0.000000,0.000000,0.000000,819,819,819,819
10198,0,0.062500,0.000000,1.187500,0.06,-0.18,0.237623,-1.000000,0.000000,0.000000,0.000000,0.000000,0.000000,0.000000,0.000000,0.000000,0.000000,0.000000,0.000000,0.000000,0.000000,819,819,819,819
10209,0,0.062500,0.000000,1.187500,0.00,-0.12,0.368131,-1.000000,0.000000,0.000000,0.000000,0.000000,0.000000,0.000000,0.000000,0.000000,0.000000,0.000000,0.000000,0.000000,0.000000,819,819,819,819
10219,0,0.062500,0.000000,1.187500,0.00,-0.06,0.374657,-1.000000,0.000000,0.000000,0.000000,0.000000,0.000000,0.000000,0.000000,0.000000,0.000000,0.000000,0.000000,0.000000,0.000000,819,819,819,819
10229,0,0.062500,0.000000,1.187500,0.06,0.00,0.315608,-1.000000,0.000000,0.000000,0.000000,0.000000,0.000000,0.000000,0.000000,0.000000,0.000000,0.000000,0.000000,0.000000,0.000000,819,819,819,819
10239,0,0.062500,0.000000,1.187500,0.00,-0.06,0.312655,-1.000000,0.000000,0.000000,0.000000,0.000000,0.000000,0.000000,0.000000,0.000000,0.000000,0.000000,0.000000,0.000000,0.000000,819,819,819,819
10249,0,0.062500,0.000000,1.187500,-0.06,0.06,0.075008,-1.000000,0.000000,0.000000,0.000000,0.000000,0.000000,0.000000,0.000000,0.000000,0.000000,0.000000,0.000000,0.000000,0.000000,819,819,819,819
10259,0,0.062500,0.000000,1.187500,-0.06,0.30,-0.174375,-1.000000,0.000000,0.000000,0.000000,0.000000,0.000000,0.000000,0.000000,0.000000,0.000000,0.000000,0.000000,0.000000,0.000000,819,819,819,819
10270,0,0.062500,0.000000,1.187500,0.00,0.30,-0.186844,-1.000000,0.000000,0.000000,0.000000,0.000000,0.000000,0.000000,0.000000,0.000000,0.000000,0.000000,0.000000,0.000000,0.000000,819,819,819,819
10279,0,0.062500,0.000000,1.187500,-0.06,0.06,-0.306217,-1.000000,0.000000,0.000000,0.000000,0.000000,0.000000,0.000000,0.000000,0.000000,0.000000,0.000000,0.000000,0.000000,0.000000,819,819,819,819
10289,0,0.062500,0.000000,1.187500,-0.12,0.00,-0.371561,-1.000000,0.000000,0.000000,0.000000,0.000000,0.000000,0.000000,0.000000,0.000000,0.000000,0.000000,0.000000,0.000000,0.000000,819,819,819,819
10299,0,0.062500,0.000000,1.187500,-0.18,-0.18,-0.374828,-1.000000,0.000000,0.000000,0.000000,0.000000,0.000000,0.000000,0.000000,0.000000,0.000000,0.000000,0.000000,0.000000,0.000000,819,819,819,819
10317,0,0.062500,0.000000,1.187500,0.00,0.06,-0.018741,-1.000000,0.000000,0.000000,0.000000,0.000000,0.000000,0.000000,0.000000,0.000000,0.000000,0.000000,0.000000,0.000000,0.000000,819,819,819,819
10331,0,0.062500,0.000000,1.187500,0.06,0.18,0.236563,-1.000000,0.000000,0.000000,0.000000,0.000000,0.000000,0.000000,0.000000,0.000000,0.000000,0.000000,0.000000,0.000000,0.000000,819,819,819,819
10341,0,0.062500,0.000000,1.187500,0.00,0.24,0.130578,-1.000000,0.000000,0.000000,0.000000,0.000000,0.000000,0.000000,0.000000,0.000000,0.000000,0.000000,0.000000,0.000000,0.000000,819,819,819,819
10353,0,0.062500,0.000000,1.187500,-0.06,0.06,0.065904,-1.000000,0.000000,0.000000,0.000000,0.000000,0.000000,0.000000,0.000000,0.000000,0.000000,0.000000,0.000000,0.000000,0.000000,819,819,819,819
10366,0,0.062500,0.000000,1.187500,-0.18,0.00,0.062670,-1.000000,0.000000,0.000000,0.000000,0.000000,0.000000,0.000000,0.000000,0.000000,0.000000,0.000000,0.000000,0.000000,0.000000,819,819,819,819
10377,0,0.062500,0.000000,1.187500,-0.12,-0.12,-0.353116,-1.000000,0.000000,0.000000,0.000000,0.000000,0.000000,0.000000,0.000000,0.000000,0.000000,0.000000,0.000000,0.000000,0.000000,819,819,819,819
10388,0,0.062500,0.000000,1.187500,-0.06,-0.24,-0.373906,-1.000000,0.000000,0.000000,0.000000,0.000000,0.000000,0.000000,0.000000,0.000000,0.000000,0.000000,0.000000,0.000000,0.000000,819,819,819,819
10398,0,0.062500,0.000000,1.187500,0.00,-0.36,-0.434320,-1.000000,0.000000,0.000000,0.000000,0.000000,0.000000,0.000000,0.000000,0.000000,0.000000,0.000000,0.000000,0.000000,0.000000,819,819,819,819
10408,0,0.062500,0.000000,1.187500,-0.06,-0.06,-0.437341,-1.000000,0.000000,0.000000,0.000000,0.000000,0.000000,0.000000,0.000000,0.000000,0.000000,0.000000,0.000000,0.000000,0.000000,819,819,819,819
10418,0,0.062500,0.000000,1.187500,-0.06,0.00,-0.318742,-1.000000,0.000000,0.000000,0.000000,0.000000,0.000000,0.000000,0.000000,0.000000,0.000000,0.000000,0.000000,0.000000,0.000000,819,819,819,819
10428,0,0.062500,0.000000,1.187500,0.12,0.30,-0.015937,-1.000000,0.000000,0.000000,0.000000,0.000000,0.000000,0.000000,0.000000,0.000000,0.000000,0.000000,0.000000,0.000000,0.000000,819,819,819,819
10438,0,0.062500,0.000000,1.187500,0.00,0.30,0.058578,-1.000000,0.000000,0.000000,0.000000,0.000000,0.000000,0.000000,0.000000,0.000000,0.000000,0.000000,0.000000,0.000000,0.000000,819,819,819,819
10448,0,0.062500,0.000000,1.187500,0.00,0.06,0.240429,-1.000000,0.000000,0.000000,0.000000,0.000000,0.000000,0.000000,0.000000,0.000000,0.000000,0.000000,0.000000,0.000000,0.000000,819,819,819,819
10458,0,0.062500,0.000000,1.187500,-0.06,-0.30,0.249521,-1.000000,0.000000,0.000000,0.000000,0.000000,0.000000,0.000000,0.000000,0.000000,0.000000,0.000000,0.000000,0.000000,0.000000,819,819,819,819
10468,0,0.062500,0.000000,1.187500,0.00,-0.47,0.131226,-1.000000,0.000000,0.000000,0.000000,0.000000,0.000000,0.000000,0.000000,0.000000,0.000000,0.000000,0.000000,0.000000,0.000000,819,819,819,819
10478,0,0.062500,0.000000,1.187500,0.00,-0.12,-0.052814,-1.000000,0.000000,0.000000,0.000000,0.000000,0.000000,0.000000,0.000000,0.000000,0.000000,0.000000,0.000000,0.000000,0.000000,819,819,819,819
10488,0,0.062500,0.000000,1.187500,0.00,0.18,-0.358891,-1.000000,0.000000,0.000000,0.000000,0.000000,0.000000,0.000000,0.000000,0.000000,0.000000,0.000000,0.000000,0.000000,0.000000,819,819,819,819
10498,0,0.062500,0.000000,1.187500,0.06,-0.12,-0.433570,-1.000000,0.000000,0.000000,0.000000,0.000000,0.000000,0.000000,0.000000,0.000000,0.000000,0.000000,0.000000,0.000000,0.000000,819,819,819,819
10508,0,0.062500,0.000000,1.187500,-0.06,-0.36,-0.437303,-1.000000,0.000000,0.000000,0.000000,0.000000,0.000000,0.000000,0.000000,0.000000,0.000000,0.000000,0.000000,0.000000,0.000000,819,819,819,819
10518,0,0.062500,0.000000,1.187500,-0.06,-0.12,-0.496865,-1.000000,0.000000,0.000000,0.000000,0.000000,0.000000,0.000000,0.000000,0.000000,0.000000,0.000000,0.000000,0.000000,0.000000,819,819,819,819
10528,0,0.062500,0.000000,1.187500,-0.12,0.00,-0.381093,-1.000000,0.000000,0.000000,0.000000,0.000000,0.000000,0.000000,0.000000,0.000000,0.000000,0.000000,0.000000,0.000000,0.000000,819,819,819,819
10538,0,0.062500,0.000000,1.187500,-0.24,0.18,-0.137805,-1.000000,0.000000,0.000000,0.000000,0.000000,0.000000,0.000000,0.000000,0.000000,0.000000,0.000000,0.000000,0.000000,0.000000,819,819,819,819
10549,0,0.062500,0.000000,1.187500,0.00,0.18,0.052485,-1.000000,0.000000,0.000000,0.000000,0.000000,0.000000,0.000000,0.000000,0.000000,0.000000,0.000000,0.000000,0.000000,0.000000,819,819,819,819
10559,0,0.062500,0.000000,1.187500,0.06,-0.06,0.121374,-1.000000,0.000000,0.000000,0.000000,0.000000,0.000000,0.000000,0.000000,0.000000,0.000000,0.000000,0.000000,0.000000,0.000000,819,819,819,819
10569,0,0.062500,0.000000,1.187500,0.00,-0.30,0.302944,-1.000000,0.000000,0.000000,0.000000,0.000000,0.000000,0.000000,0.000000,0.000000,0.000000,0.000000,0.000000,0.000000,0.000000,819,819,819,819
10579,0,0.062500,0.000000,1.187500,0.12,0.00,0.193272,-1.000000,0.000000,0.000000,0.000000,0.000000,0.000000,0.000000,0.000000,0.000000,0.000000,0.000000,0.000000,0.000000,0.000000,819,819,819,819
10589,0,0.062500,0.000000,1.187500,0.12,0.30,-0.049711,-1.000000,0.000000,0.000000,0.000000,0.000000,0.000000,0.000000,0.000000,0.000000,0.000000,0.000000,0.000000,0.000000,0.000000,819,819,819,819
10599,0,0.062500,0.000000,1.187500,0.00,0.30,-0.061861,-1.000000,0.000000,0.000000,0.000000,0.000000,0.000000,0.000000,0.000000,0.000000,0.000000,0.000000,0.000000,0.000000,0.000000,819,819,819,819
