t,is_crashed,roll,pitch,yaw,p,q,r,throttle,roll_cmd,pitch_cmd,yaw_cmd,roll_pid_out,pitch_pid_out,yaw_pid_out,motor_fl,motor_bl,motor_fr,motor_br,pwm_fl,pwm_bl,pwm_fr,pwm_br
6945,0,0.046906,0.029452,-0.001091,0.00,0.00,-0.000228,-1.000000,-1.047198,-1.047198,0.000000,0.000002,-0.000008,0.000059,0.000000,0.000000,0.000000,0.000000,0,0,0,0
6964,0,0.000000,0.000000,-0.001091,-0.00,-0.00,-0.000137,-1.000000,-1.047198,-1.047198,0.000000,-0.000002,0.000010,0.000036,0.000000,0.000000,0.000000,0.000000,819,819,819,819
6983,0,0.000000,0.000000,-0.001091,-0.00,0.00,0.000110,0.005000,0.000000,0.000000,0.000000,-0.000003,-0.000029,-0.000027,0.000000,0.000000,0.000000,0.000000,819,819,819,819
7003,0,0.000000,0.000000,-0.001091,-0.00,0.00,0.000037,0.005000,0.000000,0.000000,0.000000,-0.000003,-0.000010,-0.000009,0.000000,0.000000,0.000000,0.000000,819,819,819,819
7023,0,0.000000,0.000000,-0.001091,0.00,0.00,-0.000023,0.005000,0.000000,0.000000,0.000000,0.000004,-0.000002,0.000007,0.000000,0.000000,0.000000,0.000000,819,819,819,819
7044,0,0.000000,0.000000,-0.001091,-0.00,-0.00,0.000041,0.005000,0.000000,0.000000,0.000000,-0.000002,0.000007,-0.000010,0.000000,0.000000,0.000000,0.000000,819,819,819,819
7064,0,0.000000,0.000000,-0.001091,-0.00,-0.00,-0.000068,0.005000,0.000000,0.000000,0.000000,-0.000000,0.000001,0.000018,0.000000,0.000000,0.000000,0.000000,819,819,819,819
7084,0,0.000000,0.000000,-0.001091,0.00,0.00,-0.000044,0.005000,0.000000,0.000000,0.000000,0.000002,-0.000016,0.000012,0.000000,0.000000,0.000000,0.000000,819,819,819,819
7104,0,0.000000,0.000000,-0.001091,0.00,-0.00,0.000037,0.005000,0.000000,0.000000,0.000000,0.000000,0.000020,-0.000008,0.000000,0.000000,0.000000,0.000000,819,819,819,819
7124,0,0.000000,0.000000,-0.001091,-0.00,-0.00,0.000114,0.005000,0.000000,0.000000,0.000000,-0.000002,0.000008,-0.000028,0.000000,0.000000,0.000000,0.000000,819,819,819,819
7144,0,0.000000,0.000000,-0.001091,-0.00,0.00,-0.000008,0.005000,0.000000,0.000000,0.000000,-0.000000,-0.000006,0.000003,0.000000,0.000000,0.000000,0.000000,819,819,819,819
7164,0,0.000000,0.000000,-0.001091,-0.00,-0.00,-0.000108,0.005000,0.000000,0.000000,0.000000,-0.000005,0.000003,0.000028,0.000000,0.000000,0.000000,0.000000,819,819,819,819
7184,0,0.000000,0.000000,-0.001091,-0.00,0.00,-0.000006,0.005000,0.000000,0.000000,0.000000,-0.000001,-0.000011,0.000003,0.000000,0.000000,0.000000,0.000000,819,819,819,819
7204,0,0.000000,0.000000,-0.001091,-0.00,0.00,0.000060,0.005000,0.000000,0.000000,0.000000,-0.000000,-0.000010,-0.000014,0.000000,0.000000,0.000000,0.000000,819,819,819,819
7224,0,0.000000,0.000000,-0.001091,-0.00,-0.00,0.000027,0.005000,0.000000,0.000000,0.000000,-0.000000,0.000002,-0.000006,0.000000,0.000000,0.000000,0.000000,819,819,819,819
7244,0,0.000000,0.000000,-0.001091,-0.00,-0.00,-0.000010,0.005000,0.000000,0.000000,0.000000,-0.000012,0.000004,0.000003,0.000000,0.000000,0.000000,0.000000,819,819,819,819
7264,0,0.000000,0.000000,-0.001091,-0.00,0.00,0.000013,0.005000,0.000000,0.000000,0.000000,-0.000000,-0.000015,-0.000003,0.000000,0.000000,0.000000,0.000000,819,819,819,819
7284,0,0.000000,0.000000,-0.001091,-0.00,-0.00,0.000109,0.005000,0.000000,0.000000,0.000000,-0.000003,0.000005,-0.000028,0.000000,0.000000,0.000000,0.000000,819,819,819,819
7304,0,0.000000,0.000000,-0.001091,-0.00,0.00,-0.000039,0.005000,0.000000,0.000000,0.000000,-0.000000,-0.000003,0.000010,0.000000,0.000000,0.000000,0.000000,819,819,819,819
7324,0,0.000000,0.000000,-0.001091,-0.00,0.00,0.000053,0.005000,0.000000,0.000000,0.000000,-0.000005,-0.000032,-0.000013,0.000000,0.000000,0.000000,0.000000,819,819,819,819
7344,0,0.000000,0.000000,-0.001091,-0.00,0.00,0.000102,0.005000,0.000000,0.000000,0.000000,-0.000001,-0.000007,-0.000026,0.000000,0.000000,0.000000,0.000000,819,819,819,819
7364,0,0.000000,0.000000,-0.001091,-0.00,-0.00,-0.000041,0.005000,0.000000,0.000000,0.000000,-0.000008,0.000014,0.000010,0.000000,0.000000,0.000000,0.000000,819,819,819,819
7384,0,0.000000,0.000000,-0.001091,-0.00,0.00,-0.000145,0.005000,0.000000,0.000000,0.000000,-0.000002,-0.000009,0.000037,0.000000,0.000000,0.000000,0.000000,819,819,819,819
7404,0,0.000000,0.000000,-0.001091,-0.00,0.00,-0.000075,0.005000,0.000000,0.000000,0.000000,-0.000008,-0.000030,0.000020,0.000000,0.000000,0.000000,0.000000,819,819,819,819
7424,0,0.000000,0.000000,-0.001091,-0.00,-0.00,-0.000045,0.005000,0.000000,0.000000,0.000000,-0.000005,0.000001,0.000013,0.000000,0.000000,0.000000,0.000000,819,819,819,819
7445,0,0.000000,0.000000,-0.001091,-0.00,-0.00,0.000006,0.005000,0.000000,0.000000,0.000000,-0.000004,0.000031,-0.000000,0.000000,0.000000,0.000000,0.000000,819,819,819,819
7464,0,0.000000,0.000000,-0.001091,-0.00,-0.00,-0.000044,0.005000,0.000000,0.000000,0.000000,-0.000001,0.000018,0.000012,0.000000,0.000000,0.000000,0.000000,819,819,819,819
7484,0,0.000000,0.000000,-0.001091,-0.00,-0.00,-0.000039,0.005000,0.000000,0.000000,0.000000,-0.000003,0.000035,0.000011,0.000000,0.000000,0.000000,0.000000,819,819,819,819
7509,0,0.000000,0.000000,-0.001091,-0.00,-0.00,-0.000008,0.005000,0.000000,0.000000,0.000000,-0.000004,0.000038,0.000003,0.000000,0.000000,0.000000,0.000000,819,819,819,819
7532,0,0.000000,0.000000,-0.001091,-0.00,-0.00,-0.000002,0.005000,0.000000,0.000000,0.000000,-0.000002,0.000012,0.000002,0.000000,0.000000,0.000000,0.000000,819,819,819,819
7553,0,0.000000,0.000000,-0.001091,-0.00,0.00,0.000030,0.005000,0.000000,0.000000,0.000000,-0.000001,-0.000021,-0.000006,0.000000,0.000000,0.000000,0.000000,819,819,819,819
7574,0,0.000000,0.000000,-0.001091,-0.00,0.00,-0.000009,0.005000,0.000000,0.000000,0.000000,-0.000001,-0.000039,0.000004,0.000000,0.000000,0.000000,0.000000,819,819,819,819
7594,0,0.000000,0.000000,-0.001091,-0.00,0.00,-0.000002,0.005000,0.000000,0.000000,0.000000,-0.000001,-0.000028,0.000002,0.000000,0.000000,0.000000,0.000000,819,819,819,819
7615,0,0.000000,0.000000,-0.001091,-0.00,0.00,0.000061,0.005000,0.000000,0.000000,0.000000,-0.000001,-0.000010,-0.000014,0.000000,0.000000,0.000000,0.000000,819,819,819,819
7635,0,0.000000,0.000000,-0.001091,-0.00,0.00,0.000043,0.005000,0.000000,0.000000,0.000000,-0.000003,-0.000002,-0.000010,0.000000,0.000000,0.000000,0.000000,819,819,819,819
7655,0,0.000000,0.000000,-0.001091,-0.00,0.00,0.000115,0.005000,0.000000,0.000000,0.000000,-0.000006,-0.000000,-0.000029,0.000000,0.000000,0.000000,0.000000,819,819,819,819
7675,0,0.000000,0.000000,-0.001091,-0.00,-0.00,0.000069,0.005000,0.000000,0.000000,0.000000,-0.000002,0.000011,-0.000017,0.000000,0.000000,0.000000,0.000000,819,819,819,819
7695,0,0.000000,0.000000,-0.001091,-0.00,-0.00,0.000120,0.005000,0.000000,0.000000,0.000000,-0.000006,0.000018,-0.000031,0.000000,0.000000,0.000000,0.000000,819,819,819,819
7715,0,0.000000,0.000000,-0.001091,0.00,-0.00,0.000100,0.005000,0.000000,0.000000,0.000000,0.000000,0.000011,-0.000026,0.000000,0.000000,0.000000,0.000000,819,819,819,819
7735,0,0.000000,0.000000,-0.001091,0.00,-0.00,0.000051,0.005000,0.000000,0.000000,0.000000,0.000001,0.000010,-0.000014,0.000000,0.000000,0.000000,0.000000,819,819,819,819
7755,0,0.000000,0.000000,-0.001091,0.00,0.00,0.000041,0.005000,0.000000,0.000000,0.000000,-0.000000,-0.000006,-0.000011,0.000000,0.000000,0.000000,0.000000,819,819,819,819
7775,0,0.000000,0.000000,-0.001091,0.00,0.00,-0.000038,0.005000,0.000000,0.000000,0.000000,0.000001,-0.000009,0.000009,0.000000,0.000000,0.000000,0.000000,819,819,819,819
7795,0,0.000000,0.000000,-0.001091,-0.00,-0.00,-0.000008,0.005000,0.000000,0.000000,0.000000,-0.000005,0.000021,0.000001,0.000000,0.000000,0.000000,0.000000,819,819,819,819
7815,0,0.000000,0.000000,-0.001091,-0.00,-0.00,0.000044,0.005000,0.000000,0.000000,0.000000,-0.000002,0.000000,-0.000012,0.000000,0.000000,0.000000,0.000000,819,819,819,819
7835,0,0.000000,0.000000,-0.001091,0.00,0.00,0.000024,0.005000,0.000000,0.000000,0.000000,0.000001,-0.000008,-0.000007,0.000000,0.000000,0.000000,0.000000,819,819,819,819
7855,0,0.000000,0.000000,-0.001091,-0.00,-0.00,-0.000041,0.005000,0.000000,0.000000,0.000000,-0.000005,0.000014,0.000009,0.000000,0.000000,0.000000,0.000000,819,819,819,819
7875,0,0.000000,0.000000,-0.001091,-0.00,0.00,-0.000008,0.005000,0.000000,0.000000,0.000000,-0.000002,-0.000005,0.000001,0.000000,0.000000,0.000000,0.000000,819,819,819,819
7895,0,0.000000,0.000000,-0.001091,0.00,0.00,0.000044,0.005000,0.000000,0.000000,0.000000,0.000001,-0.000009,-0.000012,0.000000,0.000000,0.000000,0.000000,819,819,819,819
7915,0,0.000000,0.000000,-0.001091,0.00,-0.00,0.000055,0.005000,0.000000,0.000000,0.000000,-0.000000,0.000006,-0.000015,0.000000,0.000000,0.000000,0.000000,819,819,819,819
7935,0,0.000000,0.000000,-0.001091,-0.00,0.00,0.000026,0.005000,0.000000,0.000000,0.000000,-0.000003,-0.000003,-0.000008,0.000000,0.000000,0.000000,0.000000,819,819,819,819
7955,0,0.000000,0.000000,-0.001091,-0.00,0.00,0.000005,0.005000,0.000000,0.000000,0.000000,-0.000004,-0.000000,-0.000003,0.000000,0.000000,0.000000,0.000000,819,819,819,819
7975,0,0.000000,0.000000,-0.001091,-0.00,-0.00,0.000001,0.005000,0.000000,0.000000,0.000000,-0.000002,0.000004,-0.000002,0.000000,0.000000,0.000000,0.000000,819,819,819,819
7996,0,0.000000,0.000000,-0.001091,-0.00,-0.00,0.000015,0.005000,0.000000,0.000000,0.000000,-0.000001,0.000012,-0.000005,0.000000,0.000000,0.000000,0.000000,819,819,819,819
8016,0,0.000000,0.000000,-0.001091,-0.00,0.00,0.000034,0.005000,0.000000,0.000000,0.000000,-0.000006,-0.000001,-0.000010,0.000000,0.000000,0.000000,0.000000,819,819,819,819
8036,0,0.000000,0.000000,-0.001091,-0.00,-0.00,0.000052,0.005000,0.000000,0.000000,0.000000,-0.000002,0.000004,-0.000015,0.000000,0.000000,0.000000,0.000000,819,819,819,819
8056,0,0.000000,0.000000,-0.001091,-0.00,-0.00,-0.000066,0.005000,0.000000,0.000000,0.000000,-0.000002,0.000009,0.000015,0.000000,0.000000,0.000000,0.000000,819,819,819,819
8076,0,0.000000,0.000000,-0.001091,0.00,-0.00,-0.000028,0.005000,0.000000,0.000000,0.000000,0.000003,0.000002,0.000006,0.000000,0.000000,0.000000,0.000000,819,819,819,819
8096,0,0.000000,0.000000,-0.001091,-0.00,-0.00,0.000055,0.005000,0.000000,0.000000,0.000000,-0.000003,0.000008,-0.000016,0.000000,0.000000,0.000000,0.000000,819,819,819,819
8116,0,0.000000,0.000000,-0.001091,-0.00,-0.00,0.000057,0.005000,0.000000,0.000000,0.000000,-0.000004,0.000014,-0.000016,0.000000,0.000000,0.000000,0.000000,819,819,819,819
8140,0,0.000000,0.000000,-0.001091,-0.00,-0.00,0.000011,0.005000,0.000000,0.000000,0.000000,-0.000002,0.000003,-0.000005,0.000000,0.000000,0.000000,0.000000,819,819,819,819
8163,0,0.000000,0.000000,-0.001091,-0.00,-0.00,-0.000043,0.005000,0.000000,0.000000,0.000000,-0.000001,0.000009,0.000009,0.000000,0.000000,0.000000,0.000000,819,819,819,819
8184,0,0.000000,0.000000,-0.001091,-0.00,-0.00,0.000007,0.005000,0.000000,0.000000,0.000000,-0.000006,0.000018,-0.000004,0.000000,0.000000,0.000000,0.000000,819,819,819,819
8205,0,0.000000,0.000000,-0.001091,-0.00,-0.00,0.000047,0.005000,0.000000,0.000000,0.000000,-0.000005,0.000012,-0.000014,0.000000,0.000000,0.000000,0.000000,819,819,819,819
8226,0,0.000000,0.000000,-0.001091,0.00,0.00,-0.000006,0.005000,0.000000,0.000000,0.000000,0.000000,-0.000005,-0.000000,0.000000,0.000000,0.000000,0.000000,819,819,819,819
8246,0,0.000000,0.000000,-0.001091,0.00,0.00,-0.000032,0.005000,0.000000,0.000000,0.000000,0.000001,-0.000008,0.000006,0.000000,0.000000,0.000000,0.000000,819,819,819,819
8266,0,0.000000,0.000000,-0.001091,0.00,0.00,-0.000022,0.005000,0.000000,0.000000,0.000000,0.000004,-0.000005,0.000004,0.000000,0.000000,0.000000,0.000000,819,819,819,819
8286,0,0.000000,0.000000,-0.001091,0.00,0.00,-0.000035,0.005000,0.000000,0.000000,0.000000,0.000004,-0.000000,0.000007,0.000000,0.000000,0.000000,0.000000,819,819,819,819
8306,0,0.000000,0.000000,-0.001091,0.00,0.00,-0.000022,0.005000,0.000000,0.000000,0.000000,0.000005,0.000000,0.000004,0.000000,0.000000,0.000000,0.000000,819,819,819,819
8326,0,0.000000,0.000000,-0.001091,-0.00,0.00,0.000011,0.005000,0.000000,0.000000,0.000000,-0.000002,0.000000,-0.000004,0.000000,0.000000,0.000000,0.000000,819,819,819,819
8346,0,0.000000,0.000000,-0.001091,0.00,0.00,-0.000028,0.005000,0.000000,0.000000,0.000000,0.000001,-0.000007,0.000006,0.000000,0.000000,0.000000,0.000000,819,819,819,819
8366,0,0.000000,0.000000,-0.001091,0.00,0.00,0.000010,0.005000,0.000000,0.000000,0.000000,0.000002,-0.000001,-0.000004,0.000000,0.000000,0.000000,0.000000,819,819,819,819
8386,0,0.000000,0.000000,-0.001091,0.00,0.00,0.000017,0.005000,0.000000,0.000000,0.000000,0.000004,-0.000008,-0.000006,0.000000,0.000000,0.000000,0.000000,819,819,819,819
8406,0,0.000000,0.000000,-0.001091,0.00,-0.00,-0.000042,0.005000,0.000000,0.000000,0.000000,0.000005,0.000003,0.000009,0.000000,0.000000,0.000000,0.000000,819,819,819,819
8426,0,0.000000,0.000000,-0.001091,0.00,-0.00,-0.000024,0.005000,0.000000,0.000000,0.000000,0.000000,0.000000,0.000005,0.000000,0.000000,0.000000,0.000000,819,819,819,819
8447,0,0.000000,0.000000,-0.001091,0.00,-0.00,0.000026,0.005000,0.000000,0.000000,0.000000,0.000004,0.000012,-0.000008,0.000000,0.000000,0.000000,0.000000,819,819,819,819
8467,0,0.000000,0.000000,-0.001091,0.00,-0.00,0.000036,0.005000,0.000000,0.000000,0.000000,0.000005,0.000011,-0.000011,0.000000,0.000000,0.000000,0.000000,819,819,819,819
8487,0,0.000000,0.000000,-0.001091,0.00,0.00,-0.000054,0.005000,0.000000,0.000000,0.000000,0.000003,-0.000013,0.000012,0.000000,0.000000,0.000000,0.000000,819,819,819,819
8507,0,0.000000,0.000000,-0.001091,0.00,0.00,-0.000072,0.005000,0.000000,0.000000,0.000000,0.000002,-0.000006,0.000017,0.000000,0.000000,0.000000,0.000000,819,819,819,819
8527,0,0.000000,0.000000,-0.001091,0.00,0.00,0.000000,0.005000,0.000000,0.000000,0.000000,0.000005,-0.000009,-0.000001,0.000000,0.000000,0.000000,0.000000,819,819,819,819
8547,0,0.000000,0.000000,-0.001091,0.00,0.00,0.000046,0.005000,0.000000,0.000000,0.000000,0.000003,-0.000002,-0.000013,0.000000,0.000000,0.000000,0.000000,819,819,819,819
8567,0,0.000000,0.000000,-0.001091,0.00,0.00,-0.000021,0.005000,0.000000,0.000000,0.000000,0.000003,-0.000008,0.000004,0.000000,0.000000,0.000000,0.000000,819,819,819,819
8587,0,0.000000,0.000000,-0.001091,0.00,0.00,-0.000019,0.005000,0.000000,0.000000,0.000000,0.000003,-0.000001,0.000004,0.000000,0.000000,0.000000,0.000000,819,819,819,819
8607,0,0.000000,0.000000,-0.001091,0.00,0.00,-0.000004,0.005000,0.000000,0.000000,0.000000,0.000000,-0.000000,-0.000000,0.000000,0.000000,0.000000,0.000000,819,819,819,819
8627,0,0.000000,0.000000,-0.001091,0.00,0.00,-0.000016,0.005000,0.000000,0.000000,0.000000,-0.000000,-0.000004,0.000003,0.000000,0.000000,0.000000,0.000000,819,819,819,819
8647,0,0.000000,0.000000,-0.001091,0.00,-0.00,-0.000003,0.005000,0.000000,0.000000,0.000000,-0.000000,0.000003,-0.000000,0.000000,0.000000,0.000000,0.000000,819,819,819,819
8667,0,0.000000,0.000000,-0.001091,0.00,0.00,-0.000031,0.005000,0.000000,0.000000,0.000000,0.000005,-0.000011,0.000007,0.000000,0.000000,0.000000,0.000000,819,819,819,819
8687,0,0.000000,0.000000,-0.001091,0.00,-0.00,-0.000037,0.005000,0.000000,0.000000,0.000000,0.000003,0.000002,0.000009,0.000000,0.000000,0.000000,0.000000,819,819,819,819
8707,0,0.000000,0.000000,-0.001091,0.00,0.00,-0.000007,0.005000,0.000000,0.000000,0.000000,0.000003,-0.000004,0.000001,0.000000,0.000000,0.000000,0.000000,819,819,819,819
8727,0,0.000000,0.000000,-0.001091,0.00,-0.00,0.000029,0.005000,0.000000,0.000000,0.000000,0.000000,0.000003,-0.000008,0.000000,0.000000,0.000000,0.000000,819,819,819,819
8747,0,0.000000,0.000000,-0.001091,-0.00,-0.00,0.000036,0.005000,0.000000,0.000000,0.000000,-0.000002,0.000009,-0.000010,0.000000,0.000000,0.000000,0.000000,819,819,819,819
8772,0,0.000000,0.000000,-0.001091,-0.00,0.00,0.000007,0.004000,0.000000,0.000000,0.000000,-0.000005,-0.000006,-0.000003,0.000000,0.000000,0.000000,0.000000,819,819,819,819
8794,0,0.000000,0.000000,-0.001091,0.00,-0.00,0.000032,0.005000,0.000000,0.000000,0.000000,0.000004,0.000003,-0.000009,0.000000,0.000000,0.000000,0.000000,819,819,819,819
8816,0,0.000000,0.000000,-0.001091,0.00,0.00,0.000006,0.005000,0.000000,0.000000,0.000000,0.000000,-0.000003,-0.000003,0.000000,0.000000,0.000000,0.000000,819,819,819,819
8836,0,0.000000,0.000000,-0.001091,0.00,0.00,0.000017,0.005000,0.000000,0.000000,0.000000,0.000000,-0.000016,-0.000005,0.000000,0.000000,0.000000,0.000000,819,819,819,819
8859,0,0.000000,0.000000,-0.001091,0.00,-0.00,0.000019,0.005000,0.000000,0.000000,0.000000,0.000002,0.000000,-0.000006,0.000000,0.000000,0.000000,0.000000,819,819,819,819
8878,0,0.000000,0.000000,-0.001091,0.00,-0.00,0.000019,0.005000,0.000000,0.000000,0.000000,0.000000,0.000004,-0.000006,0.000000,0.000000,0.000000,0.000000,819,819,819,819
8898,0,0.000000,0.000000,-0.001091,0.00,0.00,0.000019,0.005000,0.000000,0.000000,0.000000,0.000005,-0.000003,-0.000006,0.000000,0.000000,0.000000,0.000000,819,819,819,819
8917,0,0.000000,0.000000,-0.001091,0.00,0.00,0.000004,0.005000,0.000000,0.000000,0.000000,0.000001,-0.000012,-0.000002,0.000000,0.000000,0.000000,0.000000,819,819,819,819
8938,0,0.000000,0.000000,-0.001091,-0.00,0.00,0.000000,0.005000,0.000000,0.000000,0.000000,-0.000004,-0.000010,-0.000002,0.000000,0.000000,0.000000,0.000000,819,819,819,819
8958,0,0.000000,0.000000,-0.001091,-0.00,0.00,0.000031,0.005000,0.000000,0.000000,0.000000,-0.000003,-0.000010,-0.000009,0.000000,0.000000,0.000000,0.000000,819,819,819,819
8978,0,0.000000,0.000000,-0.001091,-0.00,-0.00,-0.000024,0.005000,0.000000,0.000000,0.000000,-0.000008,0.000005,0.000005,0.000000,0.000000,0.000000,0.000000,819,819,819,819
8998,0,0.000000,0.000000,-0.001091,-0.00,0.00,-0.000020,0.005000,0.000000,0.000000,0.000000,-0.000002,-0.000007,0.000004,0.000000,0.000000,0.000000,0.000000,819,819,819,819
9018,0,0.000000,0.000000,-0.001091,-0.00,-0.00,0.000026,0.005000,0.000000,0.000000,0.000000,-0.000000,0.000002,-0.000008,0.000000,0.000000,0.000000,0.000000,819,819,819,819
9038,0,0.000000,0.000000,-0.001091,-0.00,-0.00,0.000005,0.005000,0.000000,0.000000,0.000000,-0.000005,0.000008,-0.000003,0.000000,0.000000,0.000000,0.000000,819,819,819,819
9058,0,0.000000,0.000000,-0.001091,-0.00,-0.00,0.000016,0.005000,0.000000,0.000000,0.000000,-0.000004,0.000001,-0.000006,0.000000,0.000000,0.000000,0.000000,819,819,819,819
9078,0,0.000000,0.000000,-0.001091,0.00,-0.00,0.000003,0.005000,0.000000,0.000000,0.000000,0.000001,0.000000,-0.000002,0.000000,0.000000,0.000000,0.000000,819,819,819,819
9098,0,0.000000,0.000000,-0.001091,-0.00,0.00,-0.000015,0.005000,0.000000,0.000000,0.000000,-0.000002,-0.000004,0.000002,0.000000,0.000000,0.000000,0.000000,819,819,819,819
9118,0,0.000000,0.000000,-0.001091,-0.00,0.00,-0.000003,0.005000,0.000000,0.000000,0.000000,-0.000000,-0.000001,-0.000000,0.000000,0.000000,0.000000,0.000000,819,819,819,819
9138,0,0.000000,0.000000,-0.001091,0.00,0.00,-0.000016,0.005000,0.000000,0.000000,0.000000,0.000002,-0.000008,0.000002,0.000000,0.000000,0.000000,0.000000,819,819,819,819
9158,0,0.000000,0.000000,-0.001091,0.00,0.00,0.000012,0.005000,0.000000,0.000000,0.000000,0.000000,-0.000014,-0.000005,0.000000,0.000000,0.000000,0.000000,819,819,819,819
9178,0,0.000000,0.000000,-0.001091,-0.00,0.00,0.000033,0.005000,0.000000,0.000000,0.000000,-0.000003,-0.000007,-0.000010,0.000000,0.000000,0.000000,0.000000,819,819,819,819
9198,0,0.000000,0.000000,-0.001091,0.00,0.00,-0.000024,0.005000,0.000000,0.000000,0.000000,0.000002,-0.000002,0.000004,0.000000,0.000000,0.000000,0.000000,819,819,819,819
9218,0,0.000000,0.000000,-0.001091,0.00,0.00,-0.000035,0.005000,0.000000,0.000000,0.000000,0.000002,-0.000013,0.000007,0.000000,0.000000,0.000000,0.000000,819,819,819,819
9238,0,0.000000,0.000000,-0.001091,-0.00,-0.00,-0.000007,0.005000,0.000000,0.000000,0.000000,-0.000004,0.000000,0.000000,0.000000,0.000000,0.000000,0.000000,819,819,819,819
9258,0,0.000000,0.000000,-0.001091,-0.00,-0.00,0.000029,0.005000,0.000000,0.000000,0.000000,-0.000001,0.000011,-0.000009,0.000000,0.000000,0.000000,0.000000,819,819,819,819
9278,0,0.000000,0.000000,-0.001091,-0.00,-0.00,0.000067,0.005000,0.000000,0.000000,0.000000,-0.000000,0.000018,-0.000019,0.000000,0.000000,0.000000,0.000000,819,819,819,819
9298,0,0.000000,0.000000,-0.001091,-0.00,0.00,0.000013,0.005000,0.000000,0.000000,0.000000,-0.000003,-0.000000,-0.000005,0.000000,0.000000,0.000000,0.000000,819,819,819,819
9318,0,0.000000,0.000000,-0.001091,0.00,0.00,-0.000028,0.005000,0.000000,0.000000,0.000000,0.000001,-0.000008,0.000005,0.000000,0.000000,0.000000,0.000000,819,819,819,819
9338,0,0.000000,0.000000,-0.001091,0.00,0.00,0.000010,0.005000,0.000000,0.000000,0.000000,0.000002,-0.000010,-0.000004,0.000000,0.000000,0.000000,0.000000,819,819,819,819
9358,0,0.000000,0.000000,-0.001091,0.00,-0.00,0.000032,0.005000,0.000000,0.000000,0.000000,0.000000,0.000002,-0.000010,0.000000,0.000000,0.000000,0.000000,819,819,819,819
9382,0,0.000000,0.000000,-0.001091,0.00,-0.00,0.000022,0.005000,0.000000,0.000000,0.000000,0.000002,0.000012,-0.000008,0.000000,0.000000,0.000000,0.000000,819,819,819,819
9402,0,0.000000,0.000000,-0.001091,-0.00,0.00,0.000004,0.005000,0.000000,0.000000,0.000000,-0.000002,-0.000018,-0.000003,0.000000,0.000000,0.000000,0.000000,819,819,819,819
9422,0,0.000000,0.000000,-0.001091,-0.00,0.00,-0.000030,0.005000,0.000000,0.000000,0.000000,-0.000000,-0.000008,0.000006,0.000000,0.000000,0.000000,0.000000,819,819,819,819
9442,0,0.000000,0.000000,-0.001091,0.00,0.00,0.000040,0.005000,0.000000,0.000000,0.000000,0.000002,-0.000002,-0.000012,0.000000,0.000000,0.000000,0.000000,819,819,819,819
9461,0,0.000000,0.000000,-0.001091,0.00,0.00,0.000023,0.005000,0.000000,0.000000,0.000000,0.000000,-0.000009,-0.000008,0.000000,0.000000,0.000000,0.000000,819,819,819,819
9481,0,0.000000,0.000000,-0.001091,-0.00,0.00,-0.000011,0.005000,0.000000,0.000000,0.000000,-0.000003,-0.000006,0.000000,0.000000,0.000000,0.000000,0.000000,819,819,819,819
9500,0,0.000000,0.000000,-0.001091,-0.00,0.00,-0.000002,0.005000,0.000000,0.000000,0.000000,-0.000000,-0.000002,-0.000002,0.000000,0.000000,0.000000,0.000000,819,819,819,819
9519,0,0.000000,0.000000,-0.001091,-0.00,-0.00,0.000015,0.005000,0.000000,0.000000,0.000000,-0.000000,0.000007,-0.000006,0.000000,0.000000,0.000000,0.000000,819,819,819,819
9539,0,0.000000,0.000000,-0.001091,0.00,-0.00,0.000018,0.005000,0.000000,0.000000,0.000000,0.000004,0.000000,-0.000007,0.000000,0.000000,0.000000,0.000000,819,819,819,819
9559,0,0.000000,0.000000,-0.001091,0.00,-0.00,-0.000027,0.005000,0.000000,0.000000,0.000000,0.000003,0.000004,0.000005,0.000000,0.000000,0.000000,0.000000,819,819,819,819
9579,0,0.000000,0.000000,-0.001091,0.00,-0.00,0.000025,0.005000,0.000000,0.000000,0.000000,0.000000,0.000004,-0.000009,0.000000,0.000000,0.000000,0.000000,819,819,819,819
9599,0,0.000000,0.000000,-0.001091,-0.00,-0.00,0.000035,0.005000,0.000000,0.000000,0.000000,-0.000002,0.000008,-0.000012,0.000000,0.000000,0.000000,0.000000,819,819,819,819
9619,0,0.000000,0.000000,-0.001091,-0.00,0.00,0.000022,0.005000,0.000000,0.000000,0.000000,-0.000003,-0.000003,-0.000008,0.000000,0.000000,0.000000,0.000000,819,819,819,819
9639,0,0.000000,0.000000,-0.001091,0.00,0.00,-0.000026,0.005000,0.000000,0.000000,0.000000,0.000002,-0.000017,0.000004,0.000000,0.000000,0.000000,0.000000,819,819,819,819
9659,0,0.000000,0.000000,-0.001091,0.00,0.00,-0.000020,0.005000,0.000000,0.000000,0.000000,0.000000,-0.000012,0.000003,0.000000,0.000000,0.000000,0.000000,819,819,819,819
9679,0,0.000000,0.000000,-0.001091,0.00,-0.00,0.000026,0.005000,0.000000,0.000000,0.000000,-0.000000,0.000000,-0.000009,0.000000,0.000000,0.000000,0.000000,819,819,819,819
9699,0,0.000000,0.000000,-0.001091,0.00,0.00,-0.000010,0.005000,0.000000,0.000000,0.000000,0.000002,-0.000008,0.000000,0.000000,0.000000,0.000000,0.000000,819,819,819,819
9719,0,0.000000,0.000000,-0.001091,0.00,-0.00,-0.000032,0.005000,0.000000,0.000000,0.000000,0.000003,0.000002,0.000006,0.000000,0.000000,0.000000,0.000000,819,819,819,819
9739,0,0.000000,0.000000,-0.001091,-0.00,-0.00,0.000054,0.005000,0.000000,0.000000,0.000000,-0.000004,-0.000000,-0.000016,0.000000,0.000000,0.000000,0.000000,819,819,819,819
9759,0,0.000000,0.000000,-0.001091,-0.00,0.00,0.000041,0.005000,0.000000,0.000000,0.000000,-0.000003,-0.000009,-0.000013,0.000000,0.000000,0.000000,0.000000,819,819,819,819
9779,0,0.000000,0.000000,-0.001091,-0.00,-0.00,-0.000037,0.005000,0.000000,0.000000,0.000000,-0.000003,0.000025,0.000007,0.000000,0.000000,0.000000,0.000000,819,819,819,819
9799,0,0.000000,0.000000,-0.001091,-0.00,0.00,0.000008,0.005000,0.000000,0.000000,0.000000,-0.000003,-0.000003,-0.000005,0.000000,0.000000,0.000000,0.000000,819,819,819,819
9819,0,0.000000,0.000000,-0.001091,-0.00,0.00,0.000017,0.005000,0.000000,0.000000,0.000000,-0.000006,-0.000009,-0.000007,0.000000,0.000000,0.000000,0.000000,819,819,819,819
9839,0,0.000000,0.000000,-0.001091,-0.00,-0.00,-0.000027,0.005000,0.000000,0.000000,0.000000,-0.000002,0.000005,0.000004,0.000000,0.000000,0.000000,0.000000,819,819,819,819
9859,0,0.000000,0.000000,-0.001091,-0.00,0.00,0.000010,0.005000,0.000000,0.000000,0.000000,-0.000003,-0.000011,-0.000005,0.000000,0.000000,0.000000,0.000000,819,819,819,819
9879,0,0.000000,0.000000,-0.001091,-0.00,0.00,-0.000028,0.005000,0.000000,0.000000,0.000000,-0.000001,-0.000011,0.000005,0.000000,0.000000,0.000000,0.000000,819,819,819,819
9900,0,0.000000,0.000000,-0.001091,-0.00,-0.00,0.000010,0.005000,0.000000,0.000000,0.000000,-0.000010,0.000024,-0.000005,0.000000,0.000000,0.000000,0.000000,819,819,819,819
9919,0,0.000000,0.000000,-0.001091,0.00,0.00,0.000078,0.005000,0.000000,0.000000,0.000000,-0.000000,-0.000019,-0.000023,0.000000,0.000000,0.000000,0.000000,819,819,819,819
9939,0,0.000000,0.000000,-0.001091,-0.00,-0.00,-0.000045,0.005000,0.000000,0.000000,0.000000,-0.000003,0.000007,0.000009,0.000000,0.000000,0.000000,0.000000,819,819,819,819
9960,0,0.000000,0.000000,-0.001091,-0.00,-0.00,0.000037,0.005000,0.000000,0.000000,0.000000,-0.000001,0.000020,-0.000012,0.000000,0.000000,0.000000,0.000000,819,819,819,819
9980,0,0.000000,0.000000,-0.001091,-0.00,0.00,0.000053,0.005000,0.000000,0.000000,0.000000,-0.000003,-0.000024,-0.000017,0.000000,0.000000,0.000000,0.000000,819,819,819,819
10003,0,0.000000,0.000000,-0.001091,0.00,0.00,-0.000020,0.005000,0.000000,0.000000,0.000000,0.000003,-0.000005,0.000002,0.000000,0.000000,0.000000,0.000000,819,819,819,819
10026,0,0.000000,0.000000,-0.001091,0.00,0.00,0.000026,0.005000,0.000000,0.000000,0.000000,0.000002,-0.000002,-0.000010,0.000000,0.000000,0.000000,0.000000,819,819,819,819
10048,0,0.000000,0.000000,-0.001091,-0.00,0.00,0.000005,0.005000,0.000000,0.000000,0.000000,-0.000002,-0.000009,-0.000005,0.000000,0.000000,0.000000,0.000000,819,819,819,819
10069,0,0.000000,0.000000,-0.001091,-0.00,-0.00,-0.000014,0.005000,0.000000,0.000000,0.000000,-0.000003,0.000001,0.000000,0.000000,0.000000,0.000000,0.000000,819,819,819,819
10089,0,0.000000,0.000000,-0.001091,0.00,0.00,0.000028,0.005000,0.000000,0.000000,0.000000,0.000001,-0.000032,-0.000010,0.000000,0.000000,0.000000,0.000000,819,819,819,819
10110,0,0.000000,0.000000,-0.001091,-0.00,0.00,0.000021,0.005000,0.000000,0.000000,0.000000,-0.000003,-0.000003,-0.000009,0.000000,0.000000,0.000000,0.000000,819,819,819,819
10130,0,0.000000,0.000000,-0.001091,-0.00,0.00,-0.000026,0.005000,0.000000,0.000000,0.000000,-0.000004,-0.000002,0.000003,0.000000,0.000000,0.000000,0.000000,819,819,819,819
10150,0,0.000000,0.000000,-0.001091,0.00,0.00,-0.000020,0.005000,0.000000,0.000000,0.000000,0.000000,-0.000005,0.000002,0.000000,0.000000,0.000000,0.000000,819,819,819,819
10170,0,0.000000,0.000000,-0.001091,-0.00,-0.00,-0.000019,0.005000,0.000000,0.000000,0.000000,-0.000003,0.000006,0.000002,0.000000,0.000000,0.000000,0.000000,819,819,819,819
10190,0,0.000000,0.000000,-0.001091,-0.00,0.00,0.000027,0.005000,0.000000,0.000000,0.000000,-0.000001,-0.000008,-0.000010,0.000000,0.000000,0.000000,0.000000,819,819,819,819
10210,0,0.000000,0.000000,-0.001091,-0.00,-0.00,0.000005,0.005000,0.000000,0.000000,0.000000,-0.000001,0.000005,-0.000005,0.000000,0.000000,0.000000,0.000000,819,819,819,819
10230,0,0.000000,0.000000,-0.001091,-0.00,-0.00,0.000001,0.005000,0.000000,0.000000,0.000000,-0.000003,0.000000,-0.000004,0.000000,0.000000,0.000000,0.000000,819,819,819,819
10250,0,0.000000,0.000000,-0.001091,0.00,0.00,-0.000015,0.005000,0.000000,0.000000,0.000000,0.000003,-0.000005,0.000000,0.000000,0.000000,0.000000,0.000000,819,819,819,819
10270,0,0.000000,0.000000,-0.001091,0.00,-0.00,0.000027,0.005000,0.000000,0.000000,0.000000,-0.000000,0.000002,-0.000010,0.000000,0.000000,0.000000,0.000000,819,819,819,819
10290,0,0.000000,0.000000,-0.001091,-0.00,0.00,0.000005,0.005000,0.000000,0.000000,0.000000,-0.000003,-0.000004,-0.000005,0.000000,0.000000,0.000000,0.000000,819,819,819,819
10310,0,0.000000,0.000000,-0.001091,-0.00,-0.00,0.000001,0.005000,0.000000,0.000000,0.000000,-0.000001,0.000002,-0.000004,0.000000,0.000000,0.000000,0.000000,819,819,819,819
10330,0,0.000000,0.000000,-0.001091,-0.00,0.00,-0.000015,0.005000,0.000000,0.000000,0.000000,-0.000001,-0.000004,0.000000,0.000000,0.000000,0.000000,0.000000,819,819,819,819
10350,0,0.000000,0.000000,-0.001091,-0.00,-0.00,0.000012,0.005000,0.000000,0.000000,0.000000,-0.000001,0.000006,-0.000006,0.000000,0.000000,0.000000,0.000000,819,819,819,819
10370,0,0.000000,0.000000,-0.001091,-0.00,-0.00,0.000002,0.005000,0.000000,0.000000,0.000000,-0.000008,0.000000,-0.000004,0.000000,0.000000,0.000000,0.000000,819,819,819,819
10391,0,0.000000,0.000000,-0.001091,-0.00,-0.00,0.000031,0.005000,0.000000,0.000000,0.000000,-0.000010,0.000011,-0.000011,0.000000,0.000000,0.000000,0.000000,819,819,819,819
10411,0,0.000000,0.000000,-0.001091,-0.00,-0.00,0.000052,0.005000,0.000000,0.000000,0.000000,-0.000005,0.000001,-0.000017,0.000000,0.000000,0.000000,0.000000,819,819,819,819
10431,0,0.000000,0.000000,-0.001091,0.00,-0.00,-0.000005,0.005000,0.000000,0.000000,0.000000,0.000000,0.000003,-0.000003,0.000000,0.000000,0.000000,0.000000,819,819,819,819
10451,0,0.000000,0.000000,-0.001091,0.00,-0.00,0.000014,0.005000,0.000000,0.000000,0.000000,-0.000001,0.000004,-0.000007,0.000000,0.000000,0.000000,0.000000,819,819,819,819
10471,0,0.000000,0.000000,-0.001091,-0.00,-0.00,0.000033,0.005000,0.000000,0.000000,0.000000,-0.000004,0.000004,-0.000012,0.000000,0.000000,0.000000,0.000000,819,819,819,819
10491,0,0.000000,0.000000,-0.001091,-0.00,-0.00,0.000022,0.005000,0.000000,0.000000,0.000000,-0.000004,0.000008,-0.000010,0.000000,0.000000,0.000000,0.000000,819,819,819,819
10511,0,0.000000,0.000000,-0.001091,-0.00,-0.00,-0.000011,0.005000,0.000000,0.000000,0.000000,-0.000002,0.000005,-0.000001,0.000000,0.000000,0.000000,0.000000,819,819,819,819
10531,0,0.000000,0.000000,-0.001091,-0.00,-0.00,-0.000002,0.005000,0.000000,0.000000,0.000000,-0.000002,0.000008,-0.000003,0.000000,0.000000,0.000000,0.000000,819,819,819,819
10551,0,0.000000,0.000000,-0.001091,-0.00,-0.00,-0.000016,0.005000,0.000000,0.000000,0.000000,-0.000004,0.000013,0.000000,0.000000,0.000000,0.000000,0.000000,819,819,819,819
10571,0,0.000000,0.000000,-0.001091,-0.00,0.00,0.000012,0.005000,0.000000,0.000000,0.000000,-0.000004,-0.000002,-0.000007,0.000000,0.000000,0.000000,0.000000,819,819,819,819
10591,0,0.000000,0.000000,-0.001091,0.00,0.00,-0.000013,0.005000,0.000000,0.000000,0.000000,0.000000,-0.000005,-0.000000,0.000000,0.000000,0.000000,0.000000,819,819,819,819
10611,0,0.000000,0.000000,-0.001091,0.00,0.00,0.000013,0.005000,0.000000,0.000000,0.000000,0.000001,-0.000013,-0.000007,0.000000,0.000000,0.000000,0.000000,819,819,819,819
10636,0,0.000000,0.000000,-0.001091,-0.00,-0.00,-0.000013,0.005000,0.000000,0.000000,0.000000,-0.000003,0.000009,-0.000000,0.000000,0.000000,0.000000,0.000000,819,819,819,819
10657,0,0.000000,0.000000,-0.001091,-0.00,-0.00,-0.000018,0.005000,0.000000,0.000000,0.000000,-0.000004,0.000005,0.000000,0.000000,0.000000,0.000000,0.000000,819,819,819,819
10678,0,0.000000,0.000000,-0.001091,-0.00,-0.00,0.000027,0.005000,0.000000,0.000000,0.000000,-0.000005,0.000005,-0.000011,0.000000,0.000000,0.000000,0.000000,819,819,819,819
10699,0,0.000000,0.000000,-0.001091,-0.00,0.00,0.000021,0.005000,0.000000,0.000000,0.000000,-0.000005,-0.000003,-0.000009,0.000000,0.000000,0.000000,0.000000,819,819,819,819
10720,0,0.000000,0.000000,-0.001091,-0.00,0.00,-0.000011,0.006000,0.000000,0.000000,0.000000,-0.000005,-0.000005,-0.000001,0.000000,0.000000,0.000000,0.000000,819,819,819,819
10741,0,0.000000,0.000000,-0.001091,0.00,-0.00,-0.000002,0.006000,0.000000,0.000000,0.000000,0.000005,0.000003,-0.000003,0.000000,0.000000,0.000000,0.000000,819,819,819,819
10763,0,0.000000,0.000000,-0.001091,0.00,-0.00,0.000060,0.006000,0.000000,0.000000,0.000000,0.000002,0.000004,-0.000020,0.000000,0.000000,0.000000,0.000000,819,819,819,819
10782,0,0.000000,0.000000,-0.001091,0.00,-0.00,0.000012,0.008000,0.000000,0.000000,0.000000,-0.000000,0.000008,-0.000007,0.000000,0.000000,0.000000,0.000000,819,819,819,819
10802,0,0.000000,0.000000,-0.001091,0.00,-0.00,0.000002,0.008000,0.000000,0.000000,0.000000,-0.000001,0.000001,-0.000005,0.000000,0.000000,0.000000,0.000000,819,819,819,819
10822,0,0.000000,0.000000,-0.001091,-0.00,0.00,-0.000045,0.023000,0.000000,0.000000,0.000000,-0.000004,-0.000004,0.000007,0.023007,0.023001,0.022985,0.023007,837,878,854,878
10842,0,0.000000,0.000000,-0.001091,0.00,-0.00,-0.000040,0.023000,0.000000,0.000000,0.000000,0.000000,0.000007,0.000006,0.023012,0.022987,0.023001,0.023000,838,878,854,878
10862,0,0.000000,0.000000,-0.001091,0.00,-0.00,0.000007,0.072000,0.000000,0.000000,0.000000,-0.000001,0.000017,-0.000006,0.072012,0.071990,0.072021,0.071976,878,919,894,919
10882,0,0.000000,0.000000,-0.001091,0.00,-0.00,0.000001,0.072000,0.000000,0.000000,0.000000,0.000000,0.000003,-0.000004,0.071998,0.072000,0.072009,0.071993,878,919,894,919
10902,0,0.000000,0.000000,-0.001091,0.00,-0.00,-0.000045,0.080000,0.000000,0.000000,0.000000,0.000001,0.000000,0.000008,0.080007,0.079990,0.079994,0.080008,884,925,901,925
10922,0,0.000000,0.000000,-0.001091,0.00,0.00,0.000067,0.081000,0.000000,0.000000,0.000000,0.000002,-0.000004,-0.000021,0.080974,0.081023,0.081019,0.080984,885,926,901,926
10942,0,0.000000,0.000000,-0.001091,0.00,0.00,0.000105,0.081000,0.000000,0.000000,0.000000,0.000004,-0.000013,-0.000031,0.080952,0.081040,0.081023,0.080985,885,926,901,926
10962,0,0.000000,0.000000,-0.001091,0.00,0.00,-0.000101,0.080000,0.000000,0.000000,0.000000,0.000005,-0.000014,0.000021,0.080002,0.079989,0.079969,0.080040,884,925,901,925
10982,0,0.000000,0.000000,-0.001091,0.00,0.00,-0.000386,0.080000,0.000000,0.000000,0.000000,0.000000,-0.000038,0.000095,0.080057,0.079943,0.079866,0.080134,884,925,900,925
11003,0,0.001091,0.000000,-0.001091,0.00,0.00,-0.000138,0.080000,0.000000,0.000000,0.000000,0.000016,-0.000024,0.000034,0.079994,0.079975,0.079958,0.080073,884,925,901,925
11022,0,0.001091,0.000000,-0.001091,0.00,0.00,-0.000347,0.080000,0.000000,0.000000,0.000000,0.000007,-0.000025,0.000088,0.080056,0.079929,0.079894,0.080121,884,925,900,925
11042,0,0.001091,0.000000,-0.001091,0.00,0.00,-0.000298,0.080000,0.000000,0.000000,0.000000,0.000006,-0.000014,0.000078,0.080058,0.079930,0.079914,0.080097,884,925,900,925
11063,0,0.001091,0.000000,-0.001091,-0.00,0.00,-0.000334,0.080000,0.000000,0.000000,0.000000,-0.000004,-0.000016,0.000088,0.080077,0.079931,0.079892,0.080100,884,925,900,925
11083,0,0.002182,0.000000,-0.001091,-0.00,0.00,-0.000554,0.080000,0.000000,0.000000,0.000000,-0.000013,-0.000016,0.000147,0.080144,0.079882,0.079824,0.080150,884,925,900,925
11103,0,0.003272,0.000000,-0.001091,-0.00,0.00,-0.000674,0.080000,0.000000,0.000000,0.000000,-0.000062,-0.000048,0.000181,0.080196,0.079929,0.079709,0.080167,884,925,900,925
11123,0,0.003272,-0.001091,0.000000,-0.00,0.00,0.001251,0.080000,0.000000,0.000000,0.000000,-0.000059,-0.000058,-0.000312,0.079689,0.080430,0.080194,0.079687,884,925,901,925
11143,0,0.001091,-0.001091,0.000000,-0.00,-0.00,0.001012,0.080000,0.000000,0.000000,0.000000,-0.000041,-0.000002,-0.000257,0.079781,0.080301,0.080214,0.079704,884,925,901,925
11163,0,0.000000,-0.001091,0.000000,-0.00,-0.00,-0.000057,0.080000,0.000000,0.000000,0.000000,-0.000038,0.000009,0.000013,0.080060,0.080016,0.079958,0.079966,884,925,901,925
11183,0,0.001091,-0.001091,0.001091,-0.00,0.00,-0.000255,0.080000,0.000000,0.000000,0.000000,-0.000031,-0.000032,0.000065,0.080064,0.079998,0.079873,0.080065,884,925,900,925
11203,0,0.001091,-0.001091,0.001091,-0.00,0.00,0.000132,0.080000,0.000000,0.000000,0.000000,-0.000023,-0.000028,-0.000034,0.079961,0.080085,0.079983,0.079971,884,925,901,925
11223,0,0.001091,-0.001091,0.001091,-0.00,-0.00,0.000407,0.080000,0.000000,0.000000,0.000000,-0.000031,0.000019,-0.000106,0.079944,0.080118,0.080094,0.079844,884,925,901,925
11249,0,0.000000,-0.001091,0.001091,-0.00,0.00,0.000310,0.080000,0.000000,0.000000,0.000000,-0.000048,-0.000053,-0.000083,0.079911,0.080184,0.079982,0.079923,884,925,901,925
11272,0,0.000000,-0.001091,0.001091,-0.00,0.00,0.000290,0.080000,0.000000,0.000000,0.000000,-0.000026,-0.000072,-0.000080,0.079874,0.080178,0.079982,0.079967,884,925,901,925
11292,0,-0.001091,-0.001091,0.001091,-0.00,-0.00,0.000165,0.080000,0.000000,0.000000,0.000000,-0.000017,0.000013,-0.000049,0.079981,0.080053,0.080045,0.079921,884,925,901,925
11313,0,-0.001091,-0.001091,0.001091,-0.00,0.00,-0.000135,0.080000,0.000000,0.000000,0.000000,-0.000015,-0.000008,0.000028,0.080034,0.079996,0.079949,0.080021,884,925,901,925
11333,0,-0.001091,-0.001091,0.001091,0.00,0.00,-0.000301,0.080000,0.000000,0.000000,0.000000,-0.000008,-0.000017,0.000071,0.080062,0.079953,0.079904,0.080080,884,925,900,925
11353,0,-0.001091,-0.001091,0.001091,-0.00,0.00,-0.000319,0.080000,0.000000,0.000000,0.000000,-0.000018,-0.000026,0.000078,0.080069,0.079967,0.079878,0.080086,884,925,900,925
11373,0,-0.001091,-0.001091,0.001091,-0.00,0.00,-0.000110,0.080000,0.000000,0.000000,0.000000,-0.000021,-0.000036,0.000025,0.080009,0.080032,0.079918,0.080041,884,925,900,925
11393,0,-0.001091,-0.001091,0.001091,-0.00,0.00,0.000085,0.080000,0.000000,0.000000,0.000000,-0.000016,-0.000039,-0.000024,0.079954,0.080079,0.079969,0.079998,884,925,901,925
11413,0,-0.001091,-0.001091,0.001091,-0.00,0.00,0.000063,0.080000,0.000000,0.000000,0.000000,-0.000025,-0.000059,-0.000019,0.079947,0.080103,0.079935,0.080015,884,925,901,925
11434,0,-0.001091,-0.001091,0.001091,-0.00,0.00,-0.000262,0.080000,0.000000,0.000000,0.000000,-0.000025,-0.000067,0.000064,0.080022,0.080028,0.079843,0.080107,884,925,900,925
11454,0,-0.001091,-0.001091,0.001091,-0.00,0.00,-0.000387,0.080000,0.000000,0.000000,0.000000,-0.000013,-0.000050,0.000098,0.080062,0.079965,0.079838,0.080135,884,925,900,925
11474,0,-0.001091,-0.001091,0.001091,-0.00,0.00,-0.000519,0.080000,0.000000,0.000000,0.000000,-0.000018,-0.000031,0.000135,0.080121,0.079915,0.079816,0.080148,884,925,900,925
11494,0,-0.001091,-0.001091,0.001091,-0.00,0.00,-0.000271,0.080000,0.000000,0.000000,0.000000,-0.000022,-0.000012,0.000074,0.080083,0.079960,0.079892,0.080064,884,925,900,925
11514,0,-0.001091,-0.001091,0.001091,-0.00,0.00,-0.000161,0.080000,0.000000,0.000000,0.000000,-0.000032,-0.000051,0.000047,0.080027,0.080037,0.079870,0.080066,884,925,900,925
11534,0,-0.001091,-0.001091,0.001091,-0.00,0.00,-0.000017,0.080000,0.000000,0.000000,0.000000,-0.000023,-0.000028,0.000010,0.080005,0.080041,0.079938,0.080016,884,925,901,925
11554,0,-0.001091,-0.001091,0.001091,-0.00,0.00,-0.000201,0.080000,0.000000,0.000000,0.000000,-0.000019,-0.000016,0.000058,0.080061,0.079977,0.079907,0.080055,884,925,900,925
11574,0,-0.001091,-0.001091,0.001091,-0.00,0.00,-0.000345,0.080000,0.000000,0.000000,0.000000,-0.000021,-0.000033,0.000096,0.080084,0.079957,0.079850,0.080109,884,925,900,925
11594,0,-0.001091,-0.001091,0.001091,-0.00,0.00,-0.000343,0.080000,0.000000,0.000000,0.000000,-0.000026,-0.000021,0.000098,0.080102,0.079949,0.079855,0.080093,884,925,900,925
11614,0,-0.001091,-0.001091,0.001091,-0.00,0.00,-0.000358,0.080000,0.000000,0.000000,0.000000,-0.000022,-0.000023,0.000104,0.080103,0.079942,0.079851,0.080104,884,925,900,925
11634,0,-0.001091,-0.001091,0.001091,-0.00,-0.00,-0.000391,0.081000,0.000000,0.000000,0.000000,-0.000029,-0.000008,0.000114,0.081136,0.080922,0.080849,0.081093,885,926,901,926
11654,0,-0.001091,-0.001091,0.001091,-0.00,0.00,-0.000048,0.081000,0.000000,0.000000,0.000000,-0.000021,-0.000016,0.000028,0.081033,0.081010,0.080934,0.081023,885,926,901,926
11674,0,-0.002182,-0.001091,0.001091,-0.00,-0.00,-0.000010,0.081000,0.000000,0.000000,0.000000,-0.000025,0.000025,0.000018,0.081068,0.080981,0.080982,0.080969,885,926,901,926
11694,0,-0.002182,-0.001091,0.001091,-0.00,0.00,-0.000017,0.087000,0.000000,0.000000,0.000000,-0.000035,-0.000033,0.000020,0.087022,0.087048,0.086912,0.087018,890,931,906,931
11714,0,-0.003272,-0.002182,0.001091,0.00,-0.00,-0.000217,0.087000,0.000000,0.000000,0.000000,-0.000009,-0.000002,0.000072,0.087079,0.086939,0.086917,0.087065,890,931,906,931
11734,0,-0.003272,-0.002182,0.001091,0.00,0.00,-0.000104,0.100000,0.000000,0.000000,0.000000,-0.000004,-0.000027,0.000044,0.100021,0.099986,0.099925,0.100067,901,942,917,942
11754,0,-0.003272,-0.002182,0.001091,0.00,0.00,0.000086,0.100000,0.000000,0.000000,0.000000,0.000002,-0.000032,-0.000004,0.099961,0.100034,0.099975,0.100030,901,942,917,942
11774,0,-0.003272,-0.002182,0.001091,-0.00,0.00,0.000565,0.100000,0.000000,0.000000,0.000000,-0.000062,-0.000041,-0.000129,0.099892,0.100232,0.100025,0.099850,900,942,917,941
11794,0,-0.003272,-0.002182,0.001091,-0.00,-0.00,0.000311,0.101000,0.000000,0.000000,0.000000,-0.000029,0.000050,-0.000066,0.101013,0.101045,0.101087,0.100854,901,942,918,942
11814,0,-0.003272,-0.001091,0.001091,-0.00,0.00,0.000275,0.101000,0.000000,0.000000,0.000000,-0.000025,-0.000028,-0.000059,0.100938,0.101112,0.101006,0.100944,901,942,918,942
11834,0,-0.004363,-0.002182,0.001091,-0.00,-0.00,0.000573,0.101000,0.000000,0.000000,0.000000,-0.000025,0.000030,-0.000137,0.100917,0.101132,0.101143,0.100808,901,942,918,942
11855,0,-0.004363,-0.002182,0.001091,-0.00,-0.00,0.000617,0.101000,0.000000,0.000000,0.000000,-0.000048,0.000027,-0.000152,0.100922,0.101174,0.101131,0.100773,901,942,918,942
11879,0,-0.005454,-0.002182,0.002182,-0.00,0.00,-0.000059,0.101000,0.000000,0.000000,0.000000,-0.000087,-0.000021,0.000019,0.101085,0.101089,0.100873,0.100953,901,942,918,942
11902,0,-0.005454,-0.002182,0.003272,-0.00,0.00,-0.000103,0.101000,0.000000,0.000000,0.000000,-0.000115,-0.000058,0.000031,0.101088,0.101143,0.100796,0.100973,901,942,918,942
11922,0,-0.005454,-0.003272,0.004363,-0.00,0.00,-0.000584,0.101000,0.000000,0.000000,0.000000,-0.000192,-0.000058,0.000156,0.101290,0.101094,0.100595,0.101021,902,942,917,942
11943,0,-0.005454,-0.004363,0.005454,-0.00,-0.00,-0.000132,0.101000,0.000000,0.000000,0.000000,-0.000237,0.000035,0.000042,0.101315,0.101160,0.100756,0.100769,902,942,918,942
11963,0,-0.005454,-0.004363,0.007636,-0.00,-0.00,0.000080,0.102000,0.000000,0.000000,0.000000,-0.000284,0.000074,-0.000012,0.102347,0.102222,0.101802,0.101630,902,943,918,943
11984,0,-0.004363,-0.004363,0.008727,-0.00,-0.00,-0.000928,0.102000,0.000000,0.000000,0.000000,-0.000247,0.000016,0.000248,0.102512,0.101983,0.101521,0.101984,903,943,918,943
12005,0,-0.003272,-0.004363,0.009817,-0.00,0.00,-0.001298,0.102000,0.000000,0.000000,0.000000,-0.000057,-0.000097,0.000349,0.102310,0.101804,0.101497,0.102389,902,943,918,943
12025,0,-0.002182,-0.004363,0.008727,-0.00,0.00,0.000076,0.102000,0.000000,0.000000,0.000000,-0.000044,-0.000085,0.000002,0.101962,0.102127,0.101868,0.102043,902,943,918,943
12045,0,-0.003272,-0.004363,0.008727,-0.00,-0.00,0.001173,0.102000,0.000000,0.000000,0.000000,-0.000061,0.000073,-0.000282,0.101852,0.102270,0.102294,0.101585,902,943,919,943
12065,0,-0.004363,-0.004363,0.008727,-0.00,-0.00,0.000889,0.102000,0.000000,0.000000,0.000000,-0.000060,0.000031,-0.000216,0.101875,0.102244,0.102187,0.101693,902,943,919,943
12085,0,-0.004363,-0.004363,0.008727,-0.00,0.00,-0.000584,0.102000,0.000000,0.000000,0.000000,-0.000046,-0.000020,0.000160,0.102186,0.101906,0.101775,0.102134,902,943,918,943
12105,0,-0.004363,-0.004363,0.008727,-0.00,0.00,-0.000665,0.102000,0.000000,0.000000,0.000000,-0.000062,-0.000069,0.000184,0.102177,0.101947,0.101685,0.102192,902,943,918,943
12125,0,-0.003272,-0.004363,0.008727,0.00,-0.00,-0.000803,0.102000,0.000000,0.000000,0.000000,-0.000020,0.000022,0.000224,0.102266,0.101775,0.101777,0.102182,902,943,918,943
12145,0,-0.002182,-0.004363,0.008727,-0.00,-0.00,-0.000115,0.102000,0.000000,0.000000,0.000000,-0.000061,0.000009,0.000051,0.102121,0.102001,0.101897,0.101981,902,943,919,943
12165,0,-0.002182,-0.004363,0.008727,-0.00,0.00,0.000175,0.102000,0.000000,0.000000,0.000000,-0.000046,-0.000028,-0.000023,0.101994,0.102098,0.101949,0.101959,902,943,919,943
12185,0,-0.003272,-0.004363,0.008727,0.00,0.00,0.000492,0.102000,0.000000,0.000000,0.000000,-0.000036,-0.000028,-0.000106,0.101901,0.102171,0.102042,0.101886,902,943,919,943
12205,0,-0.004363,-0.004363,0.008727,-0.00,-0.00,0.000769,0.102000,0.000000,0.000000,0.000000,-0.000053,0.000011,-0.000181,0.101882,0.102223,0.102139,0.101756,902,943,919,943
12225,0,-0.004363,-0.004363,0.008727,0.00,0.00,0.000093,0.102000,0.000000,0.000000,0.000000,-0.000030,-0.000009,-0.000011,0.102011,0.102050,0.101972,0.101968,902,943,919,943
12245,0,-0.004363,-0.004363,0.008727,-0.00,0.00,-0.000545,0.102000,0.000000,0.000000,0.000000,-0.000056,-0.000013,0.000154,0.102197,0.101915,0.101778,0.102110,902,943,918,943
12265,0,-0.003272,-0.004363,0.008727,0.00,-0.00,-0.000718,0.102000,0.000000,0.000000,0.000000,-0.000045,0.000018,0.000202,0.102264,0.101826,0.101771,0.102139,902,943,918,943
12285,0,-0.002182,-0.004363,0.008727,0.00,-0.00,-0.000311,0.102000,0.000000,0.000000,0.000000,-0.000038,0.000028,0.000101,0.102167,0.101909,0.101889,0.102035,902,943,918,943
12306,0,-0.002182,-0.004363,0.008727,0.00,-0.00,-0.000001,0.102000,0.000000,0.000000,0.000000,-0.000044,0.000023,0.000023,0.102089,0.101998,0.101957,0.101956,902,943,919,943
12326,0,-0.002182,-0.004363,0.008727,0.00,0.00,-0.000198,0.102000,0.000000,0.000000,0.000000,-0.000040,-0.000021,0.000074,0.102092,0.101987,0.101866,0.102055,902,943,918,943
12346,0,-0.003272,-0.004363,0.008727,0.00,-0.00,0.000113,0.102000,0.000000,0.000000,0.000000,-0.000044,0.000013,-0.000006,0.102051,0.102036,0.101975,0.101938,902,943,919,943
12366,0,-0.003272,-0.004363,0.008727,-0.00,0.00,0.000403,0.102000,0.000000,0.000000,0.000000,-0.000049,-0.000039,-0.000082,0.101929,0.102169,0.101994,0.101908,902,943,919,943
12386,0,-0.003272,-0.004363,0.008727,-0.00,-0.00,0.000005,0.102000,0.000000,0.000000,0.000000,-0.000058,0.000001,0.000019,0.102078,0.102037,0.101925,0.101960,902,943,919,943
12406,0,-0.003272,-0.004363,0.008727,0.00,0.00,0.000016,0.102000,0.000000,0.000000,0.000000,-0.000038,-0.000014,0.000016,0.102041,0.102036,0.101932,0.101992,902,943,919,943
12426,0,-0.003272,-0.004363,0.008727,0.00,-0.00,-0.000271,0.102000,0.000000,0.000000,0.000000,-0.000027,0.000003,0.000090,0.102120,0.101934,0.101885,0.102061,902,943,918,943
12446,0,-0.002182,-0.004363,0.008727,-0.00,-0.00,-0.000008,0.102000,0.000000,0.000000,0.000000,-0.000057,0.000029,0.000024,0.102111,0.102004,0.101948,0.101937,902,943,919,943
12466,0,-0.003272,-0.004363,0.008727,0.00,0.00,0.000440,0.102000,0.000000,0.000000,0.000000,-0.000043,-0.000023,-0.000092,0.101928,0.102158,0.102026,0.101889,902,943,919,943
12486,0,-0.003272,-0.004363,0.008727,0.00,0.00,0.000088,0.101000,0.000000,0.000000,0.000000,-0.000044,-0.000054,-0.000004,0.100987,0.101102,0.100906,0.101006,901,942,918,942
12510,0,-0.003272,-0.004363,0.008727,-0.00,-0.00,0.000185,0.101000,0.000000,0.000000,0.000000,-0.000054,0.000018,-0.000029,0.101043,0.101066,0.100993,0.100899,901,942,918,942
12533,0,-0.003272,-0.004363,0.008727,0.00,-0.00,-0.000131,0.101000,0.000000,0.000000,0.000000,-0.000023,0.000013,0.000051,0.101087,0.100959,0.100939,0.101015,901,942,918,942
12554,0,-0.003272,-0.004363,0.008727,-0.00,0.00,-0.000072,0.101000,0.000000,0.000000,0.000000,-0.000069,-0.000042,0.000037,0.101063,0.101074,0.100852,0.101011,901,942,918,942
12575,0,-0.003272,-0.004363,0.008727,0.00,-0.00,-0.000106,0.101000,0.000000,0.000000,0.000000,-0.000040,0.000020,0.000046,0.101107,0.100974,0.100934,0.100985,901,942,918,942
12596,0,-0.003272,-0.004363,0.008727,-0.00,0.00,-0.000082,0.101000,0.000000,0.000000,0.000000,-0.000068,-0.000025,0.000041,0.101083,0.101053,0.100866,0.100998,901,942,918,942
12615,0,-0.003272,-0.004363,0.008727,-0.00,0.00,-0.000093,0.101000,0.000000,0.000000,0.000000,-0.000060,-0.000082,0.000044,0.101022,0.101097,0.100815,0.101066,901,942,918,942
12636,0,-0.003272,-0.004363,0.008727,-0.00,-0.00,-0.000156,0.101000,0.000000,0.000000,0.000000,-0.000056,0.000039,0.000061,0.101156,0.100956,0.100922,0.100966,902,942,918,942
12656,0,-0.003272,-0.004363,0.008727,0.00,0.00,0.000060,0.101000,0.000000,0.000000,0.000000,-0.000041,-0.000038,0.000006,0.101009,0.101073,0.100915,0.101002,901,942,918,942
12678,0,-0.003272,-0.004363,0.008727,0.00,-0.00,0.000119,0.101000,0.000000,0.000000,0.000000,-0.000038,0.000025,-0.000010,0.101053,0.101023,0.100996,0.100928,901,942,918,942
12698,0,-0.003272,-0.004363,0.008727,-0.00,-0.00,-0.000159,0.101000,0.000000,0.000000,0.000000,-0.000059,0.000010,0.000061,0.101130,0.100987,0.100890,0.100993,901,942,918,942
12717,0,-0.003272,-0.004363,0.008727,0.00,0.00,-0.000382,0.101000,0.000000,0.000000,0.000000,-0.000037,-0.000020,0.000120,0.101137,0.100937,0.100823,0.101103,901,942,918,942
12737,0,-0.003272,-0.004363,0.008727,-0.00,0.00,-0.000259,0.101000,0.000000,0.000000,0.000000,-0.000047,-0.000018,0.000091,0.101119,0.100974,0.100844,0.101062,901,942,918,942
12757,0,-0.003272,-0.004363,0.008727,-0.00,0.00,0.000131,0.101000,0.000000,0.000000,0.000000,-0.000049,-0.000034,-0.000008,0.101006,0.101091,0.100926,0.100977,901,942,918,942
12777,0,-0.003272,-0.004363,0.008727,0.00,-0.00,0.000026,0.101000,0.000000,0.000000,0.000000,-0.000032,0.000037,0.000018,0.101087,0.100977,0.100987,0.100948,901,942,918,942
12797,0,-0.003272,-0.004363,0.008727,-0.00,0.00,0.000416,0.101000,0.000000,0.000000,0.000000,-0.000062,-0.000026,-0.000083,0.100953,0.101171,0.100995,0.100881,901,942,918,942
12817,0,-0.003272,-0.004363,0.008727,0.00,0.00,-0.000267,0.101000,0.000000,0.000000,0.000000,-0.000045,-0.000039,0.000091,0.101096,0.100993,0.100825,0.101085,901,942,918,942
12837,0,-0.003272,-0.004363,0.008727,0.00,-0.00,-0.000084,0.101000,0.000000,0.000000,0.000000,-0.000041,-0.000007,0.000045,0.101079,0.101003,0.100907,0.101011,901,942,918,942
12857,0,-0.003272,-0.004363,0.008727,0.00,-0.00,-0.000108,0.101000,0.000000,0.000000,0.000000,-0.000033,0.000015,0.000052,0.101100,0.100966,0.100930,0.101004,901,942,918,942
12877,0,-0.003272,-0.004363,0.008727,0.00,-0.00,-0.000083,0.101000,0.000000,0.000000,0.000000,-0.000043,-0.000007,0.000046,0.101082,0.101004,0.100904,0.101010,901,942,918,942
12897,0,-0.003272,-0.003272,0.008727,-0.00,-0.00,-0.000748,0.101000,0.000000,0.000000,0.000000,-0.000059,0.000012,0.000219,0.101289,0.100829,0.100734,0.101148,902,942,918,942
12917,0,-0.002182,-0.003272,0.008727,0.00,0.00,-0.000241,0.101000,0.000000,0.000000,0.000000,-0.000034,-0.000024,0.000092,0.101103,0.100966,0.100850,0.101081,901,942,918,942
12937,0,-0.002182,-0.004363,0.008727,0.00,0.00,0.000256,0.101000,0.000000,0.000000,0.000000,-0.000031,-0.000015,-0.000035,0.100982,0.101081,0.100988,0.100949,901,942,918,942
12957,0,-0.003272,-0.004363,0.008727,0.00,-0.00,0.000539,0.101000,0.000000,0.000000,0.000000,-0.000045,-0.000006,-0.000109,0.100930,0.101160,0.101059,0.100851,901,942,918,942
12977,0,-0.004363,-0.003272,0.008727,-0.00,-0.00,0.000382,0.101000,0.000000,0.000000,0.000000,-0.000062,-0.000004,-0.000072,0.100986,0.101138,0.101007,0.100870,901,942,918,942
12997,0,-0.004363,-0.003272,0.008727,0.00,0.00,0.000183,0.101000,0.000000,0.000000,0.000000,-0.000035,-0.000015,-0.000023,0.100996,0.101073,0.100974,0.100957,901,942,918,942
13017,0,-0.004363,-0.003272,0.008727,-0.00,-0.00,-0.000451,0.101000,0.000000,0.000000,0.000000,-0.000046,0.000014,0.000139,0.101199,0.100892,0.100829,0.101080,902,942,918,942
13037,0,-0.003272,-0.003272,0.008727,0.00,-0.00,-0.000958,0.101000,0.000000,0.000000,0.000000,-0.000043,0.000004,0.000274,0.101321,0.100765,0.100688,0.101226,902,942,918,943
13057,0,-0.002182,-0.003272,0.008727,0.00,0.00,-0.000268,0.101000,0.000000,0.000000,0.000000,-0.000045,-0.000048,0.000101,0.101098,0.100992,0.100806,0.101105,901,942,918,942
13077,0,-0.002182,-0.003272,0.008727,0.00,0.00,0.000449,0.101000,0.000000,0.000000,0.000000,-0.000038,-0.000028,-0.000083,0.100927,0.101149,0.101016,0.100908,901,942,918,942
13097,0,-0.003272,-0.003272,0.008727,0.00,-0.00,0.000623,0.101000,0.000000,0.000000,0.000000,-0.000034,0.000046,-0.000130,0.100950,0.101119,0.101142,0.100789,901,942,918,942
13122,0,-0.004363,-0.003272,0.008727,0.00,-0.00,0.000140,0.101000,0.000000,0.000000,0.000000,-0.000038,0.000030,-0.000009,0.101059,0.101017,0.101002,0.100922,901,942,918,942
13146,0,-0.004363,-0.004363,0.008727,-0.00,0.00,-0.000109,0.101000,0.000000,0.000000,0.000000,-0.000055,-0.000090,0.000054,0.101020,0.101091,0.100801,0.101089,901,942,918,942
13165,0,-0.003272,-0.003272,0.008727,-0.00,-0.00,-0.000128,0.101000,0.000000,0.000000,0.000000,-0.000047,0.000014,0.000060,0.101121,0.100973,0.100908,0.100999,901,942,918,942
13186,0,-0.003272,-0.003272,0.008727,0.00,-0.00,0.000081,0.101000,0.000000,0.000000,0.000000,-0.000024,0.000043,0.000006,0.101074,0.100974,0.101013,0.100939,901,942,918,942
13207,0,-0.003272,-0.003272,0.008727,0.00,-0.00,-0.000121,0.101000,0.000000,0.000000,0.000000,-0.000040,-0.000001,0.000058,0.101097,0.100983,0.100901,0.101019,901,942,918,942
13227,0,-0.003272,-0.003272,0.008727,0.00,-0.00,0.000113,0.101000,0.000000,0.000000,0.000000,-0.000036,0.000037,-0.000002,0.101071,0.101001,0.101002,0.100925,901,942,918,942
13248,0,-0.003272,-0.003272,0.008727,-0.00,0.00,0.000160,0.101000,0.000000,0.000000,0.000000,-0.000061,-0.000057,-0.000014,0.100990,0.101132,0.100897,0.100981,901,942,918,942
13268,0,-0.004363,-0.003272,0.008727,0.00,0.00,0.000215,0.101000,0.000000,0.000000,0.000000,-0.000031,-0.000013,-0.000030,0.100988,0.101075,0.100985,0.100952,901,942,918,942
13288,0,-0.004363,-0.003272,0.008727,0.00,-0.00,-0.000201,0.102000,0.000000,0.000000,0.000000,-0.000037,0.000038,0.000076,0.102151,0.101922,0.101925,0.102002,902,943,919,943
13308,0,-0.003272,-0.003272,0.008727,0.00,-0.00,-0.000847,0.102000,0.000000,0.000000,0.000000,-0.000038,0.000018,0.000245,0.102301,0.101775,0.101735,0.102190,902,943,918,943
13328,0,-0.002182,-0.003272,0.008727,-0.00,-0.00,-0.000383,0.102000,0.000000,0.000000,0.000000,-0.000057,0.000014,0.000130,0.102201,0.101912,0.101827,0.102060,902,943,918,943
13348,0,-0.002182,-0.003272,0.008727,0.00,0.00,0.000061,0.102000,0.000000,0.000000,0.000000,-0.000037,-0.000045,0.000018,0.102010,0.102064,0.101899,0.102026,902,943,919,943
13368,0,-0.002182,-0.003272,0.008727,0.00,0.00,0.000301,0.102000,0.000000,0.000000,0.000000,-0.000033,-0.000015,-0.000045,0.101974,0.102092,0.101997,0.101937,902,943,919,943
13388,0,-0.003272,-0.003272,0.008727,-0.00,-0.00,0.000395,0.102000,0.000000,0.000000,0.000000,-0.000044,0.000054,-0.000071,0.102027,0.102061,0.102081,0.101831,902,943,919,943
13408,0,-0.003272,-0.003272,0.008727,0.00,-0.00,0.000140,0.102000,0.000000,0.000000,0.000000,-0.000034,0.000022,-0.000007,0.102048,0.102020,0.101995,0.101937,902,943,919,943
13428,0,-0.003272,-0.003272,0.008727,-0.00,0.00,-0.000429,0.102000,0.000000,0.000000,0.000000,-0.000048,-0.000039,0.000139,0.102148,0.101949,0.101773,0.102130,902,943,918,943
13448,0,-0.003272,-0.003272,0.008727,-0.00,0.00,0.000158,0.102000,0.000000,0.000000,0.000000,-0.000056,-0.000025,-0.000010,0.102022,0.102091,0.101929,0.101958,902,943,919,943
13468,0,-0.003272,-0.003272,0.008727,0.00,-0.00,0.000093,0.102000,0.000000,0.000000,0.000000,-0.000037,0.000021,0.000006,0.102064,0.102010,0.101978,0.101948,902,943,919,943
13488,0,-0.003272,-0.003272,0.008727,-0.00,0.00,-0.000027,0.102000,0.000000,0.000000,0.000000,-0.000052,-0.000008,0.000036,0.102079,0.102024,0.101904,0.101993,902,943,919,943
13509,0,-0.003272,-0.003272,0.008727,-0.00,0.00,0.000421,0.102000,0.000000,0.000000,0.000000,-0.000050,-0.000034,-0.000080,0.101936,0.102164,0.101996,0.101904,902,943,919,943
13528,0,-0.004363,-0.003272,0.008727,0.00,-0.00,0.000404,0.102000,0.000000,0.000000,0.000000,-0.000029,0.000004,-0.000078,0.101954,0.102103,0.102053,0.101890,902,943,919,943
13548,0,-0.004363,-0.003272,0.008727,-0.00,-0.00,-0.000132,0.102000,0.000000,0.000000,0.000000,-0.000052,0.000019,0.000058,0.102129,0.101975,0.101909,0.101987,902,943,919,943
13568,0,-0.003272,-0.003272,0.008727,-0.00,-0.00,-0.000499,0.102000,0.000000,0.000000,0.000000,-0.000048,0.000003,0.000154,0.102205,0.101891,0.101801,0.102103,902,943,918,943
13588,0,-0.003272,-0.003272,0.008727,-0.00,0.00,-0.000587,0.102000,0.000000,0.000000,0.000000,-0.000047,-0.000028,0.000180,0.102200,0.101895,0.101745,0.102160,902,943,918,943
13608,0,-0.002182,-0.003272,0.008727,0.00,-0.00,-0.000026,0.102000,0.000000,0.000000,0.000000,-0.000028,0.000005,0.000039,0.102072,0.101984,0.101938,0.102006,902,943,919,943
13629,0,-0.003272,-0.003272,0.008727,-0.00,-0.00,0.000619,0.102000,0.000000,0.000000,0.000000,-0.000050,0.000020,-0.000128,0.101941,0.102158,0.102098,0.101802,902,943,919,943
13648,0,-0.003272,-0.003272,0.008727,-0.00,0.00,0.000718,0.102000,0.000000,0.000000,0.000000,-0.000052,-0.000016,-0.000158,0.101878,0.102226,0.102090,0.101806,902,943,919,943
13668,0,-0.004363,-0.003272,0.008727,0.00,-0.00,0.000006,0.102000,0.000000,0.000000,0.000000,-0.000034,0.000062,0.000021,0.102117,0.101950,0.102007,0.101925,902,943,919,943
13688,0,-0.003272,-0.003272,0.008727,0.00,-0.00,-0.000517,0.102000,0.000000,0.000000,0.000000,-0.000037,0.000024,0.000157,0.102218,0.101856,0.101831,0.102096,902,943,918,943
13709,0,-0.003272,-0.003272,0.008727,0.00,0.00,-0.000393,0.102000,0.000000,0.000000,0.000000,-0.000040,-0.000010,0.000128,0.102158,0.101922,0.101822,0.102099,902,943,918,943
13729,0,-0.002182,-0.003272,0.008727,-0.00,-0.00,-0.000383,0.102000,0.000000,0.000000,0.000000,-0.000047,0.000045,0.000128,0.102221,0.101874,0.101869,0.102036,902,943,918,943
13754,0,-0.003272,-0.003272,0.008727,-0.00,0.00,0.000670,0.101000,0.000000,0.000000,0.000000,-0.000044,-0.000029,-0.000142,0.100873,0.101215,0.101068,0.100843,901,943,918,942
13776,0,-0.004363,-0.003272,0.008727,0.00,-0.00,0.000835,0.101000,0.000000,0.000000,0.000000,-0.000039,0.000010,-0.000189,0.100860,0.101218,0.101160,0.100762,901,943,918,942
13798,0,-0.004363,-0.003272,0.008727,0.00,-0.00,-0.000122,0.101000,0.000000,0.000000,0.000000,-0.000040,0.000026,0.000053,0.101119,0.100961,0.100933,0.100987,901,942,918,942
13817,0,-0.003272,-0.003272,0.008727,-0.00,0.00,-0.000329,0.101000,0.000000,0.000000,0.000000,-0.000054,-0.000033,0.000108,0.101129,0.100980,0.100805,0.101086,901,942,918,942
13838,0,-0.002182,-0.003272,0.008727,0.00,0.00,-0.000629,0.101000,0.000000,0.000000,0.000000,-0.000024,-0.000068,0.000188,0.101144,0.100905,0.100719,0.101232,902,942,918,943
13859,0,-0.002182,-0.003272,0.008727,-0.00,0.00,0.000346,0.101000,0.000000,0.000000,0.000000,-0.000053,-0.000049,-0.000061,0.100944,0.101163,0.100958,0.100935,901,942,918,942
13879,0,-0.003272,-0.003272,0.008727,0.00,0.00,0.000480,0.102000,0.000000,0.000000,0.000000,-0.000029,-0.000053,-0.000098,0.101877,0.102180,0.102016,0.101927,902,943,919,943
13899,0,-0.003272,-0.003272,0.008727,0.00,-0.00,0.000279,0.102000,0.000000,0.000000,0.000000,-0.000030,0.000012,-0.000049,0.101993,0.102068,0.102030,0.101909,902,943,919,943
