t,is_crashed,roll,pitch,yaw,p,q,r,throttle,p_cmd,q_cmd,r_cmd,roll_cmd,pitch_cmd,yaw_cmd,roll_pid_out,pitch_pid_out,yaw_pid_out,motor_fl,motor_bl,motor_fr,motor_br,pwm_fl,pwm_bl,pwm_fr,pwm_br
6973,0,0.005890,0.005454,1.256419,0.00,-0.00,0.000000,0.006000,-0.000295,-0.000273,0.000000,0.000000,0.000000,0.000000,0.000030,-0.000000,0.000000,0.000000,0.000000,0.000000,0.000000,0,0,0,0
6988,0,0.009425,0.008727,2.261554,0.00,0.00,0.000005,0.006000,-0.000377,-0.000382,0.000000,0.000000,0.000000,0.000000,0.000160,-0.000000,-0.000000,0.000000,0.000000,0.000000,0.000000,819,819,819,819
6998,0,0.012252,0.011345,3.065662,0.00,0.00,0.000012,0.006000,-0.000414,-0.000453,0.000000,0.000000,0.000000,0.000000,0.000297,-0.000000,-0.000000,0.000000,0.000000,0.000000,0.000000,819,819,819,819
7010,0,0.014514,0.013439,-2.574237,0.00,0.00,0.000018,0.006000,-0.000472,-0.000525,0.000000,0.000000,0.000000,0.000000,0.000375,-0.000000,-0.000000,0.000000,0.000000,0.000000,0.000000,819,819,819,819
7021,0,0.016324,0.015115,-2.059607,0.00,0.00,0.000016,0.006000,-0.000522,-0.000585,0.000000,0.000000,0.000000,0.000000,0.000432,-0.000000,-0.000000,0.000000,0.000000,0.000000,0.000000,819,819,819,819
7033,0,0.017771,0.016455,-1.647904,0.00,0.00,0.000008,0.006000,-0.000575,-0.000641,0.000000,0.000000,0.000000,0.000000,0.000462,-0.000000,-0.000000,0.000000,0.000000,0.000000,0.000000,819,819,819,819
7044,0,0.018929,0.017527,-1.318541,0.00,0.00,-0.000009,0.006000,-0.000623,-0.000690,0.000000,0.000000,0.000000,0.000000,0.000480,-0.000000,0.000000,0.000000,0.000000,0.000000,0.000000,819,819,819,819
7054,0,0.019856,0.018385,-1.055051,0.00,0.00,-0.000012,0.005000,-0.000664,-0.000731,0.000000,0.000000,0.000000,0.000000,0.000491,-0.000000,0.000000,0.000000,0.000000,0.000000,0.000000,819,819,819,819
7064,0,0.020597,0.019071,-0.844259,0.00,0.00,0.000004,0.006000,-0.000705,-0.000768,0.000000,0.000000,0.000000,0.000000,0.000491,-0.000000,-0.000000,0.000000,0.000000,0.000000,0.000000,819,819,819,819
7074,0,0.021190,0.019620,-0.675626,0.00,0.00,0.000027,0.006000,-0.000743,-0.000800,0.000000,0.000000,0.000000,0.000000,0.000483,-0.000000,-0.000000,0.000000,0.000000,0.000000,0.000000,819,819,819,819
7084,0,0.021664,0.020060,-0.540719,0.00,0.00,0.000022,0.006000,-0.000779,-0.000827,0.000000,0.000000,0.000000,0.000000,0.000471,-0.000000,-0.000000,0.000000,0.000000,0.000000,0.000000,819,819,819,819
7094,0,0.022044,0.020411,-0.432793,0.00,0.00,0.000008,0.006000,-0.000813,-0.000853,0.000000,0.000000,0.000000,0.000000,0.000456,-0.000000,-0.000000,0.000000,0.000000,0.000000,0.000000,819,819,819,819
7104,0,0.022348,0.020692,-0.346453,0.00,0.00,-0.000015,0.006000,-0.000845,-0.000877,0.000000,0.000000,0.000000,0.000000,0.000437,-0.000000,0.000000,0.000000,0.000000,0.000000,0.000000,819,819,819,819
7114,0,0.022590,0.020917,-0.277381,0.00,0.00,-0.000033,0.006000,-0.000875,-0.000899,0.000000,0.000000,0.000000,0.000000,0.000417,-0.000000,0.000000,0.000000,0.000000,0.000000,0.000000,819,819,819,819
7124,0,0.022785,0.021097,-0.222123,0.00,0.00,-0.000045,0.006000,-0.000903,-0.000919,0.000000,0.000000,0.000000,0.000000,0.000397,-0.000000,0.000000,0.000000,0.000000,0.000000,0.000000,819,819,819,819
7134,0,0.022940,0.021241,-0.177917,0.00,0.00,-0.000057,0.006000,-0.000928,-0.000936,0.000000,0.000000,0.000000,0.000000,0.000377,-0.000000,0.000000,0.000000,0.000000,0.000000,0.000000,819,819,819,819
7144,0,0.023065,0.021356,-0.142552,0.00,0.00,-0.000064,0.006000,-0.000951,-0.000952,0.000000,0.000000,0.000000,0.000000,0.000358,-0.000000,0.000000,0.000000,0.000000,0.000000,0.000000,819,819,819,819
7154,0,0.023164,0.021448,-0.114260,0.00,0.00,-0.000078,0.006000,-0.000972,-0.000966,0.000000,0.000000,0.000000,0.000000,0.000339,-0.000000,0.000000,0.000000,0.000000,0.000000,0.000000,819,819,819,819
7164,0,0.023244,0.021522,-0.091626,0.00,0.00,-0.000083,0.006000,-0.000992,-0.000980,0.000000,0.000000,0.000000,0.000000,0.000321,-0.000000,0.000000,0.000000,0.000000,0.000000,0.000000,819,819,819,819
7174,0,0.023307,0.021581,-0.073519,0.00,0.00,-0.000075,0.006000,-0.001010,-0.000993,0.000000,0.000000,0.000000,0.000000,0.000304,-0.000000,0.000000,0.000000,0.000000,0.000000,0.000000,819,819,819,819
7185,0,0.023358,0.021628,-0.059034,0.00,0.00,-0.000070,0.006000,-0.001026,-0.001003,0.000000,0.000000,0.000000,0.000000,0.000288,-0.000000,0.000000,0.000000,0.000000,0.000000,0.000000,819,819,819,819
7194,0,0.023399,0.021666,-0.047445,0.00,0.00,-0.000070,0.006000,-0.001041,-0.001011,0.000000,0.000000,0.000000,0.000000,0.000273,-0.000000,0.000000,0.000000,0.000000,0.000000,0.000000,819,819,819,819
7204,0,0.023432,0.021696,-0.038174,0.00,0.00,-0.000073,0.006000,-0.001054,-0.001017,0.000000,0.000000,0.000000,0.000000,0.000260,-0.000000,0.000000,0.000000,0.000000,0.000000,0.000000,819,819,819,819
7214,0,0.023458,0.021720,-0.030758,0.00,0.00,-0.000075,0.006000,-0.001066,-0.001023,0.000000,0.000000,0.000000,0.000000,0.000247,-0.000000,0.000000,0.000000,0.000000,0.000000,0.000000,819,819,819,819
7224,0,0.023478,0.021739,-0.024824,0.00,0.00,-0.000077,0.006000,-0.001077,-0.001029,0.000000,0.000000,0.000000,0.000000,0.000236,-0.000000,0.000000,0.000000,0.000000,0.000000,0.000000,819,819,819,819
7235,0,0.023495,0.021755,-0.020078,0.00,0.00,-0.000098,0.006000,-0.001087,-0.001035,0.000000,0.000000,0.000000,0.000000,0.000225,-0.000000,0.000000,0.000000,0.000000,0.000000,0.000000,819,819,819,819
7244,0,0.023509,0.021767,-0.016280,0.00,0.00,-0.000136,0.006000,-0.001096,-0.001039,0.000000,0.000000,0.000000,0.000000,0.000215,-0.000000,0.000000,0.000000,0.000000,0.000000,0.000000,819,819,819,819
7254,0,0.023519,0.021777,-0.013243,0.00,0.00,-0.000165,0.006000,-0.001104,-0.001043,0.000000,0.000000,0.000000,0.000000,0.000206,-0.000000,0.000000,0.000000,0.000000,0.000000,0.000000,819,819,819,819
7265,0,0.023746,0.021785,-0.010812,0.00,0.00,-0.000173,0.006000,-0.001114,-0.001047,0.000000,0.000000,0.000000,0.000000,0.000209,-0.000000,0.000000,0.000000,0.000000,0.000000,0.000000,819,819,819,819
7275,0,0.023927,0.021791,-0.008868,0.00,0.00,-0.000144,0.006000,-0.001123,-0.001052,0.000000,0.000000,0.000000,0.000000,0.000210,-0.000000,0.000000,0.000000,0.000000,0.000000,0.000000,819,819,819,819
7285,0,0.024072,0.021796,-0.007313,0.00,0.00,-0.000096,0.006000,-0.001132,-0.001057,0.000000,0.000000,0.000000,0.000000,0.000209,-0.000000,0.000000,0.000000,0.000000,0.000000,0.000000,819,819,819,819
7300,0,0.023970,0.021800,-0.006069,0.00,0.00,-0.000050,0.006000,-0.001137,-0.001061,0.000000,0.000000,0.000000,0.000000,0.000196,-0.000000,0.000000,0.000000,0.000000,0.000000,0.000000,819,819,819,819
7313,0,0.023889,0.021804,-0.005073,0.00,0.00,-0.000024,0.006000,-0.001141,-0.001064,0.000000,0.000000,0.000000,0.000000,0.000186,-0.000000,0.000000,0.000000,0.000000,0.000000,0.000000,819,819,819,819
7324,0,0.023823,0.021806,-0.004277,0.00,0.00,-0.000031,0.006000,-0.001145,-0.001067,0.000000,0.000000,0.000000,0.000000,0.000177,-0.000000,0.000000,0.000000,0.000000,0.000000,0.000000,819,819,819,819
7335,0,0.023771,0.021808,-0.003640,0.00,0.00,-0.000044,0.006000,-0.001149,-0.001070,0.000000,0.000000,0.000000,0.000000,0.000169,-0.000000,0.000000,0.000000,0.000000,0.000000,0.000000,819,819,819,819
7345,0,0.023729,0.021810,-0.003130,0.00,0.00,-0.000033,0.006000,-0.001153,-0.001073,0.000000,0.000000,0.000000,0.000000,0.000161,-0.000000,0.000000,0.000000,0.000000,0.000000,0.000000,819,819,819,819
7355,0,0.023696,0.021811,-0.002722,0.00,0.00,0.000021,0.006000,-0.001157,-0.001076,0.000000,0.000000,0.000000,0.000000,0.000155,-0.000000,0.000000,0.000000,0.000000,0.000000,0.000000,819,819,819,819
7365,0,0.023669,0.021812,-0.002396,0.00,0.00,0.000108,0.006000,-0.001159,-0.001079,0.000000,0.000000,0.000000,0.000000,0.000151,-0.000000,0.000000,0.000000,0.000000,0.000000,0.000000,819,819,819,819
7375,0,0.023648,0.021813,-0.002135,0.00,0.00,0.000197,0.006000,-0.001161,-0.001081,0.000000,0.000000,0.000000,0.000000,0.000147,-0.000000,0.000000,0.000000,0.000000,0.000000,0.000000,819,819,819,819
7385,0,0.023412,0.021814,-0.001927,0.00,0.00,0.000260,0.006000,-0.001161,-0.001083,0.000000,0.000000,0.000000,0.000000,0.000132,-0.000000,0.000000,0.000000,0.000000,0.000000,0.000000,819,819,819,819
7395,0,0.023224,0.021814,-0.001759,0.00,0.00,0.000271,0.006000,-0.001160,-0.001084,0.000000,0.000000,0.000000,0.000000,0.000121,-0.000000,0.000000,0.000000,0.000000,0.000000,0.000000,819,819,819,819
7405,0,0.022855,0.021815,-0.001626,-0.00,0.00,0.000240,0.006000,-0.001157,-0.001085,0.000000,0.000000,0.000000,0.000000,0.000101,-0.000000,0.000000,0.000000,0.000000,0.000000,0.000000,819,819,819,819
7415,0,0.022560,0.021815,-0.001519,-0.00,0.00,0.000172,0.006000,-0.001152,-0.001086,0.000000,0.000000,0.000000,0.000000,0.000088,-0.000000,0.000000,0.000000,0.000000,0.000000,0.000000,819,819,819,819
7425,0,0.022542,0.021816,-0.001433,-0.00,0.00,0.000091,0.006000,-0.001150,-0.001087,0.000000,0.000000,0.000000,0.000000,0.000089,-0.000000,0.000000,0.000000,0.000000,0.000000,0.000000,819,819,819,819
7435,0,0.022528,0.021816,-0.001365,-0.00,0.00,0.000011,0.006000,-0.001148,-0.001087,0.000000,0.000000,0.000000,0.000000,0.000091,-0.000000,0.000000,0.000000,0.000000,0.000000,0.000000,819,819,819,819
7445,0,0.022517,0.021816,-0.001310,-0.00,0.00,-0.000037,0.006000,-0.001146,-0.001087,0.000000,0.000000,0.000000,0.000000,0.000093,-0.000000,0.000000,0.000000,0.000000,0.000000,0.000000,819,819,819,819
7455,0,0.022726,0.021816,-0.001267,-0.00,0.00,-0.000062,0.006000,-0.001146,-0.001087,0.000000,0.000000,0.000000,0.000000,0.000106,-0.000000,0.000000,0.000000,0.000000,0.000000,0.000000,819,819,819,819
7465,0,0.022893,0.021816,-0.001231,-0.00,0.00,-0.000056,0.006000,-0.001147,-0.001087,0.000000,0.000000,0.000000,0.000000,0.000116,-0.000000,0.000000,0.000000,0.000000,0.000000,0.000000,819,819,819,819
7475,0,0.023027,0.021816,-0.001203,0.00,0.00,-0.000027,0.006000,-0.001148,-0.001087,0.000000,0.000000,0.000000,0.000000,0.000123,-0.000000,0.000000,0.000000,0.000000,0.000000,0.000000,819,819,819,819
7485,0,0.023134,0.021816,-0.001181,0.00,0.00,0.000015,0.006000,-0.001149,-0.001087,0.000000,0.000000,0.000000,0.000000,0.000128,-0.000000,0.000000,0.000000,0.000000,0.000000,0.000000,819,819,819,819
7495,0,0.023001,0.021816,-0.001163,0.00,0.00,0.000050,0.006000,-0.001149,-0.001087,0.000000,0.000000,0.000000,0.000000,0.000120,-0.000000,0.000000,0.000000,0.000000,0.000000,0.000000,819,819,819,819
7505,0,0.022895,0.021816,-0.001148,-0.00,0.00,0.000074,0.006000,-0.001148,-0.001088,0.000000,0.000000,0.000000,0.000000,0.000114,-0.000000,0.000000,0.000000,0.000000,0.000000,0.000000,819,819,819,819
7515,0,0.022810,0.021816,-0.001137,-0.00,0.00,0.000062,0.006000,-0.001147,-0.001090,0.000000,0.000000,0.000000,0.000000,0.000110,-0.000000,0.000000,0.000000,0.000000,0.000000,0.000000,819,819,819,819
7525,0,0.022743,0.021816,-0.001128,-0.00,-0.00,0.000010,0.006000,-0.001146,-0.001091,0.000000,0.000000,0.000000,0.000000,0.000107,-0.000000,0.000000,0.000000,0.000000,0.000000,0.000000,819,819,819,819
7535,0,0.022688,0.022035,-0.001121,-0.00,0.00,-0.000050,0.006000,-0.001144,-0.001097,0.000000,0.000000,0.000000,0.000000,0.000105,-0.000000,0.000000,0.000000,0.000000,0.000000,0.000000,819,819,819,819
7545,0,0.022863,0.022209,-0.001115,-0.00,0.00,-0.000125,0.006000,-0.001145,-0.001102,0.000000,0.000000,0.000000,0.000000,0.000115,-0.000000,0.000000,0.000000,0.000000,0.000000,0.000000,819,819,819,819
7555,0,0.023003,0.022349,-0.001110,0.00,0.00,-0.000202,0.006000,-0.001146,-0.001106,0.000000,0.000000,0.000000,0.000000,0.000123,-0.000000,0.000000,0.000000,0.000000,0.000000,0.000000,819,819,819,819
7565,0,0.023333,0.022461,-0.001106,0.00,0.00,-0.000250,0.006000,-0.001150,-0.001109,0.000000,0.000000,0.000000,0.000000,0.000140,-0.000000,0.000000,0.000000,0.000000,0.000000,0.000000,819,819,819,819
7575,0,0.023597,0.022550,-0.001103,0.00,0.00,-0.000258,0.006000,-0.001154,-0.001114,0.000000,0.000000,0.000000,0.000000,0.000152,-0.000000,0.000000,0.000000,0.000000,0.000000,0.000000,819,819,819,819
7586,0,0.023808,0.022621,-0.001101,0.00,0.00,-0.000232,0.006000,-0.001159,-0.001118,0.000000,0.000000,0.000000,0.000000,0.000159,-0.000000,0.000000,0.000000,0.000000,0.000000,0.000000,819,819,819,819
7596,0,0.023977,0.022679,-0.001099,0.00,0.00,-0.000183,0.006000,-0.001164,-0.001121,0.000000,0.000000,0.000000,0.000000,0.000165,-0.000000,0.000000,0.000000,0.000000,0.000000,0.000000,819,819,819,819
7606,0,0.024112,0.022724,-0.001097,0.00,0.00,-0.000120,0.006000,-0.001169,-0.001124,0.000000,0.000000,0.000000,0.000000,0.000168,-0.000000,0.000000,0.000000,0.000000,0.000000,0.000000,819,819,819,819
7620,0,0.024002,0.022761,-0.001096,0.00,0.00,-0.000056,0.006000,-0.001170,-0.001126,0.000000,0.000000,0.000000,0.000000,0.000159,-0.000000,0.000000,0.000000,0.000000,0.000000,0.000000,819,819,819,819
7633,0,0.023914,0.022790,-0.001095,0.00,0.00,-0.000009,0.006000,-0.001171,-0.001129,0.000000,0.000000,0.000000,0.000000,0.000152,-0.000000,0.000000,0.000000,0.000000,0.000000,0.000000,819,819,819,819
7644,0,0.023844,0.022814,-0.001095,0.00,0.00,0.000022,0.006000,-0.001173,-0.001130,0.000000,0.000000,0.000000,0.000000,0.000145,-0.000000,0.000000,0.000000,0.000000,0.000000,0.000000,819,819,819,819
7655,0,0.023787,0.022832,-0.001094,0.00,0.00,0.000015,0.006000,-0.001174,-0.001131,0.000000,0.000000,0.000000,0.000000,0.000141,-0.000000,0.000000,0.000000,0.000000,0.000000,0.000000,819,819,819,819
7665,0,0.023742,0.022847,-0.001093,0.00,0.00,-0.000005,0.006000,-0.001175,-0.001132,0.000000,0.000000,0.000000,0.000000,0.000137,-0.000000,0.000000,0.000000,0.000000,0.000000,0.000000,819,819,819,819
7676,0,0.023706,0.022641,-0.001093,0.00,0.00,-0.000024,0.006000,-0.001176,-0.001126,0.000000,0.000000,0.000000,0.000000,0.000133,-0.000000,0.000000,0.000000,0.000000,0.000000,0.000000,819,819,819,819
7686,0,0.023677,0.022476,-0.001092,0.00,0.00,-0.000042,0.006000,-0.001176,-0.001123,0.000000,0.000000,0.000000,0.000000,0.000131,-0.000000,0.000000,0.000000,0.000000,0.000000,0.000000,819,819,819,819
7696,0,0.023654,0.022563,-0.001092,0.00,0.00,-0.000049,0.006000,-0.001177,-0.001126,0.000000,0.000000,0.000000,0.000000,0.000128,-0.000000,0.000000,0.000000,0.000000,0.000000,0.000000,819,819,819,819
7706,0,0.023636,0.022632,-0.001092,0.00,0.00,-0.000050,0.006000,-0.001178,-0.001130,0.000000,0.000000,0.000000,0.000000,0.000127,-0.000000,0.000000,0.000000,0.000000,0.000000,0.000000,819,819,819,819
7716,0,0.023621,0.022687,-0.001092,0.00,0.00,-0.000050,0.006000,-0.001178,-0.001133,0.000000,0.000000,0.000000,0.000000,0.000126,-0.000000,0.000000,0.000000,0.000000,0.000000,0.000000,819,819,819,819
7726,0,0.023609,0.022731,-0.001092,0.00,0.00,-0.000044,0.006000,-0.001178,-0.001135,0.000000,0.000000,0.000000,0.000000,0.000125,-0.000000,0.000000,0.000000,0.000000,0.000000,0.000000,819,819,819,819
7736,0,0.023600,0.022766,-0.001092,0.00,0.00,-0.000041,0.006000,-0.001178,-0.001136,0.000000,0.000000,0.000000,0.000000,0.000124,-0.000000,0.000000,0.000000,0.000000,0.000000,0.000000,819,819,819,819
7746,0,0.023592,0.022794,-0.001092,0.00,0.00,-0.000045,0.006000,-0.001178,-0.001136,0.000000,0.000000,0.000000,0.000000,0.000123,-0.000000,0.000000,0.000000,0.000000,0.000000,0.000000,819,819,819,819
7756,0,0.023586,0.022817,-0.001092,0.00,0.00,-0.000055,0.006000,-0.001179,-0.001137,0.000000,0.000000,0.000000,0.000000,0.000122,-0.000000,0.000000,0.000000,0.000000,0.000000,0.000000,819,819,819,819
7766,0,0.023581,0.022835,-0.001092,0.00,0.00,-0.000073,0.006000,-0.001179,-0.001139,0.000000,0.000000,0.000000,0.000000,0.000122,-0.000000,0.000000,0.000000,0.000000,0.000000,0.000000,819,819,819,819
7776,0,0.023577,0.022850,-0.001092,0.00,0.00,-0.000090,0.006000,-0.001179,-0.001140,0.000000,0.000000,0.000000,0.000000,0.000122,-0.000000,0.000000,0.000000,0.000000,0.000000,0.000000,819,819,819,819
7786,0,0.023793,0.022861,-0.001092,0.00,0.00,-0.000092,0.006000,-0.001181,-0.001140,0.000000,0.000000,0.000000,0.000000,0.000133,-0.000000,0.000000,0.000000,0.000000,0.000000,0.000000,819,819,819,819
7796,0,0.023965,0.022870,-0.001092,0.00,0.00,-0.000056,0.006000,-0.001183,-0.001141,0.000000,0.000000,0.000000,0.000000,0.000141,-0.000000,0.000000,0.000000,0.000000,0.000000,0.000000,819,819,819,819
7806,0,0.023884,0.022878,-0.001092,0.00,0.00,-0.000024,0.006000,-0.001184,-0.001141,0.000000,0.000000,0.000000,0.000000,0.000135,-0.000000,0.000000,0.000000,0.000000,0.000000,0.000000,819,819,819,819
7819,0,0.023820,0.022884,-0.001092,0.00,0.00,0.000015,0.006000,-0.001183,-0.001141,0.000000,0.000000,0.000000,0.000000,0.000132,-0.000000,0.000000,0.000000,0.000000,0.000000,0.000000,819,819,819,819
7828,0,0.023768,0.022888,-0.001092,0.00,0.00,0.000059,0.006000,-0.001184,-0.001142,0.000000,0.000000,0.000000,0.000000,0.000128,-0.000000,0.000000,0.000000,0.000000,0.000000,0.000000,819,819,819,819
7838,0,0.023727,0.022892,-0.001092,0.00,0.00,0.000104,0.006000,-0.001184,-0.001142,0.000000,0.000000,0.000000,0.000000,0.000125,-0.000000,0.000000,0.000000,0.000000,0.000000,0.000000,819,819,819,819
7847,0,0.023694,0.022895,-0.001092,0.00,0.00,0.000085,0.006000,-0.001184,-0.001141,0.000000,0.000000,0.000000,0.000000,0.000123,-0.000000,0.000000,0.000000,0.000000,0.000000,0.000000,819,819,819,819
7857,0,0.023667,0.022898,-0.001092,-0.00,0.00,0.000044,0.006000,-0.001184,-0.001141,0.000000,0.000000,0.000000,0.000000,0.000122,-0.000000,0.000000,0.000000,0.000000,0.000000,0.000000,819,819,819,819
7867,0,0.023646,0.022900,-0.001092,-0.00,0.00,-0.000003,0.006000,-0.001183,-0.001142,0.000000,0.000000,0.000000,0.000000,0.000121,-0.000000,0.000000,0.000000,0.000000,0.000000,0.000000,819,819,819,819
7877,0,0.023629,0.022901,-0.001092,-0.00,0.00,-0.000028,0.006000,-0.001183,-0.001142,0.000000,0.000000,0.000000,0.000000,0.000120,-0.000000,0.000000,0.000000,0.000000,0.000000,0.000000,819,819,819,819
7887,0,0.023616,0.022902,-0.001092,-0.00,0.00,-0.000033,0.006000,-0.001183,-0.001143,0.000000,0.000000,0.000000,0.000000,0.000119,-0.000000,0.000000,0.000000,0.000000,0.000000,0.000000,819,819,819,819
7896,0,0.023605,0.022903,-0.001092,-0.00,0.00,-0.000014,0.006000,-0.001183,-0.001143,0.000000,0.000000,0.000000,0.000000,0.000119,-0.000000,0.000000,0.000000,0.000000,0.000000,0.000000,819,819,819,819
7906,0,0.023597,0.022904,-0.001092,-0.00,0.00,0.000009,0.006000,-0.001182,-0.001143,0.000000,0.000000,0.000000,0.000000,0.000119,-0.000000,0.000000,0.000000,0.000000,0.000000,0.000000,819,819,819,819
7916,0,0.023590,0.022905,-0.001092,-0.00,0.00,0.000030,0.006000,-0.001182,-0.001143,0.000000,0.000000,0.000000,0.000000,0.000119,-0.000000,0.000000,0.000000,0.000000,0.000000,0.000000,819,819,819,819
7932,0,0.023584,0.022905,-0.001092,-0.00,0.00,0.000036,0.006000,-0.001181,-0.001143,0.000000,0.000000,0.000000,0.000000,0.000119,-0.000000,0.000000,0.000000,0.000000,0.000000,0.000000,819,819,819,819
7945,0,0.023580,0.022906,-0.001092,-0.00,0.00,0.000031,0.006000,-0.001181,-0.001144,0.000000,0.000000,0.000000,0.000000,0.000119,-0.000000,0.000000,0.000000,0.000000,0.000000,0.000000,819,819,819,819
7957,0,0.023576,0.022906,-0.001092,-0.00,0.00,0.000017,0.006000,-0.001181,-0.001144,0.000000,0.000000,0.000000,0.000000,0.000119,-0.000000,0.000000,0.000000,0.000000,0.000000,0.000000,819,819,819,819
7967,0,0.023573,0.022906,-0.001092,-0.00,0.00,0.000001,0.006000,-0.001181,-0.001144,0.000000,0.000000,0.000000,0.000000,0.000119,-0.000000,0.000000,0.000000,0.000000,0.000000,0.000000,819,819,819,819
7977,0,0.023571,0.022907,-0.001092,-0.00,0.00,-0.000013,0.006000,-0.001180,-0.001144,0.000000,0.000000,0.000000,0.000000,0.000119,-0.000000,0.000000,0.000000,0.000000,0.000000,0.000000,819,819,819,819
7987,0,0.023569,0.022907,-0.001092,-0.00,0.00,-0.000027,0.006000,-0.001180,-0.001144,0.000000,0.000000,0.000000,0.000000,0.000119,-0.000000,0.000000,0.000000,0.000000,0.000000,0.000000,819,819,819,819
7997,0,0.023568,0.022907,-0.001092,-0.00,0.00,-0.000039,0.006000,-0.001180,-0.001144,0.000000,0.000000,0.000000,0.000000,0.000119,-0.000000,0.000000,0.000000,0.000000,0.000000,0.000000,819,819,819,819
8007,0,0.023567,0.022907,-0.001092,-0.00,0.00,-0.000064,0.006000,-0.001180,-0.001144,0.000000,0.000000,0.000000,0.000000,0.000120,-0.000000,0.000000,0.000000,0.000000,0.000000,0.000000,819,819,819,819
8017,0,0.023566,0.022907,-0.001092,-0.00,0.00,-0.000107,0.006000,-0.001180,-0.001144,0.000000,0.000000,0.000000,0.000000,0.000120,-0.000000,0.000000,0.000000,0.000000,0.000000,0.000000,819,819,819,819
8027,0,0.023783,0.022907,-0.001092,0.00,0.00,-0.000151,0.006000,-0.001181,-0.001144,0.000000,0.000000,0.000000,0.000000,0.000132,-0.000000,0.000000,0.000000,0.000000,0.000000,0.000000,819,819,819,819
8037,0,0.023957,0.022907,-0.001092,0.00,0.00,-0.000187,0.006000,-0.001184,-0.001144,0.000000,0.000000,0.000000,0.000000,0.000140,-0.000000,0.000000,0.000000,0.000000,0.000000,0.000000,819,819,819,819
8046,0,0.024096,0.022907,-0.001092,0.00,0.00,-0.000214,0.006000,-0.001186,-0.001144,0.000000,0.000000,0.000000,0.000000,0.000146,-0.000000,0.000000,0.000000,0.000000,0.000000,0.000000,819,819,819,819
8056,0,0.024207,0.022907,-0.001092,0.00,0.00,-0.000225,0.006000,-0.001189,-0.001144,0.000000,0.000000,0.000000,0.000000,0.000149,-0.000000,0.000000,0.000000,0.000000,0.000000,0.000000,819,819,819,819
8066,0,0.024297,0.022907,-0.001092,0.00,0.00,-0.000220,0.006000,-0.001192,-0.001144,0.000000,0.000000,0.000000,0.000000,0.000152,-0.000000,0.000000,0.000000,0.000000,0.000000,0.000000,819,819,819,819
8077,0,0.024368,0.022907,-0.001092,0.00,0.00,-0.000193,0.006000,-0.001196,-0.001144,0.000000,0.000000,0.000000,0.000000,0.000152,-0.000000,0.000000,0.000000,0.000000,0.000000,0.000000,819,819,819,819
8087,0,0.024425,0.022907,-0.001092,0.00,0.00,-0.000162,0.006000,-0.001199,-0.001145,0.000000,0.000000,0.000000,0.000000,0.000152,-0.000000,0.000000,0.000000,0.000000,0.000000,0.000000,819,819,819,819
8097,0,0.024470,0.022907,-0.001092,0.00,0.00,-0.000140,0.006000,-0.001202,-0.001145,0.000000,0.000000,0.000000,0.000000,0.000152,-0.000000,0.000000,0.000000,0.000000,0.000000,0.000000,819,819,819,819
8107,0,0.024507,0.022907,-0.001092,0.00,0.00,-0.000116,0.006000,-0.001205,-0.001145,0.000000,0.000000,0.000000,0.000000,0.000151,-0.000000,0.000000,0.000000,0.000000,0.000000,0.000000,819,819,819,819
8117,0,0.024536,0.022907,-0.001092,0.00,-0.00,-0.000096,0.006000,-0.001207,-0.001146,0.000000,0.000000,0.000000,0.000000,0.000149,-0.000000,0.000000,0.000000,0.000000,0.000000,0.000000,819,819,819,819
8127,0,0.024559,0.022907,-0.001092,0.00,-0.00,-0.000077,0.006000,-0.001210,-0.001146,0.000000,0.000000,0.000000,0.000000,0.000148,-0.000000,0.000000,0.000000,0.000000,0.000000,0.000000,819,819,819,819
8137,0,0.024578,0.022907,-0.001092,0.00,-0.00,-0.000059,0.006000,-0.001212,-0.001146,0.000000,0.000000,0.000000,0.000000,0.000147,-0.000000,0.000000,0.000000,0.000000,0.000000,0.000000,819,819,819,819
8147,0,0.024593,0.022907,-0.001092,0.00,-0.00,-0.000041,0.006000,-0.001214,-0.001146,0.000000,0.000000,0.000000,0.000000,0.000145,-0.000000,0.000000,0.000000,0.000000,0.000000,0.000000,819,819,819,819
8157,0,0.024605,0.022907,-0.001092,0.00,0.00,-0.000015,0.006000,-0.001216,-0.001145,0.000000,0.000000,0.000000,0.000000,0.000144,-0.000000,0.000000,0.000000,0.000000,0.000000,0.000000,819,819,819,819
8167,0,0.024615,0.022907,-0.001092,0.00,0.00,0.000015,0.006000,-0.001218,-0.001145,0.000000,0.000000,0.000000,0.000000,0.000142,-0.000000,0.000000,0.000000,0.000000,0.000000,0.000000,819,819,819,819
8177,0,0.024622,0.022907,-0.001092,0.00,0.00,0.000046,0.006000,-0.001219,-0.001145,0.000000,0.000000,0.000000,0.000000,0.000141,-0.000000,0.000000,0.000000,0.000000,0.000000,0.000000,819,819,819,819
8187,0,0.024628,0.022907,-0.001092,0.00,-0.00,0.000073,0.006000,-0.001220,-0.001145,0.000000,0.000000,0.000000,0.000000,0.000140,-0.000000,0.000000,0.000000,0.000000,0.000000,0.000000,819,819,819,819
8197,0,0.024633,0.022907,-0.001092,0.00,-0.00,0.000087,0.006000,-0.001221,-0.001146,0.000000,0.000000,0.000000,0.000000,0.000139,-0.000000,0.000000,0.000000,0.000000,0.000000,0.000000,819,819,819,819
8207,0,0.024637,0.022907,-0.001092,0.00,-0.00,0.000083,0.006000,-0.001223,-0.001146,0.000000,0.000000,0.000000,0.000000,0.000138,-0.000000,0.000000,0.000000,0.000000,0.000000,0.000000,819,819,819,819
8217,0,0.024640,0.022907,-0.001092,0.00,-0.00,0.000062,0.006000,-0.001223,-0.001146,0.000000,0.000000,0.000000,0.000000,0.000137,-0.000000,0.000000,0.000000,0.000000,0.000000,0.000000,819,819,819,819
8227,0,0.024643,0.022907,-0.001092,0.00,-0.00,0.000036,0.006000,-0.001224,-0.001147,0.000000,0.000000,0.000000,0.000000,0.000136,-0.000000,0.000000,0.000000,0.000000,0.000000,0.000000,819,819,819,819
8237,0,0.024645,0.022907,-0.001092,0.00,-0.00,0.000009,0.006000,-0.001225,-0.001147,0.000000,0.000000,0.000000,0.000000,0.000136,-0.000000,0.000000,0.000000,0.000000,0.000000,0.000000,819,819,819,819
8253,0,0.024646,0.022907,-0.001092,0.00,-0.00,-0.000011,0.006000,-0.001226,-0.001147,0.000000,0.000000,0.000000,0.000000,0.000135,-0.000000,0.000000,0.000000,0.000000,0.000000,0.000000,819,819,819,819
8266,0,0.024648,0.022907,-0.001092,0.00,-0.00,-0.000019,0.006000,-0.001227,-0.001147,0.000000,0.000000,0.000000,0.000000,0.000134,-0.000000,0.000000,0.000000,0.000000,0.000000,0.000000,819,819,819,819
8277,0,0.024649,0.022907,-0.001092,0.00,-0.00,-0.000008,0.006000,-0.001227,-0.001147,0.000000,0.000000,0.000000,0.000000,0.000133,-0.000000,0.000000,0.000000,0.000000,0.000000,0.000000,819,819,819,819
8287,0,0.024649,0.022907,-0.001092,0.00,-0.00,0.000009,0.006000,-0.001228,-0.001147,0.000000,0.000000,0.000000,0.000000,0.000132,-0.000000,0.000000,0.000000,0.000000,0.000000,0.000000,819,819,819,819
8297,0,0.024650,0.022907,-0.001092,0.00,-0.00,0.000020,0.006000,-0.001229,-0.001147,0.000000,0.000000,0.000000,0.000000,0.000132,-0.000000,0.000000,0.000000,0.000000,0.000000,0.000000,819,819,819,819
8307,0,0.024651,0.022907,-0.001092,0.00,-0.00,0.000029,0.006000,-0.001229,-0.001147,0.000000,0.000000,0.000000,0.000000,0.000131,-0.000000,0.000000,0.000000,0.000000,0.000000,0.000000,819,819,819,819
8317,0,0.024651,0.022907,-0.001092,0.00,-0.00,0.000036,0.008000,-0.001230,-0.001147,0.000000,0.000000,0.000000,0.000000,0.000130,-0.000000,0.000000,0.000000,0.000000,0.000000,0.000000,819,819,819,819
8327,0,0.024651,0.022907,-0.001092,0.00,-0.00,0.000039,0.008000,-0.001230,-0.001147,0.000000,0.000000,0.000000,0.000000,0.000130,-0.000000,0.000000,0.000000,0.000000,0.000000,0.000000,819,819,819,819
8337,0,0.024652,0.022907,-0.001092,0.00,-0.00,0.000045,0.008000,-0.001230,-0.001147,0.000000,0.000000,0.000000,0.000000,0.000130,-0.000000,0.000000,0.000000,0.000000,0.000000,0.000000,819,819,819,819
8347,0,0.024652,0.022907,-0.001092,0.00,-0.00,0.000044,0.009000,-0.001231,-0.001147,0.000000,0.000000,0.000000,0.000000,0.000129,-0.000000,0.000000,0.000000,0.000000,0.000000,0.000000,819,819,819,819
8357,0,0.024652,0.022907,-0.001092,0.00,-0.00,0.000040,0.009000,-0.001231,-0.001147,0.000000,0.000000,0.000000,0.000000,0.000129,-0.000000,0.000000,0.000000,0.000000,0.000000,0.000000,819,819,819,819
8368,0,0.024652,0.022907,-0.001092,0.00,-0.00,0.000033,0.009000,-0.001231,-0.001147,0.000000,0.000000,0.000000,0.000000,0.000129,-0.000000,0.000000,0.000000,0.000000,0.000000,0.000000,819,819,819,819
8378,0,0.024652,0.022907,-0.001092,0.00,-0.00,0.000024,0.009000,-0.001232,-0.001147,0.000000,0.000000,0.000000,0.000000,0.000128,-0.000000,0.000000,0.000000,0.000000,0.000000,0.000000,819,819,819,819
8388,0,0.024652,0.022907,-0.001092,0.00,-0.00,0.000014,0.009000,-0.001231,-0.001148,0.000000,0.000000,0.000000,0.000000,0.000128,-0.000000,0.000000,0.000000,0.000000,0.000000,0.000000,819,819,819,819
8398,0,0.024652,0.022907,-0.001092,0.00,-0.00,0.000002,0.009000,-0.001232,-0.001147,0.000000,0.000000,0.000000,0.000000,0.000128,-0.000000,0.000000,0.000000,0.000000,0.000000,0.000000,819,819,819,819
8408,0,0.024653,0.022907,-0.001092,0.00,-0.00,-0.000009,0.010000,-0.001232,-0.001147,0.000000,0.000000,0.000000,0.000000,0.000128,-0.000000,0.000000,0.000000,0.000000,0.000000,0.000000,819,819,819,819
8418,0,0.024653,0.022907,-0.001092,0.00,-0.00,-0.000012,0.010000,-0.001232,-0.001147,0.000000,0.000000,0.000000,0.000000,0.000128,-0.000000,0.000000,0.000000,0.000000,0.000000,0.000000,819,819,819,819
8428,0,0.024653,0.022907,-0.001092,0.00,-0.00,-0.000020,0.010000,-0.001232,-0.001147,0.000000,0.000000,0.000000,0.000000,0.000128,-0.000000,0.000000,0.000000,0.000000,0.000000,0.000000,819,819,819,819
8438,0,0.024653,0.022907,-0.001092,0.00,-0.00,-0.000021,0.010000,-0.001232,-0.001147,0.000000,0.000000,0.000000,0.000000,0.000127,-0.000000,0.000000,0.000000,0.000000,0.000000,0.000000,819,819,819,819
8448,0,0.024653,0.022907,-0.001092,0.00,-0.00,-0.000025,0.010000,-0.001232,-0.001146,0.000000,0.000000,0.000000,0.000000,0.000128,-0.000000,0.000000,0.000000,0.000000,0.000000,0.000000,819,819,819,819
8458,0,0.024653,0.022907,-0.001092,0.00,-0.00,-0.000031,0.010000,-0.001232,-0.001146,0.000000,0.000000,0.000000,0.000000,0.000128,-0.000000,0.000000,0.000000,0.000000,0.000000,0.000000,819,819,819,819
8468,0,0.024653,0.022907,-0.001092,0.00,-0.00,-0.000039,0.010000,-0.001232,-0.001146,0.000000,0.000000,0.000000,0.000000,0.000128,-0.000000,0.000000,0.000000,0.000000,0.000000,0.000000,819,819,819,819
8478,0,0.024653,0.022907,-0.001092,0.00,-0.00,-0.000039,0.010000,-0.001232,-0.001146,0.000000,0.000000,0.000000,0.000000,0.000128,-0.000000,0.000000,0.000000,0.000000,0.000000,0.000000,819,819,819,819
8488,0,0.024653,0.022907,-0.001092,0.00,-0.00,-0.000030,0.084000,-0.001232,-0.001146,0.000000,0.000000,0.000000,0.000000,0.000128,-0.000000,0.000000,0.083872,0.083872,0.084128,0.084128,887,908,888,908
8500,0,0.024653,0.022907,-0.001092,0.00,-0.00,-0.000022,0.084000,-0.001232,-0.001146,0.000000,0.000000,0.000000,0.000000,0.000128,-0.000000,0.000000,0.083872,0.083872,0.084128,0.084128,887,908,888,908
8510,0,0.024653,0.022907,-0.001092,0.00,-0.00,-0.000016,0.118000,-0.001232,-0.001146,0.000000,0.000000,0.000000,0.000000,0.000128,-0.000000,0.000000,0.117872,0.117872,0.118128,0.118128,915,936,915,936
8520,0,0.024653,0.022907,-0.001092,0.00,-0.00,-0.000013,0.118000,-0.001232,-0.001145,0.000000,0.000000,0.000000,0.000000,0.000128,-0.000000,0.000000,0.117872,0.117872,0.118128,0.118128,915,936,915,936
8530,0,0.024653,0.022907,-0.001092,0.00,0.00,-0.000021,0.118000,-0.001232,-0.001145,0.000000,0.000000,0.000000,0.000000,0.000128,-0.000000,0.000000,0.117872,0.117872,0.118128,0.118128,915,936,915,936
8540,0,0.024653,0.022907,-0.001092,0.00,-0.00,-0.000026,0.141000,-0.001232,-0.001146,0.000000,0.000000,0.000000,0.000000,0.000127,-0.000000,0.000000,0.140873,0.140873,0.141127,0.141127,934,955,934,955
8550,0,0.024653,0.022907,-0.001092,0.00,-0.00,-0.000034,0.141000,-0.001233,-0.001146,0.000000,0.000000,0.000000,0.000000,0.000127,-0.000000,0.000000,0.140873,0.140873,0.141127,0.141127,934,955,934,955
8560,0,0.024653,0.022907,-0.001092,-0.00,-0.00,-0.000024,0.141000,-0.001233,-0.001146,0.000000,0.000000,0.000000,0.000000,0.000127,-0.000000,0.000000,0.140873,0.140873,0.141127,0.141127,934,955,934,955
8576,0,0.024653,0.022907,-0.001092,-0.00,-0.00,-0.000012,0.141000,-0.001233,-0.001147,0.000000,0.000000,0.000000,0.000000,0.000127,-0.000000,0.000000,0.140873,0.140873,0.141127,0.141127,934,955,934,955
8588,0,0.024435,0.022907,-0.001092,-0.00,-0.00,-0.000000,0.141000,-0.001231,-0.001146,0.000000,0.000000,0.000000,0.000000,0.000115,-0.000000,0.000000,0.140885,0.140885,0.141115,0.141115,934,955,934,955
8598,0,0.024478,0.022907,-1.257511,-0.00,-0.00,-0.000017,0.141000,-0.001230,-0.001146,0.000000,0.000000,0.000000,0.000000,0.000118,-0.000000,0.000000,0.140882,0.140882,0.141118,0.141118,934,955,934,955
8608,0,0.024513,0.022907,-1.006227,-0.00,0.00,-0.000049,0.145000,-0.001228,-0.001145,0.000000,0.000000,0.000000,0.000000,0.000123,-0.000000,0.000000,0.144877,0.144877,0.145123,0.145123,937,958,938,958
8618,0,0.024541,0.022907,-0.805200,-0.00,0.00,-0.000086,0.145000,-0.001228,-0.001145,0.000000,0.000000,0.000000,0.000000,0.000126,-0.000000,0.000000,0.144874,0.144874,0.145126,0.145126,937,958,938,958
8628,0,0.024563,0.022907,-0.644378,0.00,0.00,-0.000141,0.145000,-0.001227,-0.001145,0.000000,0.000000,0.000000,0.000000,0.000128,-0.000000,0.000000,0.144872,0.144872,0.145128,0.145128,937,958,938,958
8638,0,0.024581,0.022907,-0.515721,0.00,0.00,-0.000197,0.145000,-0.001226,-0.001145,0.000000,0.000000,0.000000,0.000000,0.000131,-0.000000,0.000000,0.144869,0.144869,0.145131,0.145131,937,958,938,958
8648,0,0.024596,0.022907,-0.412795,0.00,0.00,-0.000209,0.145000,-0.001224,-0.001145,0.000000,0.000000,0.000000,0.000000,0.000133,-0.000000,0.000000,0.144867,0.144867,0.145133,0.145133,937,958,938,958
8661,0,0.024607,0.022907,-0.330454,0.00,0.00,-0.000211,0.145000,-0.001223,-0.001145,0.000000,0.000000,0.000000,0.000000,0.000135,-0.000000,0.000000,0.144865,0.144865,0.145135,0.145135,937,958,938,958
8671,0,0.024616,0.022907,-0.264581,0.00,0.00,-0.000147,0.145000,-0.001219,-0.001145,0.000000,0.000000,0.000000,0.000000,0.000141,-0.000000,0.000000,0.144859,0.144859,0.145141,0.145141,937,958,938,958
8680,0,0.024405,0.022907,-0.212101,0.00,0.00,0.000019,0.145000,-0.001208,-0.001143,0.000000,0.000000,0.000000,0.000000,0.000140,-0.000000,0.000000,0.144860,0.144860,0.145140,0.145140,937,958,938,958
8689,0,0.024237,0.022689,-0.170335,0.00,-0.00,0.000104,0.145000,-0.001199,-0.001137,0.000000,0.000000,0.000000,0.000000,0.000141,-0.000000,0.000000,0.144859,0.144859,0.145141,0.145141,937,958,938,958
8699,0,0.024320,0.022515,-0.136923,0.00,-0.00,-0.000089,0.145000,-0.001200,-0.001130,0.000000,0.000000,0.000000,0.000000,0.000145,-0.000000,0.000000,0.144855,0.144855,0.145145,0.145145,937,958,938,958
8709,0,0.024605,0.022375,-0.109974,0.00,-0.00,-0.000334,0.145000,-0.001209,-0.001125,0.000000,0.000000,0.000000,0.000000,0.000152,-0.000000,0.000000,0.144848,0.144848,0.145152,0.145152,937,958,938,958
8719,0,0.025051,0.022263,-0.088415,0.00,-0.00,-0.000372,0.145000,-0.001224,-0.001123,0.000000,0.000000,0.000000,0.000000,0.000163,-0.000000,0.000000,0.144837,0.144837,0.145163,0.145163,937,958,938,958
8729,0,0.025189,0.022174,-0.070950,0.00,-0.00,-0.000223,0.145000,-0.001240,-0.001122,0.000000,0.000000,0.000000,0.000000,0.000152,-0.000000,0.000000,0.144848,0.144848,0.145152,0.145152,937,958,938,958
8739,0,0.025082,0.022103,-1.313397,-0.00,-0.00,-0.000007,0.145000,-0.001258,-0.001119,0.000000,0.000000,0.000000,0.000000,0.000125,-0.000000,0.000000,0.144875,0.144875,0.145125,0.145125,937,958,938,958
8749,0,0.024778,0.022045,-2.307137,-0.00,-0.00,0.000081,0.145000,-0.001274,-0.001114,0.000000,0.000000,0.000000,0.000000,0.000086,-0.000000,0.000000,0.144914,0.144914,0.145086,0.145086,937,958,937,958
8759,0,0.024753,0.022000,-3.101692,-0.00,-0.00,0.000012,0.145000,-0.001288,-0.001113,0.000000,0.000000,0.000000,0.000000,0.000068,-0.000000,0.000000,0.144932,0.144932,0.145068,0.145068,937,958,937,958
8769,0,0.024951,0.021963,2.545850,-0.00,-0.00,-0.000125,0.145000,-0.001298,-0.001112,0.000000,0.000000,0.000000,0.000000,0.000069,-0.000000,0.000000,0.144931,0.144931,0.145069,0.145069,937,958,937,958
8779,0,0.025110,0.021934,2.037334,-0.00,-0.00,-0.000269,0.146000,-0.001302,-0.001111,0.000000,0.000000,0.000000,0.000000,0.000075,-0.000000,0.000000,0.145925,0.145925,0.146075,0.146075,938,959,938,959
8789,0,0.025455,0.021910,1.630740,-0.00,-0.00,-0.000361,0.145000,-0.001303,-0.001109,0.000000,0.000000,0.000000,0.000000,0.000095,-0.000000,0.000000,0.144905,0.144905,0.145095,0.145095,937,958,938,958
8799,0,0.025731,0.021892,1.305465,-0.00,-0.00,-0.000393,0.145000,-0.001303,-0.001105,0.000000,0.000000,0.000000,0.000000,0.000114,-0.000000,0.000000,0.144886,0.144886,0.145114,0.145114,937,958,938,958
8809,0,0.025951,0.021877,1.045244,-0.00,-0.00,-0.000316,0.145000,-0.001303,-0.001102,0.000000,0.000000,0.000000,0.000000,0.000127,-0.000000,0.000000,0.144873,0.144873,0.145127,0.145127,937,958,938,958
8819,0,0.026128,0.021865,0.837068,0.00,-0.00,-0.000147,0.145000,-0.001305,-0.001101,0.000000,0.000000,0.000000,0.000000,0.000137,-0.000000,0.000000,0.144863,0.144863,0.145137,0.145137,937,958,938,958
8829,0,0.026051,0.021855,0.670527,-0.00,-0.00,0.000017,0.145000,-0.001305,-0.001101,0.000000,0.000000,0.000000,0.000000,0.000131,-0.000000,0.000000,0.144869,0.144869,0.145131,0.145131,937,958,938,958
8839,0,0.025990,0.021847,0.537295,-0.00,-0.00,0.000142,0.145000,-0.001306,-0.001103,0.000000,0.000000,0.000000,0.000000,0.000126,-0.000000,0.000000,0.144874,0.144874,0.145126,0.145126,937,958,938,958
8849,0,0.025722,0.022059,0.430708,-0.00,-0.00,0.000199,0.145000,-0.001303,-0.001108,0.000000,0.000000,0.000000,0.000000,0.000113,-0.000000,0.000000,0.144887,0.144887,0.145113,0.145113,937,958,938,958
8859,0,0.025508,0.022229,0.345439,-0.00,-0.00,0.000137,0.146000,-0.001299,-0.001112,0.000000,0.000000,0.000000,0.000000,0.000104,-0.000000,0.000000,0.145896,0.145896,0.146104,0.146104,938,959,938,959
8869,0,0.025337,0.022365,0.277224,-0.00,0.00,0.000178,0.146000,-0.001297,-0.001115,0.000000,0.000000,0.000000,0.000000,0.000096,-0.000000,0.000000,0.145904,0.145904,0.146096,0.146096,938,959,938,959
8885,0,0.024982,0.022473,0.222870,-0.00,0.00,0.000197,0.147000,-0.001287,-0.001118,0.000000,0.000000,0.000000,0.000000,0.000085,-0.000000,0.000000,0.146915,0.146915,0.147085,0.147085,939,959,939,960
8896,0,0.024698,0.022560,0.179387,-0.00,0.00,0.000227,0.149000,-0.001280,-0.001121,0.000000,0.000000,0.000000,0.000000,0.000074,-0.000000,0.000000,0.148926,0.148926,0.149074,0.149074,941,961,941,961
8906,0,0.024471,0.022630,0.144600,-0.00,0.00,0.000260,0.149000,-0.001275,-0.001123,0.000000,0.000000,0.000000,0.000000,0.000066,-0.000000,0.000000,0.148934,0.148934,0.149066,0.149066,941,961,941,961
8917,0,0.024289,0.022685,0.116771,-0.00,0.00,0.000226,0.150000,-0.001267,-0.001126,0.000000,0.000000,0.000000,0.000000,0.000063,-0.000000,0.000000,0.149937,0.149937,0.150063,0.150063,941,962,942,962
8929,0,0.023707,0.022730,0.094508,-0.00,0.00,0.000324,0.150000,-0.001255,-0.001130,0.000000,0.000000,0.000000,0.000000,0.000041,-0.000000,0.000000,0.149959,0.149959,0.150041,0.150041,941,962,942,962
8939,0,0.023242,0.022765,0.076697,-0.00,0.00,0.000373,0.151000,-0.001244,-0.001131,0.000000,0.000000,0.000000,0.000000,0.000024,-0.000000,0.000000,0.150976,0.150976,0.151024,0.151024,942,963,942,963
8949,0,0.022870,0.022794,0.062448,-0.00,0.00,0.000370,0.152000,-0.001231,-0.001130,0.000000,0.000000,0.000000,0.000000,0.000015,-0.000000,0.000000,0.151985,0.151985,0.152015,0.152015,943,964,943,964
8959,0,0.022572,0.022816,0.051050,-0.00,0.00,0.000266,0.152000,-0.001220,-0.001132,0.000000,0.000000,0.000000,0.000000,0.000009,-0.000000,0.000000,0.151991,0.151991,0.152009,0.152009,943,964,943,964
8969,0,0.022333,0.022835,0.041931,-0.00,0.00,0.000302,0.154000,-0.001210,-0.001137,0.000000,0.000000,0.000000,0.000000,0.000006,-0.000000,0.000000,0.153994,0.153994,0.154006,0.154006,945,965,945,965
8979,0,0.022143,0.023067,0.034635,-0.00,0.00,0.000299,0.160000,-0.001201,-0.001147,0.000000,0.000000,0.000000,0.000000,0.000004,-0.000000,0.000000,0.159996,0.159996,0.160004,0.160004,950,970,950,970
8989,0,0.021990,0.023254,0.028799,-0.00,0.00,0.000240,0.162000,-0.001192,-0.001153,0.000000,0.000000,0.000000,0.000000,0.000005,-0.000000,0.000000,0.161995,0.161995,0.162005,0.162005,951,972,951,972
8999,0,0.021868,0.023402,0.024130,-0.00,0.00,0.000132,0.162000,-0.001182,-0.001156,0.000000,0.000000,0.000000,0.000000,0.000009,-0.000000,0.000000,0.161991,0.161991,0.162009,0.162009,951,972,951,972
9009,0,0.021989,0.023303,0.020395,-0.00,0.00,0.000036,0.166000,-0.001178,-0.001150,0.000000,0.000000,0.000000,0.000000,0.000022,-0.000000,0.000000,0.165978,0.165978,0.166022,0.166022,955,975,955,975
9019,0,0.022085,0.023224,0.017407,-0.00,0.00,0.000002,0.166000,-0.001174,-0.001148,0.000000,0.000000,0.000000,0.000000,0.000032,-0.000000,0.000000,0.165968,0.165968,0.166032,0.166032,955,975,955,975
9029,0,0.021944,0.023161,0.015234,-0.00,0.00,0.000109,0.166000,-0.001169,-0.001148,0.000000,0.000000,0.000000,0.000000,0.000029,-0.000000,0.000000,0.165971,0.165971,0.166029,0.166029,955,975,955,975
9039,0,0.021832,0.023110,0.013496,-0.00,0.00,0.000216,0.171000,-0.001161,-0.001152,0.000000,0.000000,0.000000,0.000000,0.000031,-0.000000,0.000000,0.170969,0.170969,0.171031,0.171031,959,979,959,979
9049,0,0.021741,0.023070,0.012106,-0.00,-0.00,0.000326,0.171000,-0.001153,-0.001155,0.000000,0.000000,0.000000,0.000000,0.000034,-0.000000,0.000000,0.170966,0.170966,0.171034,0.171034,959,979,959,979
9059,0,0.021451,0.023255,0.010994,-0.00,-0.00,0.000427,0.171000,-0.001143,-0.001164,0.000000,0.000000,0.000000,0.000000,0.000028,-0.000000,0.000000,0.170972,0.170972,0.171028,0.171028,959,979,959,979
9069,0,0.021000,0.023404,0.010104,-0.00,-0.00,0.000498,0.171000,-0.001132,-0.001170,0.000000,0.000000,0.000000,0.000000,0.000012,-0.000000,0.000000,0.170988,0.170988,0.171012,0.171012,959,979,959,979
9079,0,0.020640,0.023523,0.009392,-0.00,0.00,0.000458,0.181000,-0.001119,-0.001174,0.000000,0.000000,0.000000,0.000000,0.000004,-0.000000,0.000000,0.180996,0.180996,0.181004,0.181004,967,987,967,987
9090,0,0.020352,0.023618,0.008823,-0.00,0.00,0.000409,0.183000,-0.001108,-0.001175,0.000000,0.000000,0.000000,0.000000,-0.000000,-0.000000,0.000000,0.183001,0.183001,0.182999,0.182999,969,989,969,989
9099,0,0.020121,0.023694,0.008367,-0.00,0.00,0.000323,0.183000,-0.001101,-0.001175,0.000000,0.000000,0.000000,0.000000,-0.000008,-0.000000,0.000000,0.183008,0.183008,0.182992,0.182992,969,989,969,989
9109,0,0.019937,0.023755,0.008003,-0.00,0.00,0.000358,0.189000,-0.001097,-0.001176,0.000000,0.000000,0.000000,0.000000,-0.000014,-0.000000,-0.000000,0.189014,0.189014,0.188986,0.188986,973,994,973,994
9119,0,0.019789,0.023804,0.007929,-0.00,0.00,0.000445,0.191000,-0.001091,-0.001177,0.000000,0.000000,0.000000,0.000000,-0.000017,-0.000000,-0.000000,0.191017,0.191017,0.190983,0.190983,975,996,975,996
9129,0,0.019235,0.023624,0.007871,-0.00,0.00,0.000549,0.191000,-0.001081,-0.001170,0.000000,0.000000,0.000000,0.000000,-0.000041,-0.000000,-0.000000,0.191041,0.191041,0.190959,0.190959,975,996,975,996
9140,0,0.018791,0.023481,0.007824,-0.00,0.00,0.000627,0.192000,-0.001067,-0.001169,0.000000,0.000000,0.000000,0.000000,-0.000052,-0.000000,-0.000000,0.192052,0.192052,0.191948,0.191948,976,996,976,996
9149,0,0.018436,0.023366,0.008004,-0.00,-0.00,0.000718,0.192000,-0.001055,-0.001171,0.000000,0.000000,0.000000,0.000000,-0.000061,-0.000000,-0.000000,0.192061,0.192061,0.191939,0.191939,976,996,976,996
9160,0,0.017716,0.023493,0.008149,-0.00,-0.00,0.000830,0.192000,-0.001036,-0.001175,0.000000,0.000000,0.000000,0.000000,-0.000085,-0.000000,-0.000000,0.192085,0.192085,0.191915,0.191915,976,996,976,996
9170,0,0.016922,0.023594,0.008264,-0.00,0.00,0.000950,0.192000,-0.001015,-0.001175,0.000000,0.000000,0.000000,0.000000,-0.000111,-0.000000,-0.000000,0.192111,0.192111,0.191889,0.191889,976,996,976,996
9180,0,0.015850,0.023457,0.008357,-0.00,0.00,0.001113,0.192000,-0.000989,-0.001171,0.000000,0.000000,0.000000,0.000000,-0.000148,-0.000000,-0.000000,0.192148,0.192148,0.191852,0.191852,976,997,976,996
9190,0,0.014774,0.023565,0.008649,-0.00,0.00,0.001302,0.193000,-0.000962,-0.001175,0.000000,0.000000,0.000000,0.000000,-0.000186,-0.000000,-0.000000,0.193186,0.193186,0.192814,0.192814,977,997,977,997
9203,0,0.013478,0.023652,0.008883,-0.00,0.00,0.001436,0.193000,-0.000919,-0.001181,0.000000,0.000000,0.000000,0.000000,-0.000218,-0.000000,-0.000000,0.193218,0.193218,0.192782,0.192782,977,997,977,997
9217,0,0.012222,0.023721,0.009288,-0.00,0.00,0.001619,0.193000,-0.000876,-0.001182,0.000000,0.000000,0.000000,0.000000,-0.000247,-0.000000,-0.000000,0.193247,0.193247,0.192753,0.192753,977,997,977,997
9229,0,0.010781,0.023558,0.009612,-0.00,0.00,0.001836,0.193000,-0.000834,-0.001170,0.000000,0.000000,0.000000,0.000000,-0.000290,-0.000000,-0.000000,0.193290,0.193290,0.192710,0.192710,977,997,977,997
9240,0,0.008538,0.022992,0.010308,-0.00,0.00,0.002119,0.194000,-0.000784,-0.001145,0.000000,0.000000,0.000000,0.000000,-0.000375,-0.000000,-0.000000,0.194375,0.194375,0.193625,0.193625,978,998,977,998
9250,0,0.006743,0.022539,0.010864,-0.00,-0.00,0.002388,0.193000,-0.000744,-0.001131,0.000000,0.000000,0.000000,0.000000,-0.000442,-0.000000,-0.000000,0.193442,0.193442,0.192558,0.192558,977,998,976,997
9260,0,0.004434,0.021958,0.011746,-0.00,-0.00,0.002559,0.193000,-0.000696,-0.001112,0.000000,0.000000,0.000000,0.000000,-0.000534,-0.000000,-0.000000,0.193534,0.193534,0.192466,0.192466,977,998,976,997
9270,0,0.002588,0.021493,0.012451,-0.00,-0.00,0.002658,0.193000,-0.000648,-0.001089,0.000000,0.000000,0.000000,0.000000,-0.000595,-0.000000,-0.000000,0.193595,0.193595,0.192405,0.192405,977,998,976,997
9280,0,0.000892,0.020903,0.013233,-0.00,-0.00,0.002735,0.194000,-0.000599,-0.001057,0.000000,0.000000,0.000000,0.000000,-0.000645,-0.000000,-0.000000,0.194645,0.194645,0.193355,0.193355,978,999,977,998
9290,0,-0.000901,0.020213,0.014077,-0.00,-0.00,0.002799,0.193000,-0.000546,-0.001023,0.000000,0.000000,0.000000,0.000000,-0.000698,-0.000000,-0.000000,0.193698,0.193698,0.192302,0.192302,977,998,976,997
9300,0,-0.002553,0.019225,0.014971,-0.00,-0.00,0.002981,0.193000,-0.000492,-0.000980,0.000000,0.000000,0.000000,0.000000,-0.000741,-0.000000,-0.000000,0.193741,0.193741,0.192259,0.192259,977,998,976,997
9310,0,-0.004530,0.017998,0.016122,-0.00,-0.00,0.003156,0.194000,-0.000434,-0.000932,0.000000,0.000000,0.000000,0.000000,-0.000798,-0.000000,-0.000000,0.194798,0.194798,0.193202,0.193202,978,999,977,997
9320,0,-0.006547,0.016798,0.017479,-0.00,-0.00,0.003183,0.194000,-0.000373,-0.000890,0.000000,0.000000,0.000000,0.000000,-0.000856,0.000000,-0.000000,0.194856,0.194856,0.193144,0.193144,978,999,977,997
9330,0,-0.008816,0.015402,0.019219,-0.00,-0.00,0.003177,0.194000,-0.000309,-0.000846,0.000000,0.000000,0.000000,0.000000,-0.000925,0.000000,-0.000000,0.194925,0.194925,0.193075,0.193075,978,999,977,997
9340,0,-0.010630,0.014285,0.020611,-0.01,-0.00,0.003170,0.194000,-0.000246,-0.000809,0.000000,0.000000,0.000000,0.000000,-0.000967,0.000000,-0.000000,0.194967,0.194967,0.193033,0.193033,978,999,977,997
9350,0,-0.012519,0.013392,0.022161,-0.01,-0.00,0.003141,0.194000,-0.000179,-0.000769,0.000000,0.000000,0.000000,0.000000,-0.001008,0.000000,-0.000000,0.195008,0.195008,0.192992,0.192992,978,999,977,997
9360,0,-0.014466,0.012459,0.024274,-0.01,-0.00,0.002976,0.194000,-0.000106,-0.000730,0.000000,0.000000,0.000000,0.000000,-0.001048,0.000000,-0.000000,0.195048,0.195048,0.192952,0.192952,978,999,977,997
9370,0,-0.016241,0.011712,0.026401,-0.01,-0.00,0.002780,0.193000,-0.000035,-0.000702,0.000000,0.000000,0.000000,0.000000,-0.001077,0.000000,-0.000000,0.194077,0.194077,0.191923,0.191923,978,998,976,996
9380,0,-0.017662,0.011333,0.028538,-0.01,-0.00,0.002525,0.193000,0.000036,-0.000690,0.000000,0.000000,0.000000,0.000000,-0.001084,0.000000,-0.000000,0.194084,0.194084,0.191916,0.191916,978,998,976,996
9390,0,-0.018798,0.011030,0.030248,-0.01,-0.00,0.002320,0.193000,0.000102,-0.000678,0.000000,0.000000,0.000000,0.000000,-0.001079,0.000000,-0.000000,0.194079,0.194079,0.191921,0.191921,978,998,976,996
9400,0,-0.019707,0.011006,0.032052,-0.01,-0.00,0.002009,0.193000,0.000165,-0.000674,0.000000,0.000000,0.000000,0.000000,-0.001064,0.000000,-0.000000,0.194064,0.194064,0.191936,0.191936,978,998,976,996
9410,0,-0.020216,0.011204,0.033932,-0.01,-0.00,0.001679,0.193000,0.000221,-0.000676,0.000000,0.000000,0.000000,0.000000,-0.001030,0.000000,-0.000000,0.194030,0.194030,0.191970,0.191970,978,998,976,996
9420,0,-0.020406,0.011582,0.035872,-0.00,-0.00,0.001402,0.194000,0.000270,-0.000689,0.000000,0.000000,0.000000,0.000000,-0.000985,0.000000,-0.000000,0.194985,0.194985,0.193015,0.193015,978,999,977,997
9430,0,-0.020339,0.012538,0.038297,-0.00,-0.00,0.001095,0.194000,0.000313,-0.000718,0.000000,0.000000,0.000000,0.000000,-0.000930,0.000000,-0.000000,0.194930,0.194930,0.193070,0.193070,978,999,977,997
9440,0,-0.019849,0.013739,0.040673,-0.00,-0.00,0.000774,0.193000,0.000347,-0.000754,0.000000,0.000000,0.000000,0.000000,-0.000859,0.000000,-0.000000,0.193859,0.193859,0.192141,0.192141,977,998,976,997
9450,0,-0.019457,0.014700,0.042574,-0.00,-0.00,0.000438,0.193000,0.000378,-0.000790,0.000000,0.000000,0.000000,0.000000,-0.000798,0.000000,-0.000000,0.193798,0.193798,0.192202,0.192202,977,998,976,997
9460,0,-0.018489,0.016342,0.044968,-0.00,-0.00,0.000073,0.193000,0.000400,-0.000849,0.000000,0.000000,0.000000,0.000000,-0.000711,-0.000000,-0.000000,0.193711,0.193711,0.192289,0.192289,977,998,976,997
9470,0,-0.017715,0.017655,0.046883,-0.00,-0.00,-0.000193,0.193000,0.000416,-0.000902,0.000000,0.000000,0.000000,0.000000,-0.000642,-0.000000,0.000000,0.193642,0.193642,0.192358,0.192358,977,998,976,997
9480,0,-0.016877,0.019360,0.048851,-0.00,0.00,-0.000397,0.193000,0.000427,-0.000961,0.000000,0.000000,0.000000,0.000000,-0.000575,-0.000000,0.000000,0.193575,0.193575,0.192425,0.192425,977,998,976,997
9490,0,-0.015989,0.021160,0.050862,-0.00,0.00,-0.000600,0.193000,0.000434,-0.001023,0.000000,0.000000,0.000000,0.000000,-0.000510,-0.000000,0.000000,0.193510,0.193510,0.192490,0.192490,977,998,976,997
9503,0,-0.014624,0.023473,0.053125,-0.00,0.00,-0.000751,0.193000,0.000419,-0.001115,0.000000,0.000000,0.000000,0.000000,-0.000441,-0.000000,0.000000,0.193441,0.193441,0.192559,0.192559,977,998,976,997
9519,0,-0.013313,0.025542,0.055372,-0.00,0.00,-0.000860,0.193000,0.000390,-0.001204,0.000000,0.000000,0.000000,0.000000,-0.000392,-0.000000,0.000000,0.193392,0.193392,0.192608,0.192608,977,998,976,997
9530,0,-0.012047,0.027415,0.057605,-0.00,0.00,-0.000811,0.193000,0.000373,-0.001272,0.000000,0.000000,0.000000,0.000000,-0.000331,-0.000000,0.000000,0.193331,0.193331,0.192669,0.192669,977,997,976,997
9541,0,-0.011034,0.029131,0.060265,-0.00,0.00,-0.000640,0.193000,0.000353,-0.001334,0.000000,0.000000,0.000000,0.000000,-0.000289,-0.000000,0.000000,0.193289,0.193289,0.192711,0.192711,977,997,977,997
9551,0,-0.010223,0.030504,0.062393,-0.00,0.00,-0.000426,0.193000,0.000334,-0.001379,0.000000,0.000000,0.000000,0.000000,-0.000260,-0.000000,0.000000,0.193260,0.193260,0.192740,0.192740,977,997,977,997
9561,0,-0.010011,0.031603,0.064968,-0.00,0.00,-0.000121,0.193000,0.000321,-0.001415,0.000000,0.000000,0.000000,0.000000,-0.000262,-0.000000,0.000000,0.193262,0.193262,0.192738,0.192738,977,997,977,997
9571,0,-0.010278,0.032264,0.067246,-0.00,0.00,0.000154,0.193000,0.000318,-0.001446,0.000000,0.000000,0.000000,0.000000,-0.000283,-0.000000,-0.000000,0.193283,0.193283,0.192717,0.192717,977,997,977,997
9581,0,-0.010709,0.033010,0.069505,-0.00,0.00,0.000362,0.193000,0.000317,-0.001486,0.000000,0.000000,0.000000,0.000000,-0.000312,-0.000000,-0.000000,0.193312,0.193312,0.192688,0.192688,977,997,976,997
9591,0,-0.011273,0.033608,0.071748,-0.00,0.00,0.000530,0.193000,0.000319,-0.001516,0.000000,0.000000,0.000000,0.000000,-0.000344,-0.000000,-0.000000,0.193344,0.193344,0.192656,0.192656,977,998,976,997
9601,0,-0.011723,0.034086,0.073543,-0.00,0.00,0.000816,0.193000,0.000322,-0.001537,0.000000,0.000000,0.000000,0.000000,-0.000370,-0.000000,-0.000000,0.193370,0.193370,0.192630,0.192630,977,998,976,997
9611,0,-0.012957,0.034032,0.075633,-0.00,0.00,0.001249,0.193000,0.000338,-0.001541,0.000000,0.000000,0.000000,0.000000,-0.000430,-0.000000,-0.000000,0.193430,0.193430,0.192570,0.192570,977,998,976,997
9621,0,-0.014598,0.033770,0.077742,-0.00,0.00,0.001754,0.193000,0.000363,-0.001542,0.000000,0.000000,0.000000,0.000000,-0.000505,-0.000000,-0.000000,0.193505,0.193505,0.192495,0.192495,977,998,976,997
9631,0,-0.016783,0.033343,0.079646,-0.00,0.00,0.002268,0.193000,0.000397,-0.001540,0.000000,0.000000,0.000000,0.000000,-0.000605,-0.000000,-0.000000,0.193605,0.193605,0.192395,0.192395,977,998,976,997
9641,0,-0.019404,0.033001,0.081607,-0.00,0.00,0.002745,0.193000,0.000440,-0.001538,0.000000,0.000000,0.000000,0.000000,-0.000722,-0.000000,-0.000000,0.193722,0.193722,0.192278,0.192278,977,998,976,997
9651,0,-0.021501,0.032728,0.083175,-0.00,0.00,0.003130,0.193000,0.000490,-0.001542,0.000000,0.000000,0.000000,0.000000,-0.000797,-0.000000,-0.000000,0.193797,0.193797,0.192203,0.192203,977,998,976,997
9661,0,-0.024706,0.032291,0.085302,-0.00,0.00,0.003523,0.193000,0.000559,-0.001538,0.000000,0.000000,0.000000,0.000000,-0.000920,-0.000000,-0.000000,0.193920,0.193920,0.192080,0.192080,977,998,976,996
9671,0,-0.027924,0.031941,0.087222,-0.00,0.00,0.003829,0.193000,0.000638,-0.001530,0.000000,0.000000,0.000000,0.000000,-0.001032,-0.000000,-0.000000,0.194032,0.194032,0.191968,0.191968,978,998,976,996
9681,0,-0.031153,0.031444,0.089195,-0.01,0.00,0.003939,0.193000,0.000725,-0.001513,0.000000,0.000000,0.000000,0.000000,-0.001136,-0.000000,-0.000000,0.194136,0.194136,0.191864,0.191864,978,998,976,996
9691,0,-0.033955,0.030609,0.090991,-0.01,0.00,0.003843,0.193000,0.000815,-0.001479,0.000000,0.000000,0.000000,0.000000,-0.001210,-0.000000,-0.000000,0.194210,0.194210,0.191790,0.191790,978,998,976,996
9701,0,-0.036196,0.029941,0.092428,-0.01,0.00,0.003513,0.193000,0.000904,-0.001450,0.000000,0.000000,0.000000,0.000000,-0.001249,-0.000000,-0.000000,0.194249,0.194249,0.191751,0.191751,978,998,976,996
9711,0,-0.037989,0.028535,0.094231,-0.01,0.00,0.003212,0.193000,0.000989,-0.001400,0.000000,0.000000,0.000000,0.000000,-0.001263,-0.000000,-0.000000,0.194263,0.194263,0.191737,0.191737,978,998,976,996
9721,0,-0.039641,0.026755,0.096111,-0.01,0.00,0.002964,0.193000,0.001073,-0.001336,0.000000,0.000000,0.000000,0.000000,-0.001270,-0.000000,-0.000000,0.194270,0.194270,0.191730,0.191730,978,998,976,996
9731,0,-0.040963,0.025331,0.097615,-0.01,-0.00,0.002672,0.193000,0.001158,-0.001277,0.000000,0.000000,0.000000,0.000000,-0.001254,-0.000000,-0.000000,0.194254,0.194254,0.191746,0.191746,978,998,976,996
9741,0,-0.042021,0.023755,0.099036,-0.01,-0.00,0.002347,0.193000,0.001238,-0.001212,0.000000,0.000000,0.000000,0.000000,-0.001228,-0.000000,-0.000000,0.194228,0.194228,0.191772,0.191772,978,998,976,996
9751,0,-0.042431,0.021186,0.100827,-0.01,-0.00,0.001985,0.193000,0.001307,-0.001115,0.000000,0.000000,0.000000,0.000000,-0.001173,0.000000,-0.000000,0.194173,0.194173,0.191827,0.191827,978,998,976,996
9761,0,-0.042758,0.018258,0.102478,-0.01,-0.00,0.001648,0.193000,0.001373,-0.001001,0.000000,0.000000,0.000000,0.000000,-0.001117,0.000000,-0.000000,0.194117,0.194117,0.191883,0.191883,978,998,976,996
9771,0,-0.042802,0.015042,0.104017,-0.00,-0.00,0.001351,0.193000,0.001437,-0.000875,0.000000,0.000000,0.000000,0.000000,-0.001044,0.000000,-0.000000,0.194044,0.194044,0.191956,0.191956,978,998,976,996
9781,0,-0.042620,0.011598,0.105467,-0.00,-0.00,0.001114,0.193000,0.001497,-0.000738,0.000000,0.000000,0.000000,0.000000,-0.000963,0.000000,-0.000000,0.193963,0.193963,0.192037,0.192037,978,998,976,996
9791,0,-0.042255,0.008187,0.106626,-0.00,-0.00,0.000838,0.193000,0.001552,-0.000602,0.000000,0.000000,0.000000,0.000000,-0.000875,0.000000,-0.000000,0.193875,0.193875,0.192125,0.192125,977,998,976,997
9801,0,-0.041745,0.004805,0.107772,-0.00,-0.00,0.000567,0.193000,0.001599,-0.000464,0.000000,0.000000,0.000000,0.000000,-0.000787,0.000000,-0.000000,0.193787,0.193787,0.192213,0.192213,977,998,976,997
9811,0,-0.041119,0.001226,0.108689,-0.00,-0.00,0.000254,0.193000,0.001640,-0.000318,0.000000,0.000000,0.000000,0.000000,-0.000699,0.000000,-0.000000,0.193699,0.193699,0.192301,0.192301,977,998,976,997
9821,0,-0.040182,-0.002292,0.109422,-0.00,-0.00,-0.000049,0.193000,0.001673,-0.000170,0.000000,0.000000,0.000000,0.000000,-0.000600,0.000000,0.000000,0.193600,0.193600,0.192400,0.192400,977,998,976,997
9837,0,-0.039214,-0.005979,0.110009,-0.00,-0.00,-0.000241,0.193000,0.001687,0.000016,0.000000,0.000000,0.000000,0.000000,-0.000523,0.000000,0.000000,0.193523,0.193523,0.192477,0.192477,977,998,976,997
9849,0,-0.038222,-0.009583,0.110260,-0.00,-0.00,-0.000479,0.193000,0.001703,0.000181,0.000000,0.000000,0.000000,0.000000,-0.000440,0.000000,0.000000,0.193440,0.193440,0.192560,0.192560,977,998,976,997
9858,0,-0.036992,-0.013120,0.110461,-0.00,-0.00,-0.000827,0.193000,0.001723,0.000320,0.000000,0.000000,0.000000,0.000000,-0.000338,0.000000,0.000000,0.193338,0.193338,0.192662,0.192662,977,998,976,997
9870,0,-0.035353,-0.016605,0.110404,-0.00,-0.00,-0.001320,0.193000,0.001716,0.000483,0.000000,0.000000,0.000000,0.000000,-0.000242,0.000000,0.000000,0.193242,0.193242,0.192758,0.192758,977,997,977,997
9882,0,-0.032733,-0.020483,0.110139,0.00,-0.00,-0.001716,0.193000,0.001690,0.000653,0.000000,0.000000,0.000000,0.000000,-0.000106,0.000000,0.000000,0.193106,0.193106,0.192894,0.192894,977,997,977,997
9892,0,-0.029982,-0.024241,0.109710,0.00,-0.00,-0.001985,0.193000,0.001672,0.000809,0.000000,0.000000,0.000000,0.000000,0.000049,0.000000,0.000000,0.192951,0.192951,0.193049,0.193049,977,997,977,997
9901,0,-0.027346,-0.027901,0.109148,0.00,-0.00,-0.002267,0.193000,0.001658,0.000959,0.000000,0.000000,0.000000,0.000000,0.000201,0.000000,0.000000,0.192799,0.192799,0.193201,0.193201,977,997,977,997
9911,0,-0.025236,-0.030829,0.108699,0.00,-0.00,-0.002590,0.193000,0.001629,0.001104,0.000000,0.000000,0.000000,0.000000,0.000301,0.000000,0.000000,0.192699,0.192699,0.193301,0.193301,976,997,977,997
9921,0,-0.022894,-0.033826,0.108121,0.00,-0.00,-0.002802,0.193000,0.001591,0.001254,0.000000,0.000000,0.000000,0.000000,0.000406,0.000000,0.000000,0.192594,0.192594,0.193406,0.193406,976,997,977,998
9931,0,-0.020366,-0.036879,0.107223,0.00,-0.00,-0.002910,0.193000,0.001543,0.001403,0.000000,0.000000,0.000000,0.000000,0.000511,0.000000,0.000000,0.192489,0.192489,0.193511,0.193511,976,997,977,998
9942,0,-0.017907,-0.040193,0.106286,0.00,-0.00,-0.002965,0.193000,0.001482,0.001569,0.000000,0.000000,0.000000,0.000000,0.000596,0.000000,0.000000,0.192404,0.192404,0.193596,0.193596,976,997,977,998
9951,0,-0.015504,-0.043499,0.105100,0.00,-0.00,-0.002869,0.193000,0.001437,0.001721,0.000000,0.000000,0.000000,0.000000,0.000696,0.000000,0.000000,0.192304,0.192304,0.193696,0.193696,976,997,977,998
9961,0,-0.013581,-0.047017,0.103715,0.00,-0.00,-0.002781,0.193000,0.001380,0.001885,0.000000,0.000000,0.000000,0.000000,0.000752,0.000000,0.000000,0.192248,0.192248,0.193752,0.193752,976,997,977,998
9972,0,-0.011825,-0.050485,0.102171,0.00,-0.00,-0.002745,0.193000,0.001315,0.002056,0.000000,0.000000,0.000000,0.000000,0.000788,0.000000,0.000000,0.192212,0.192212,0.193788,0.193788,976,997,977,998
9982,0,-0.010202,-0.053914,0.100717,0.00,-0.01,-0.002775,0.193000,0.001255,0.002216,0.000000,0.000000,0.000000,0.000000,0.000821,0.000000,0.000000,0.192179,0.192179,0.193821,0.193821,976,997,977,998
9992,0,-0.008249,-0.057967,0.098681,0.01,-0.01,-0.002698,0.193000,0.001191,0.002395,0.000000,0.000000,0.000000,0.000000,0.000871,0.000000,0.000000,0.192129,0.192129,0.193871,0.193871,976,997,977,998
10002,0,-0.006686,-0.061209,0.097053,0.01,-0.01,-0.002539,0.193000,0.001130,0.002549,0.000000,0.000000,0.000000,0.000000,0.000899,0.000000,0.000000,0.192101,0.192101,0.193899,0.193899,976,996,977,998
10012,0,-0.005000,-0.064893,0.094659,0.01,-0.01,-0.002421,0.193000,0.001066,0.002715,0.000000,0.000000,0.000000,0.000000,0.000931,0.000000,0.000000,0.192069,0.192069,0.193931,0.193931,976,996,978,998
10022,0,-0.003651,-0.067841,0.092744,0.01,-0.01,-0.002278,0.193000,0.001003,0.002861,0.000000,0.000000,0.000000,0.000000,0.000943,0.000000,0.000000,0.192057,0.192057,0.193943,0.193943,976,996,978,998
10032,0,-0.002572,-0.070853,0.090340,0.01,-0.01,-0.002063,0.193000,0.000947,0.003002,0.000000,0.000000,0.000000,0.000000,0.000946,0.000000,0.000000,0.192054,0.192054,0.193946,0.193946,976,996,978,998
10042,0,-0.001708,-0.073699,0.087762,0.01,-0.01,-0.001800,0.193000,0.000893,0.003140,0.000000,0.000000,0.000000,0.000000,0.000938,0.000000,0.000000,0.192062,0.192062,0.193938,0.193938,976,996,978,998
