t,is_crashed,roll,pitch,yaw,throttle,roll_pid_out,pitch_pid_out,yaw_pid_out,motor_fl,motor_bl,motor_fr,motor_br,pwm_fl,pwm_bl,pwm_fr,pwm_br
6879,0,0.02,-0.01,-0.00,0.00,-0.00,0.00,0.00,0.00,0.00,0.00,0.00,819,819,819,819
6887,0,0.02,-0.01,-0.00,0.00,-0.12,0.07,0.00,0.00,0.00,0.00,0.00,819,819,819,819
6893,0,0.02,-0.01,-0.00,0.00,-0.16,0.10,0.00,0.00,0.00,0.00,0.00,819,819,819,819
6901,0,0.02,-0.01,-0.00,0.00,-0.14,0.08,0.00,0.00,0.00,0.00,0.00,819,819,819,819
6908,0,0.02,-0.01,-0.00,0.00,-0.14,0.08,0.00,0.00,0.00,0.00,0.00,819,819,819,819
6914,0,0.02,-0.01,-0.00,0.00,-0.16,0.10,0.00,0.00,0.00,0.00,0.00,819,819,819,819
6922,0,0.02,-0.01,-0.00,0.00,-0.13,0.08,0.00,0.00,0.00,0.00,0.00,819,819,819,819
6929,0,0.02,-0.01,-0.00,0.00,-0.13,0.08,0.00,0.00,0.00,0.00,0.00,819,819,819,819
6942,0,0.02,-0.01,-0.00,0.00,-0.08,0.05,0.00,0.00,0.00,0.00,0.00,819,819,819,819
6950,0,0.02,-0.01,-0.00,0.00,-0.13,0.08,0.00,0.00,0.00,0.00,0.00,819,819,819,819
6957,0,0.02,-0.01,-0.00,0.00,-0.15,0.09,0.00,0.00,0.00,0.00,0.00,819,819,819,819
6963,0,0.02,-0.01,-0.00,0.00,-0.15,0.09,0.00,0.00,0.00,0.00,0.00,819,819,819,819
6971,0,0.02,-0.01,-0.00,0.00,-0.13,0.08,0.00,0.00,0.00,0.00,0.00,819,819,819,819
6978,0,0.02,-0.01,-0.00,0.00,-0.13,0.08,0.00,0.00,0.00,0.00,0.00,819,819,819,819
6984,0,0.02,-0.01,-0.00,0.00,-0.16,0.10,0.00,0.00,0.00,0.00,0.00,819,819,819,819
6992,0,0.02,-0.01,-0.00,0.00,-0.14,0.08,0.00,0.00,0.00,0.00,0.00,819,819,819,819
6999,0,0.02,-0.01,-0.00,0.00,-0.13,0.08,0.00,0.00,0.00,0.00,0.00,819,819,819,819
7005,0,0.02,-0.01,-0.00,0.00,-0.16,0.09,0.00,0.00,0.00,0.00,0.00,819,819,819,819
7012,0,0.02,-0.01,-0.00,0.00,-0.14,0.09,0.00,0.00,0.00,0.00,0.00,819,819,819,819
7020,0,0.02,-0.01,-0.00,0.00,-0.14,0.08,0.00,0.00,0.00,0.00,0.00,819,819,819,819
7026,0,0.02,-0.01,-0.00,0.00,-0.15,0.09,0.00,0.00,0.00,0.00,0.00,819,819,819,819
7033,0,0.02,-0.01,-0.00,0.00,-0.15,0.09,0.00,0.00,0.00,0.00,0.00,819,819,819,819
7039,0,0.02,-0.01,-0.00,0.00,-0.16,0.10,0.00,0.00,0.00,0.00,0.00,819,819,819,819
7046,0,0.02,-0.01,-0.00,0.00,-0.16,0.10,0.00,0.00,0.00,0.00,0.00,819,819,819,819
7053,0,0.02,-0.01,-0.00,0.00,-0.14,0.09,0.00,0.00,0.00,0.00,0.00,819,819,819,819
7060,0,0.02,-0.01,-0.00,0.00,-0.14,0.08,0.00,0.00,0.00,0.00,0.00,819,819,819,819
7066,0,0.02,-0.01,-0.00,0.00,-0.16,0.10,0.00,0.00,0.00,0.00,0.00,819,819,819,819
7073,0,0.02,-0.01,-0.00,0.00,-0.15,0.09,0.00,0.00,0.00,0.00,0.00,819,819,819,819
7080,0,0.02,-0.01,-0.00,0.00,-0.13,0.08,0.00,0.00,0.00,0.00,0.00,819,819,819,819
7087,0,0.02,-0.01,-0.00,0.00,-0.16,0.10,0.00,0.00,0.00,0.00,0.00,819,819,819,819
7093,0,0.02,-0.01,-0.00,0.00,-0.16,0.10,0.00,0.00,0.00,0.00,0.00,819,819,819,819
7100,0,0.02,-0.01,-0.00,0.00,-0.13,0.08,0.00,0.00,0.00,0.00,0.00,819,819,819,819
7108,0,0.02,-0.01,-0.00,0.00,-0.14,0.09,0.00,0.00,0.00,0.00,0.00,819,819,819,819
7114,0,0.02,-0.01,-0.00,0.00,-0.16,0.10,0.00,0.00,0.00,0.00,0.00,819,819,819,819
7121,0,0.02,-0.01,-0.00,0.00,-0.14,0.08,0.00,0.00,0.00,0.00,0.00,819,819,819,819
7129,0,0.02,-0.01,-0.00,0.00,-0.13,0.08,0.00,0.00,0.00,0.00,0.00,819,819,819,819
7135,0,0.02,-0.01,-0.00,0.00,-0.15,0.09,0.00,0.00,0.00,0.00,0.00,819,819,819,819
7143,0,0.02,-0.01,-0.00,0.00,-0.13,0.08,0.00,0.00,0.00,0.00,0.00,819,819,819,819
7150,0,0.02,-0.01,-0.00,0.00,-0.14,0.08,0.00,0.00,0.00,0.00,0.00,819,819,819,819
7163,0,0.02,-0.01,-0.00,0.00,-0.08,0.05,0.00,0.00,0.00,0.00,0.00,819,819,819,819
7170,0,0.02,-0.01,-0.00,0.00,-0.13,0.08,0.00,0.00,0.00,0.00,0.00,819,819,819,819
7177,0,0.02,-0.01,-0.00,0.00,-0.16,0.10,0.00,0.00,0.00,0.00,0.00,819,819,819,819
7183,0,0.02,-0.01,-0.00,0.00,-0.15,0.09,0.00,0.00,0.00,0.00,0.00,819,819,819,819
7189,0,0.02,-0.01,-0.00,0.00,-0.17,0.10,0.00,0.00,0.00,0.00,0.00,819,819,819,819
7196,0,0.02,-0.01,-0.00,0.00,-0.16,0.10,0.00,0.00,0.00,0.00,0.00,819,819,819,819
7203,0,0.02,-0.01,-0.00,0.00,-0.14,0.09,0.00,0.00,0.00,0.00,0.00,819,819,819,819
7210,0,0.02,-0.01,-0.00,0.00,-0.14,0.08,0.00,0.00,0.00,0.00,0.00,819,819,819,819
7216,0,0.02,-0.01,-0.00,0.00,-0.17,0.10,0.00,0.00,0.00,0.00,0.00,819,819,819,819
7223,0,0.02,-0.01,-0.00,0.00,-0.14,0.09,0.00,0.00,0.00,0.00,0.00,819,819,819,819
7230,0,0.02,-0.01,-0.00,0.00,-0.13,0.08,0.00,0.00,0.00,0.00,0.00,819,819,819,819
7237,0,0.02,-0.01,-0.00,0.00,-0.16,0.10,0.00,0.00,0.00,0.00,0.00,819,819,819,819
7243,0,0.02,-0.01,-0.00,0.00,-0.15,0.09,0.00,0.00,0.00,0.00,0.00,819,819,819,819
7250,0,0.02,-0.01,-0.00,0.00,-0.14,0.09,0.00,0.00,0.00,0.00,0.00,819,819,819,819
7256,0,0.02,-0.01,-0.00,0.00,-0.16,0.10,0.00,0.00,0.00,0.00,0.00,819,819,819,819
7263,0,0.02,-0.01,-0.00,0.00,-0.15,0.09,0.00,0.00,0.00,0.00,0.00,819,819,819,819
7270,0,0.02,-0.01,-0.00,0.00,-0.14,0.08,0.00,0.00,0.00,0.00,0.00,819,819,819,819
7277,0,0.02,-0.01,-0.00,0.00,-0.15,0.09,0.00,0.00,0.00,0.00,0.00,819,819,819,819
7284,0,0.02,-0.01,-0.00,0.00,-0.14,0.09,0.00,0.00,0.00,0.00,0.00,819,819,819,819
7290,0,0.02,-0.01,-0.00,0.00,-0.16,0.10,0.00,0.00,0.00,0.00,0.00,819,819,819,819
7296,0,0.02,-0.01,-0.00,0.00,-0.15,0.09,0.00,0.00,0.00,0.00,0.00,819,819,819,819
7303,0,0.02,-0.01,-0.00,0.00,-0.14,0.09,0.00,0.00,0.00,0.00,0.00,819,819,819,819
7311,0,0.02,-0.01,-0.00,0.00,-0.14,0.08,0.00,0.00,0.00,0.00,0.00,819,819,819,819
7317,0,0.02,-0.01,-0.00,0.00,-0.16,0.10,0.00,0.00,0.00,0.00,0.00,819,819,819,819
7324,0,0.02,-0.01,-0.00,0.00,-0.15,0.09,0.00,0.00,0.00,0.00,0.00,819,819,819,819
7331,0,0.02,-0.01,-0.00,0.00,-0.13,0.08,0.00,0.00,0.00,0.00,0.00,819,819,819,819
7337,0,0.02,-0.01,-0.00,0.00,-0.16,0.10,0.00,0.00,0.00,0.00,0.00,819,819,819,819
7344,0,0.02,-0.01,-0.00,0.00,-0.16,0.10,0.00,0.00,0.00,0.00,0.00,819,819,819,819
7351,0,0.02,-0.01,-0.00,0.00,-0.13,0.08,0.00,0.00,0.00,0.00,0.00,819,819,819,819
7358,0,0.02,-0.01,-0.00,0.00,-0.14,0.09,0.00,0.00,0.00,0.00,0.00,819,819,819,819
7365,0,0.02,-0.01,-0.00,0.00,-0.16,0.10,0.00,0.00,0.00,0.00,0.00,819,819,819,819
7377,0,0.02,-0.01,-0.00,0.00,-0.08,0.05,0.00,0.00,0.00,0.00,0.00,819,819,819,819
7384,0,0.02,-0.01,-0.00,0.00,-0.14,0.08,0.00,0.00,0.00,0.00,0.00,819,819,819,819
7390,0,0.02,-0.01,-0.00,0.00,-0.16,0.09,0.00,0.00,0.00,0.00,0.00,819,819,819,819
7397,0,0.02,-0.01,-0.00,0.00,-0.16,0.10,0.00,0.00,0.00,0.00,0.00,819,819,819,819
7403,0,0.02,-0.01,-0.00,0.00,-0.15,0.09,0.00,0.00,0.00,0.00,0.00,819,819,819,819
7411,0,0.02,-0.01,-0.00,0.00,-0.13,0.08,0.00,0.00,0.00,0.00,0.00,819,819,819,819
7417,0,0.02,-0.01,-0.00,0.00,-0.16,0.10,0.00,0.00,0.00,0.00,0.00,819,819,819,819
7424,0,0.02,-0.01,-0.00,0.00,-0.15,0.09,0.00,0.00,0.00,0.00,0.00,819,819,819,819
7431,0,0.02,-0.01,-0.00,0.00,-0.14,0.08,0.00,0.00,0.00,0.00,0.00,819,819,819,819
7438,0,0.02,-0.01,-0.00,0.00,-0.15,0.09,0.00,0.00,0.00,0.00,0.00,819,819,819,819
7444,0,0.02,-0.01,-0.00,0.00,-0.15,0.09,0.00,0.00,0.00,0.00,0.00,819,819,819,819
7451,0,0.02,-0.01,-0.00,0.00,-0.14,0.08,0.00,0.00,0.00,0.00,0.00,819,819,819,819
7458,0,0.02,-0.01,-0.00,0.00,-0.15,0.09,0.00,0.00,0.00,0.00,0.00,819,819,819,819
7465,0,0.02,-0.01,-0.00,0.00,-0.15,0.09,0.00,0.00,0.00,0.00,0.00,819,819,819,819
7472,0,0.02,-0.01,-0.00,0.00,-0.13,0.08,0.00,0.00,0.00,0.00,0.00,819,819,819,819
7479,0,0.02,-0.01,-0.00,0.00,-0.14,0.08,0.00,0.00,0.00,0.00,0.00,819,819,819,819
7486,0,0.02,-0.01,-0.00,0.00,-0.16,0.10,0.00,0.00,0.00,0.00,0.00,819,819,819,819
7493,0,0.02,-0.01,-0.00,0.00,-0.13,0.08,0.00,0.00,0.00,0.00,0.00,819,819,819,819
7500,0,0.02,-0.01,-0.00,0.00,-0.13,0.08,0.00,0.00,0.00,0.00,0.00,819,819,819,819
7507,0,0.02,-0.01,-0.00,0.00,-0.16,0.10,0.00,0.00,0.00,0.00,0.00,819,819,819,819
7514,0,0.02,-0.01,-0.00,0.00,-0.14,0.09,0.00,0.00,0.00,0.00,0.00,819,819,819,819
7521,0,0.02,-0.01,-0.00,0.00,-0.13,0.08,0.00,0.00,0.00,0.00,0.00,819,819,819,819
7528,0,0.02,-0.01,-0.00,0.00,-0.16,0.10,0.00,0.00,0.00,0.00,0.00,819,819,819,819
7534,0,0.02,-0.01,-0.00,0.00,-0.15,0.09,0.00,0.00,0.00,0.00,0.00,819,819,819,819
7540,0,0.02,-0.01,-0.00,0.00,-0.16,0.10,0.00,0.00,0.00,0.00,0.00,819,819,819,819
7547,0,0.02,-0.01,-0.00,0.00,-0.16,0.10,0.00,0.00,0.00,0.00,0.00,819,819,819,819
7554,0,0.02,-0.01,-0.00,0.00,-0.14,0.09,0.00,0.00,0.00,0.00,0.00,819,819,819,819
7561,0,0.02,-0.01,-0.00,0.00,-0.14,0.08,0.00,0.00,0.00,0.00,0.00,819,819,819,819
7567,0,0.02,-0.01,-0.00,0.00,-0.16,0.10,0.00,0.00,0.00,0.00,0.00,819,819,819,819
7574,0,0.02,-0.01,-0.00,0.00,-0.14,0.09,0.00,0.00,0.00,0.00,0.00,819,819,819,819
7581,0,0.02,-0.01,-0.00,0.00,-0.14,0.09,0.00,0.00,0.00,0.00,0.00,819,819,819,819
7593,0,0.02,-0.01,-0.00,0.00,-0.09,0.05,0.00,0.00,0.00,0.00,0.00,819,819,819,819
7601,0,0.02,-0.01,-0.00,0.00,-0.12,0.07,0.00,0.00,0.00,0.00,0.00,819,819,819,819
7608,0,0.02,-0.01,-0.00,0.00,-0.16,0.10,0.00,0.00,0.00,0.00,0.00,819,819,819,819
7614,0,0.02,-0.01,-0.00,0.00,-0.15,0.09,0.00,0.00,0.00,0.00,0.00,819,819,819,819
7621,0,0.02,-0.01,-0.00,0.00,-0.14,0.09,0.00,0.00,0.00,0.00,0.00,819,819,819,819
7628,0,0.02,-0.01,-0.00,0.00,-0.16,0.09,0.00,0.00,0.00,0.00,0.00,819,819,819,819
7635,0,0.02,-0.01,-0.00,0.00,-0.15,0.09,0.00,0.00,0.00,0.00,0.00,819,819,819,819
7641,0,0.02,-0.01,-0.00,0.00,-0.15,0.09,0.00,0.00,0.00,0.00,0.00,819,819,819,819
7647,0,0.02,-0.01,-0.00,0.00,-0.16,0.10,0.00,0.00,0.00,0.00,0.00,819,819,819,819
7654,0,0.02,-0.01,-0.00,0.00,-0.15,0.09,0.00,0.00,0.00,0.00,0.00,819,819,819,819
7662,0,0.02,-0.01,-0.00,0.00,-0.13,0.08,0.00,0.00,0.00,0.00,0.00,819,819,819,819
7668,0,0.02,-0.01,-0.00,0.00,-0.15,0.09,0.00,0.00,0.00,0.00,0.00,819,819,819,819
7675,0,0.02,-0.01,-0.00,0.00,-0.16,0.10,0.00,0.00,0.00,0.00,0.00,819,819,819,819
7682,0,0.02,-0.01,-0.00,0.00,-0.14,0.08,0.00,0.00,0.00,0.00,0.00,819,819,819,819
7688,0,0.02,-0.01,-0.00,0.00,-0.15,0.09,0.00,0.00,0.00,0.00,0.00,819,819,819,819
7695,0,0.02,-0.01,-0.00,0.00,-0.16,0.10,0.00,0.00,0.00,0.00,0.00,819,819,819,819
7702,0,0.02,-0.01,-0.00,0.00,-0.14,0.08,0.00,0.00,0.00,0.00,0.00,819,819,819,819
7709,0,0.02,-0.01,-0.00,0.00,-0.14,0.09,0.00,0.00,0.00,0.00,0.00,819,819,819,819
7716,0,0.02,-0.01,-0.00,0.00,-0.15,0.09,0.00,0.00,0.00,0.00,0.00,819,819,819,819
7723,0,0.02,-0.01,-0.00,0.00,-0.14,0.08,0.00,0.00,0.00,0.00,0.00,819,819,819,819
7730,0,0.02,-0.01,-0.00,0.00,-0.14,0.08,0.00,0.00,0.00,0.00,0.00,819,819,819,819
7770,0,0.02,-0.01,-0.00,0.00,-0.03,0.02,0.00,0.00,0.00,0.00,0.00,819,819,819,819
8015,0,0.02,-0.01,-0.00,0.00,-0.00,0.00,0.00,0.00,0.00,0.00,0.00,819,819,819,819
8258,0,0.02,-0.01,-0.00,0.00,-0.00,0.00,0.00,0.00,0.00,0.00,0.00,819,819,819,819
8495,0,0.02,-0.01,-0.00,0.00,-0.00,0.00,0.00,0.00,0.00,0.00,0.00,819,819,819,819
8736,0,0.02,-0.01,-0.00,0.00,-0.00,0.00,0.00,0.00,0.00,0.00,0.00,819,819,819,819
8981,0,0.02,-0.01,-0.00,0.00,-0.00,0.00,0.00,0.00,0.00,0.00,0.00,819,819,819,819
9005,0,0.02,-0.01,-0.00,0.00,-0.04,0.03,0.00,0.00,0.00,0.00,0.00,819,819,819,819
9011,0,0.02,-0.01,-0.00,0.00,-0.15,0.09,0.00,0.00,0.00,0.00,0.00,819,819,819,819
9018,0,0.02,-0.01,-0.00,0.00,-0.15,0.09,0.00,0.00,0.00,0.00,0.00,819,819,819,819
9025,0,0.02,-0.01,-0.00,0.00,-0.13,0.08,0.00,0.00,0.00,0.00,0.00,819,819,819,819
9032,0,0.02,-0.01,-0.00,0.00,-0.15,0.09,0.00,0.00,0.00,0.00,0.00,819,819,819,819
9038,0,0.02,-0.01,-0.00,0.00,-0.16,0.10,0.00,0.00,0.00,0.00,0.00,819,819,819,819
9045,0,0.02,-0.01,-0.00,0.00,-0.15,0.09,0.00,0.00,0.00,0.00,0.00,819,819,819,819
9052,0,0.02,-0.01,-0.00,0.00,-0.15,0.09,0.00,0.00,0.00,0.00,0.00,819,819,819,819
9058,0,0.02,-0.01,-0.00,0.00,-0.16,0.10,0.00,0.00,0.00,0.00,0.00,819,819,819,819
9065,0,0.02,-0.01,-0.00,0.00,-0.14,0.08,0.00,0.00,0.00,0.00,0.00,819,819,819,819
9072,0,0.02,-0.01,-0.00,0.00,-0.15,0.09,0.00,0.00,0.00,0.00,0.00,819,819,819,819
9079,0,0.02,-0.01,-0.00,0.00,-0.15,0.09,0.00,0.00,0.00,0.00,0.00,819,819,819,819
9086,0,0.02,-0.01,-0.00,0.00,-0.13,0.08,0.00,0.00,0.00,0.00,0.00,819,819,819,819
9092,0,0.02,-0.01,-0.00,0.00,-0.16,0.10,0.00,0.00,0.00,0.00,0.00,819,819,819,819
9098,0,0.02,-0.01,-0.00,0.00,-0.17,0.10,0.00,0.00,0.00,0.00,0.00,819,819,819,819
9106,0,0.02,-0.01,-0.00,0.00,-0.14,0.08,0.00,0.00,0.00,0.00,0.00,819,819,819,819
9112,0,0.02,-0.01,-0.00,0.00,-0.17,0.10,0.00,0.00,0.00,0.00,0.00,819,819,819,819
9118,0,0.02,-0.01,-0.00,0.00,-0.15,0.09,0.00,0.00,0.00,0.00,0.00,819,819,819,819
9125,0,0.02,-0.01,-0.00,0.00,-0.14,0.09,0.00,0.00,0.00,0.00,0.00,819,819,819,819
9131,0,0.02,-0.01,-0.00,0.00,-0.16,0.10,0.00,0.00,0.00,0.00,0.00,819,819,819,819
9138,0,0.02,-0.01,-0.00,0.00,-0.15,0.09,0.00,0.00,0.00,0.00,0.00,819,819,819,819
9145,0,0.02,-0.01,-0.00,0.00,-0.15,0.09,0.00,0.00,0.00,0.00,0.00,819,819,819,819
9151,0,0.02,-0.01,-0.00,0.00,-0.16,0.10,0.00,0.00,0.00,0.00,0.00,819,819,819,819
9158,0,0.02,-0.01,-0.00,0.00,-0.15,0.09,0.00,0.00,0.00,0.00,0.00,819,819,819,819
9165,0,0.02,-0.01,-0.00,0.00,-0.14,0.09,0.00,0.00,0.00,0.00,0.00,819,819,819,819
9171,0,0.02,-0.01,-0.00,0.00,-0.16,0.10,0.00,0.00,0.00,0.00,0.00,819,819,819,819
9178,0,0.02,-0.01,-0.00,0.00,-0.14,0.09,0.00,0.00,0.00,0.00,0.00,819,819,819,819
9185,0,0.02,-0.01,-0.00,0.00,-0.14,0.09,0.00,0.00,0.00,0.00,0.00,819,819,819,819
9191,0,0.02,-0.01,-0.00,0.00,-0.16,0.10,0.00,0.00,0.00,0.00,0.00,819,819,819,819
9198,0,0.02,-0.01,-0.00,0.00,-0.15,0.09,0.00,0.00,0.00,0.00,0.00,819,819,819,819
9206,0,0.02,-0.01,-0.00,0.00,-0.13,0.08,0.00,0.00,0.00,0.00,0.00,819,819,819,819
9218,0,0.02,-0.01,-0.00,0.00,-0.08,0.05,0.00,0.00,0.00,0.00,0.00,819,819,819,819
9226,0,0.02,-0.01,-0.00,0.00,-0.13,0.08,0.00,0.00,0.00,0.00,0.00,819,819,819,819
9232,0,0.02,-0.01,-0.00,0.00,-0.15,0.09,0.00,0.00,0.00,0.00,0.00,819,819,819,819
9239,0,0.02,-0.01,-0.00,0.00,-0.15,0.09,0.00,0.00,0.00,0.00,0.00,819,819,819,819
9245,0,0.02,-0.01,-0.00,0.00,-0.15,0.09,0.00,0.00,0.00,0.00,0.00,819,819,819,819
9252,0,0.02,-0.01,-0.00,0.00,-0.16,0.10,0.00,0.00,0.00,0.00,0.00,819,819,819,819
9258,0,0.02,-0.01,-0.00,0.00,-0.15,0.09,0.00,0.00,0.00,0.00,0.00,819,819,819,819
9266,0,0.02,-0.01,-0.00,0.00,-0.13,0.08,0.00,0.00,0.00,0.00,0.00,819,819,819,819
9272,0,0.02,-0.01,-0.00,0.00,-0.15,0.09,0.00,0.00,0.00,0.00,0.00,819,819,819,819
9279,0,0.02,-0.01,-0.00,0.00,-0.16,0.10,0.00,0.00,0.00,0.00,0.00,819,819,819,819
9286,0,0.02,-0.01,-0.00,0.00,-0.14,0.08,0.00,0.00,0.00,0.00,0.00,819,819,819,819
9293,0,0.02,-0.01,-0.00,0.00,-0.15,0.09,0.00,0.00,0.00,0.00,0.00,819,819,819,819
9299,0,0.02,-0.01,-0.00,0.00,-0.16,0.10,0.00,0.00,0.00,0.00,0.00,819,819,819,819
9306,0,0.02,-0.01,-0.00,0.00,-0.14,0.08,0.00,0.00,0.00,0.00,0.00,819,819,819,819
9313,0,0.02,-0.01,-0.00,0.00,-0.14,0.09,0.00,0.00,0.00,0.00,0.00,819,819,819,819
9320,0,0.02,-0.01,-0.00,0.00,-0.15,0.09,0.00,0.00,0.00,0.00,0.00,819,819,819,819
9327,0,0.02,-0.01,-0.00,0.00,-0.14,0.08,0.00,0.00,0.00,0.00,0.00,819,819,819,819
9334,0,0.02,-0.01,-0.00,0.00,-0.14,0.08,0.00,0.00,0.00,0.00,0.00,819,819,819,819
9341,0,0.02,-0.01,-0.00,0.00,-0.16,0.10,0.00,0.00,0.00,0.00,0.00,819,819,819,819
9348,0,0.02,-0.01,-0.00,0.00,-0.13,0.08,0.00,0.00,0.00,0.00,0.00,819,819,819,819
9355,0,0.02,-0.01,-0.00,0.00,-0.14,0.08,0.00,0.00,0.00,0.00,0.00,819,819,819,819
9362,0,0.02,-0.01,-0.00,0.00,-0.16,0.10,0.00,0.00,0.00,0.00,0.00,819,819,819,819
9369,0,0.02,-0.01,-0.00,0.00,-0.14,0.09,0.00,0.00,0.00,0.00,0.00,819,819,819,819
9376,0,0.02,-0.01,-0.00,0.00,-0.13,0.08,0.00,0.00,0.00,0.00,0.00,819,819,819,819
9383,0,0.02,-0.01,-0.00,0.00,-0.15,0.09,0.00,0.00,0.00,0.00,0.00,819,819,819,819
9389,0,0.02,-0.01,-0.00,0.00,-0.16,0.10,0.00,0.00,0.00,0.00,0.00,819,819,819,819
9395,0,0.02,-0.01,-0.00,0.00,-0.16,0.10,0.00,0.00,0.00,0.00,0.00,819,819,819,819
9402,0,0.02,-0.01,-0.00,0.00,-0.15,0.09,0.00,0.00,0.00,0.00,0.00,819,819,819,819
9409,0,0.02,-0.01,-0.00,0.00,-0.15,0.09,0.00,0.00,0.00,0.00,0.00,819,819,819,819
9416,0,0.02,-0.01,-0.00,0.00,-0.14,0.08,0.00,0.00,0.00,0.00,0.00,819,819,819,819
9422,0,0.02,-0.01,-0.00,0.00,-0.16,0.10,0.00,0.00,0.00,0.00,0.00,819,819,819,819
9431,0,0.02,-0.01,-0.00,0.00,-0.11,0.07,0.00,0.00,0.00,0.00,0.00,819,819,819,819
9439,0,0.02,-0.01,-0.00,0.00,-0.14,0.08,0.00,0.00,0.00,0.00,0.00,819,819,819,819
9445,0,0.02,-0.01,-0.00,0.00,-0.16,0.10,0.00,0.00,0.00,0.00,0.00,819,819,819,819
9451,0,0.02,-0.01,-0.00,0.00,-0.16,0.10,0.00,0.00,0.00,0.00,0.00,819,819,819,819
9458,0,0.02,-0.01,-0.00,0.00,-0.14,0.08,0.00,0.00,0.00,0.00,0.00,819,819,819,819
9466,0,0.02,-0.01,-0.00,0.00,-0.14,0.08,0.00,0.00,0.00,0.00,0.00,819,819,819,819
9472,0,0.02,-0.01,-0.00,0.00,-0.16,0.10,0.00,0.00,0.00,0.00,0.00,819,819,819,819
9479,0,0.02,-0.01,-0.00,0.00,-0.15,0.09,0.00,0.00,0.00,0.00,0.00,819,819,819,819
9486,0,0.02,-0.01,-0.00,0.00,-0.14,0.08,0.00,0.00,0.00,0.00,0.00,819,819,819,819
9496,0,0.02,-0.01,-0.00,0.00,-0.10,0.06,0.00,0.00,0.00,0.00,0.00,819,819,819,819
9502,0,0.02,-0.01,-0.00,0.00,-0.16,0.10,0.00,0.00,0.00,0.00,0.00,819,819,819,819
9509,0,0.02,-0.01,-0.00,0.00,-0.14,0.09,0.00,0.00,0.00,0.00,0.00,819,819,819,819
9516,0,0.02,-0.01,-0.00,0.00,-0.14,0.09,0.00,0.00,0.00,0.00,0.00,819,819,819,819
9522,0,0.02,-0.01,-0.00,0.00,-0.16,0.10,0.00,0.00,0.00,0.00,0.00,819,819,819,819
9529,0,0.02,-0.01,-0.00,0.00,-0.14,0.09,0.00,0.00,0.00,0.00,0.00,819,819,819,819
9536,0,0.02,-0.01,-0.00,0.00,-0.14,0.09,0.00,0.00,0.00,0.00,0.00,819,819,819,819
9542,0,0.02,-0.01,-0.00,0.00,-0.16,0.10,0.00,0.00,0.00,0.00,0.00,819,819,819,819
9549,0,0.02,-0.01,-0.00,0.00,-0.14,0.09,0.00,0.00,0.00,0.00,0.00,819,819,819,819
9557,0,0.02,-0.01,-0.00,0.00,-0.13,0.08,0.00,0.00,0.00,0.00,0.00,819,819,819,819
9563,0,0.02,-0.01,-0.00,0.00,-0.15,0.09,0.00,0.00,0.00,0.00,0.00,819,819,819,819
9570,0,0.02,-0.01,-0.00,0.00,-0.16,0.10,0.00,0.00,0.00,0.00,0.00,819,819,819,819
9577,0,0.02,-0.01,-0.00,0.00,-0.14,0.08,0.00,0.00,0.00,0.00,0.00,819,819,819,819
9585,0,0.02,-0.01,-0.00,0.00,-0.13,0.08,0.00,0.00,0.00,0.00,0.00,819,819,819,819
9591,0,0.02,-0.01,-0.00,0.00,-0.15,0.09,0.00,0.00,0.00,0.00,0.00,819,819,819,819
9598,0,0.02,-0.01,-0.00,0.00,-0.14,0.08,0.00,0.00,0.00,0.00,0.00,819,819,819,819
9606,0,0.02,-0.01,-0.00,0.00,-0.14,0.08,0.00,0.00,0.00,0.00,0.00,819,819,819,819
9612,0,0.02,-0.01,-0.00,0.00,-0.16,0.10,0.00,0.00,0.00,0.00,0.00,819,819,819,819
9619,0,0.02,-0.01,-0.00,0.00,-0.14,0.09,0.00,0.00,0.00,0.00,0.00,819,819,819,819
9626,0,0.02,-0.01,-0.00,0.00,-0.14,0.08,0.00,0.00,0.00,0.00,0.00,819,819,819,819
9633,0,0.02,-0.01,-0.00,0.00,-0.16,0.10,0.00,0.00,0.00,0.00,0.00,819,819,819,819
9641,0,0.02,-0.01,-0.00,0.00,-0.12,0.07,0.00,0.00,0.00,0.00,0.00,819,819,819,819
9649,0,0.02,-0.01,-0.00,0.00,-0.13,0.08,0.00,0.00,0.00,0.00,0.00,819,819,819,819
9656,0,0.02,-0.01,-0.00,0.00,-0.14,0.08,0.00,0.00,0.00,0.00,0.00,819,819,819,819
9662,0,0.02,-0.01,-0.00,0.00,-0.16,0.10,0.00,0.00,0.00,0.00,0.00,819,819,819,819
9669,0,0.02,-0.01,-0.00,0.00,-0.14,0.09,0.00,0.00,0.00,0.00,0.00,819,819,819,819
9677,0,0.02,-0.01,-0.00,0.00,-0.13,0.08,0.00,0.00,0.00,0.00,0.00,819,819,819,819
9683,0,0.02,-0.01,-0.00,0.00,-0.15,0.09,0.00,0.00,0.00,0.00,0.00,819,819,819,819
9690,0,0.02,-0.01,-0.00,0.00,-0.15,0.09,0.00,0.00,0.00,0.00,0.00,819,819,819,819
9696,0,0.02,-0.01,-0.00,0.00,-0.16,0.10,0.00,0.00,0.00,0.00,0.00,819,819,819,819
9703,0,0.02,-0.01,-0.00,0.00,-0.16,0.09,0.00,0.00,0.00,0.00,0.00,819,819,819,819
9710,0,0.02,-0.01,-0.00,0.00,-0.14,0.09,0.00,0.00,0.00,0.00,0.00,819,819,819,819
9717,0,0.02,-0.01,-0.00,0.00,-0.14,0.08,0.00,0.00,0.00,0.00,0.00,819,819,819,819
9724,0,0.02,-0.01,-0.00,0.00,-0.15,0.09,0.00,0.00,0.00,0.00,0.00,819,819,819,819
9730,0,0.02,-0.01,-0.00,0.00,-0.15,0.09,0.00,0.00,0.00,0.00,0.00,819,819,819,819
9737,0,0.02,-0.01,-0.00,0.00,-0.14,0.08,0.00,0.00,0.00,0.00,0.00,819,819,819,819
9744,0,0.02,-0.01,-0.00,0.00,-0.16,0.10,0.00,0.00,0.00,0.00,0.00,819,819,819,819
9750,0,0.02,-0.01,-0.00,0.00,-0.16,0.10,0.00,0.00,0.00,0.00,0.00,819,819,819,819
9758,0,0.02,-0.01,-0.00,0.00,-0.13,0.08,0.00,0.00,0.00,0.00,0.00,819,819,819,819
9765,0,0.02,-0.01,-0.00,0.00,-0.13,0.08,0.00,0.00,0.00,0.00,0.00,819,819,819,819
9771,0,0.02,-0.01,-0.00,0.00,-0.16,0.10,0.00,0.00,0.00,0.00,0.00,819,819,819,819
9779,0,0.02,-0.01,-0.00,0.00,-0.14,0.08,0.00,0.00,0.00,0.00,0.00,819,819,819,819
9786,0,0.02,-0.01,-0.00,0.00,-0.13,0.08,0.00,0.00,0.00,0.00,0.00,819,819,819,819
9792,0,0.02,-0.01,-0.00,0.00,-0.17,0.10,0.00,0.00,0.00,0.00,0.00,819,819,819,819
9799,0,0.02,-0.01,-0.00,0.00,-0.14,0.08,0.00,0.00,0.00,0.00,0.00,819,819,819,819
9806,0,0.02,-0.01,-0.00,0.00,-0.14,0.09,0.00,0.00,0.00,0.00,0.00,819,819,819,819
9812,0,0.02,-0.01,-0.00,0.00,-0.16,0.10,0.00,0.00,0.00,0.00,0.00,819,819,819,819
9819,0,0.02,-0.01,-0.00,0.00,-0.15,0.09,0.00,0.00,0.00,0.00,0.00,819,819,819,819
9826,0,0.02,-0.01,-0.00,0.00,-0.14,0.08,0.00,0.00,0.00,0.00,0.00,819,819,819,819
9832,0,0.02,-0.01,-0.00,0.00,-0.17,0.10,0.00,0.00,0.00,0.00,0.00,819,819,819,819
9840,0,0.02,-0.01,-0.00,0.00,-0.13,0.08,0.00,0.00,0.00,0.00,0.00,819,819,819,819
9846,0,0.02,-0.01,-0.00,0.00,-0.16,0.10,0.00,0.00,0.00,0.00,0.00,819,819,819,819
9857,0,0.02,-0.01,-0.00,0.00,-0.09,0.06,0.00,0.00,0.00,0.00,0.00,819,819,819,819
9864,0,0.02,-0.01,-0.00,0.00,-0.13,0.08,0.00,0.00,0.00,0.00,0.00,819,819,819,819
9871,0,0.02,-0.01,-0.00,0.00,-0.16,0.10,0.00,0.00,0.00,0.00,0.00,819,819,819,819
9878,0,0.02,-0.01,-0.00,0.00,-0.14,0.09,0.00,0.00,0.00,0.00,0.00,819,819,819,819
9884,0,0.02,-0.01,-0.00,0.00,-0.15,0.09,0.00,0.00,0.00,0.00,0.00,819,819,819,819
9891,0,0.02,-0.01,-0.00,0.00,-0.15,0.09,0.00,0.00,0.00,0.00,0.00,819,819,819,819
9897,0,0.02,-0.01,-0.00,0.00,-0.16,0.09,0.00,0.00,0.00,0.00,0.00,819,819,819,819
9903,0,0.02,-0.01,-0.00,0.00,-0.16,0.10,0.00,0.00,0.00,0.00,0.00,819,819,819,819
9910,0,0.02,-0.01,-0.00,0.00,-0.15,0.09,0.00,0.00,0.00,0.00,0.00,819,819,819,819
9917,0,0.02,-0.01,-0.00,0.00,-0.13,0.08,0.00,0.00,0.00,0.00,0.00,819,819,819,819
9924,0,0.02,-0.01,-0.00,0.00,-0.15,0.09,0.00,0.00,0.00,0.00,0.00,819,819,819,819
9931,0,0.02,-0.01,-0.00,0.00,-0.16,0.10,0.00,0.00,0.00,0.00,0.00,819,819,819,819
9938,0,0.02,-0.01,-0.00,0.00,-0.14,0.08,0.00,0.00,0.00,0.00,0.00,819,819,819,819
9944,0,0.02,-0.01,-0.00,0.00,-0.15,0.09,0.00,0.00,0.00,0.00,0.00,819,819,819,819
9951,0,0.02,-0.01,-0.00,0.00,-0.16,0.10,0.00,0.00,0.00,0.00,0.00,819,819,819,819
9958,0,0.02,-0.01,-0.00,0.00,-0.13,0.08,0.00,0.00,0.00,0.00,0.00,819,819,819,819
9965,0,0.02,-0.01,-0.00,0.00,-0.14,0.08,0.00,0.00,0.00,0.00,0.00,819,819,819,819
9972,0,0.02,-0.01,-0.00,0.00,-0.15,0.09,0.00,0.00,0.00,0.00,0.00,819,819,819,819
9979,0,0.02,-0.01,-0.00,0.00,-0.14,0.08,0.00,0.00,0.00,0.00,0.00,819,819,819,819
9987,0,0.02,-0.01,-0.00,0.00,-0.14,0.08,0.00,0.00,0.00,0.00,0.00,819,819,819,819
9993,0,0.02,-0.01,-0.00,0.00,-0.16,0.10,0.00,0.00,0.00,0.00,0.00,819,819,819,819
10000,0,0.02,-0.01,-0.00,0.00,-0.14,0.09,0.00,0.00,0.00,0.00,0.00,819,819,819,819
10007,0,0.02,-0.01,-0.00,0.00,-0.14,0.08,0.00,0.00,0.00,0.00,0.00,819,819,819,819
10013,0,0.02,-0.01,-0.00,0.00,-0.18,0.11,0.00,0.00,0.00,0.00,0.00,819,819,819,819
10020,0,0.02,-0.01,-0.00,0.00,-0.14,0.09,0.00,0.00,0.00,0.00,0.00,819,819,819,819
10027,0,0.02,-0.01,-0.00,0.00,-0.13,0.08,0.00,0.00,0.00,0.00,0.00,819,819,819,819
10034,0,0.02,-0.01,-0.00,0.00,-0.16,0.10,0.00,0.00,0.00,0.00,0.00,819,819,819,819
10041,0,0.02,-0.01,-0.00,0.00,-0.14,0.09,0.00,0.00,0.00,0.00,0.00,819,819,819,819
10047,0,0.02,-0.01,-0.00,0.00,-0.16,0.10,0.00,0.00,0.00,0.00,0.00,819,819,819,819
10053,0,0.02,-0.01,-0.00,0.00,-0.15,0.09,0.00,0.00,0.00,0.00,0.00,819,819,819,819
10060,0,0.02,-0.01,-0.00,0.00,-0.14,0.09,0.00,0.00,0.00,0.00,0.00,819,819,819,819
10070,0,0.02,-0.01,-0.00,0.00,-0.10,0.06,0.00,0.00,0.00,0.00,0.00,819,819,819,819
10077,0,0.02,-0.01,-0.00,0.00,-0.14,0.08,0.00,0.00,0.00,0.00,0.00,819,819,819,819
10084,0,0.02,-0.01,-0.00,0.00,-0.15,0.09,0.00,0.00,0.00,0.00,0.00,819,819,819,819
10091,0,0.02,-0.01,-0.00,0.00,-0.14,0.09,0.00,0.00,0.00,0.00,0.00,819,819,819,819
10097,0,0.02,-0.01,-0.00,0.00,-0.16,0.10,0.00,0.00,0.00,0.00,0.00,819,819,819,819
10103,0,0.02,-0.01,-0.00,0.00,-0.16,0.10,0.00,0.00,0.00,0.00,0.00,819,819,819,819
10110,0,0.02,-0.01,-0.00,0.00,-0.14,0.09,0.00,0.00,0.00,0.00,0.00,819,819,819,819
10118,0,0.02,-0.01,-0.00,0.00,-0.13,0.08,0.00,0.00,0.00,0.00,0.00,819,819,819,819
10124,0,0.02,-0.01,-0.00,0.00,-0.16,0.10,0.00,0.00,0.00,0.00,0.00,819,819,819,819
10131,0,0.02,-0.01,-0.00,0.00,-0.15,0.09,0.00,0.00,0.00,0.00,0.00,819,819,819,819
10138,0,0.02,-0.01,-0.00,0.00,-0.14,0.08,0.00,0.00,0.00,0.00,0.00,819,819,819,819
10144,0,0.02,-0.01,-0.00,0.00,-0.16,0.10,0.00,0.00,0.00,0.00,0.00,819,819,819,819
10151,0,0.02,-0.01,-0.00,0.00,-0.15,0.09,0.00,0.00,0.00,0.00,0.00,819,819,819,819
10158,0,0.02,-0.01,-0.00,0.00,-0.14,0.08,0.00,0.00,0.00,0.00,0.00,819,819,819,819
10165,0,0.02,-0.01,-0.00,0.00,-0.15,0.09,0.00,0.00,0.00,0.00,0.00,819,819,819,819
10171,0,0.02,-0.01,-0.00,0.00,-0.16,0.10,0.00,0.00,0.00,0.00,0.00,819,819,819,819
10179,0,0.02,-0.01,-0.00,0.00,-0.13,0.08,0.00,0.00,0.00,0.00,0.00,819,819,819,819
10186,0,0.02,-0.01,-0.00,0.00,-0.14,0.09,0.00,0.00,0.00,0.00,0.00,819,819,819,819
10192,0,0.02,-0.01,-0.00,0.00,-0.16,0.10,0.00,0.00,0.00,0.00,0.00,819,819,819,819
10199,0,0.02,-0.01,-0.00,0.00,-0.15,0.09,0.00,0.00,0.00,0.00,0.00,819,819,819,819
10206,0,0.02,-0.01,-0.00,0.00,-0.14,0.09,0.00,0.00,0.00,0.00,0.00,819,819,819,819
10212,0,0.02,-0.01,-0.00,0.00,-0.16,0.10,0.00,0.00,0.00,0.00,0.00,819,819,819,819
10219,0,0.02,-0.01,-0.00,0.00,-0.14,0.09,0.00,0.00,0.00,0.00,0.00,819,819,819,819
10226,0,0.02,-0.01,-0.00,0.00,-0.14,0.08,0.00,0.00,0.00,0.00,0.00,819,819,819,819
10233,0,0.02,-0.01,-0.00,0.00,-0.16,0.10,0.00,0.00,0.00,0.00,0.00,819,819,819,819
10240,0,0.02,-0.01,-0.00,0.00,-0.14,0.08,0.00,0.00,0.00,0.00,0.00,819,819,819,819
10246,0,0.02,-0.01,-0.00,0.00,-0.15,0.09,0.00,0.00,0.00,0.00,0.00,819,819,819,819
10253,0,0.02,-0.01,-0.00,0.00,-0.16,0.10,0.00,0.00,0.00,0.00,0.00,819,819,819,819
10260,0,0.02,-0.01,-0.00,0.00,-0.14,0.08,0.00,0.00,0.00,0.00,0.00,819,819,819,819
10267,0,0.02,-0.01,-0.00,0.00,-0.14,0.08,0.00,0.00,0.00,0.00,0.00,819,819,819,819
10274,0,0.02,-0.01,-0.00,0.00,-0.15,0.09,0.00,0.00,0.00,0.00,0.00,819,819,819,819
10286,0,0.02,-0.01,-0.00,0.00,-0.08,0.05,0.00,0.00,0.00,0.00,0.00,819,819,819,819
10293,0,0.02,-0.01,-0.00,0.00,-0.15,0.09,0.00,0.00,0.00,0.00,0.00,819,819,819,819
10300,0,0.02,-0.01,-0.00,0.00,-0.14,0.08,0.00,0.00,0.00,0.00,0.00,819,819,819,819
10307,0,0.02,-0.01,-0.00,0.00,-0.13,0.08,0.00,0.00,0.00,0.00,0.00,819,819,819,819
10314,0,0.02,-0.01,-0.00,0.00,-0.16,0.10,0.00,0.00,0.00,0.00,0.00,819,819,819,819
10321,0,0.02,-0.01,-0.00,0.00,-0.14,0.09,0.00,0.00,0.00,0.00,0.00,819,819,819,819
10328,0,0.02,-0.01,-0.00,0.00,-0.14,0.08,0.00,0.00,0.00,0.00,0.00,819,819,819,819
10335,0,0.02,-0.01,-0.00,0.00,-0.15,0.09,0.00,0.00,0.00,0.00,0.00,819,819,819,819
10341,0,0.02,-0.01,-0.00,0.00,-0.15,0.09,0.00,0.00,0.00,0.00,0.00,819,819,819,819
10348,0,0.02,-0.01,-0.00,0.00,-0.16,0.10,0.00,0.00,0.00,0.00,0.00,819,819,819,819
10354,0,0.02,-0.01,-0.00,0.00,-0.16,0.10,0.00,0.00,0.00,0.00,0.00,819,819,819,819
10361,0,0.02,-0.01,-0.00,0.00,-0.14,0.09,0.00,0.00,0.00,0.00,0.00,819,819,819,819
10368,0,0.02,-0.01,-0.00,0.00,-0.14,0.08,0.00,0.00,0.00,0.00,0.00,819,819,819,819
10375,0,0.02,-0.01,-0.00,0.00,-0.16,0.10,0.00,0.00,0.00,0.00,0.00,819,819,819,819
10381,0,0.02,-0.01,-0.00,0.00,-0.15,0.09,0.00,0.00,0.00,0.00,0.00,819,819,819,819
10389,0,0.02,-0.01,-0.00,0.00,-0.14,0.08,0.00,0.00,0.00,0.00,0.00,819,819,819,819
10395,0,0.02,-0.01,-0.00,0.00,-0.16,0.10,0.00,0.00,0.00,0.00,0.00,819,819,819,819
10401,0,0.02,-0.01,-0.00,0.00,-0.15,0.09,0.00,0.00,0.00,0.00,0.00,819,819,819,819
10409,0,0.02,-0.01,-0.00,0.00,-0.14,0.08,0.00,0.00,0.00,0.00,0.00,819,819,819,819
10416,0,0.02,-0.01,-0.00,0.00,-0.14,0.09,0.00,0.00,0.00,0.00,0.00,819,819,819,819
10422,0,0.02,-0.01,-0.00,0.00,-0.16,0.10,0.00,0.00,0.00,0.00,0.00,819,819,819,819
10429,0,0.02,-0.01,-0.00,0.00,-0.14,0.08,0.00,0.00,0.00,0.00,0.00,819,819,819,819
10437,0,0.02,-0.01,-0.00,0.00,-0.14,0.08,0.00,0.00,0.00,0.00,0.00,819,819,819,819
10443,0,0.02,-0.01,-0.00,0.00,-0.15,0.09,0.00,0.00,0.00,0.00,0.00,819,819,819,819
10451,0,0.02,-0.01,-0.00,0.00,-0.14,0.08,0.00,0.00,0.00,0.00,0.00,819,819,819,819
10458,0,0.02,-0.01,-0.00,0.00,-0.14,0.08,0.00,0.00,0.00,0.00,0.00,819,819,819,819
10464,0,0.02,-0.01,-0.00,0.00,-0.15,0.09,0.00,0.00,0.00,0.00,0.00,819,819,819,819
10471,0,0.02,-0.01,-0.00,0.00,-0.14,0.09,0.00,0.00,0.00,0.00,0.00,819,819,819,819
10478,0,0.02,-0.01,-0.00,0.00,-0.14,0.09,0.00,0.00,0.00,0.00,0.00,819,819,819,819
10485,0,0.02,-0.01,-0.00,0.00,-0.16,0.10,0.00,0.00,0.00,0.00,0.00,819,819,819,819
10491,0,0.02,-0.01,-0.00,0.00,-0.14,0.09,0.00,0.00,0.00,0.00,0.00,819,819,819,819
10501,0,0.02,-0.01,-0.00,0.00,-0.10,0.06,0.00,0.00,0.00,0.00,0.00,819,819,819,819
10508,0,0.02,-0.01,-0.00,0.00,-0.14,0.09,0.00,0.00,0.00,0.00,0.00,819,819,819,819
10514,0,0.02,-0.01,-0.00,0.00,-0.16,0.10,0.00,0.00,0.00,0.00,0.00,819,819,819,819
10521,0,0.02,-0.01,-0.00,0.00,-0.15,0.09,0.00,0.00,0.00,0.00,0.00,819,819,819,819
10529,0,0.02,-0.01,-0.00,0.00,-0.13,0.08,0.00,0.00,0.00,0.00,0.00,819,819,819,819
10535,0,0.02,-0.01,-0.00,0.00,-0.16,0.10,0.00,0.00,0.00,0.00,0.00,819,819,819,819
10542,0,0.02,-0.01,-0.00,0.00,-0.15,0.09,0.00,0.00,0.00,0.00,0.00,819,819,819,819
10548,0,0.02,-0.01,-0.00,0.00,-0.16,0.10,0.00,0.00,0.00,0.00,0.00,819,819,819,819
10554,0,0.02,-0.01,-0.00,0.00,-0.16,0.10,0.00,0.00,0.00,0.00,0.00,819,819,819,819
10561,0,0.02,-0.01,-0.00,0.00,-0.14,0.09,0.00,0.00,0.00,0.00,0.00,819,819,819,819
10568,0,0.02,-0.01,-0.00,0.00,-0.14,0.09,0.00,0.00,0.00,0.00,0.00,819,819,819,819
10575,0,0.02,-0.01,-0.00,0.00,-0.15,0.09,0.00,0.00,0.00,0.00,0.00,819,819,819,819
10582,0,0.02,-0.01,-0.00,0.00,-0.14,0.09,0.00,0.00,0.00,0.00,0.00,819,819,819,819
10589,0,0.02,-0.01,-0.00,0.00,-0.14,0.08,0.00,0.00,0.00,0.00,0.00,819,819,819,819
10595,0,0.02,-0.01,-0.00,0.00,-0.16,0.10,0.00,0.00,0.00,0.00,0.00,819,819,819,819
10602,0,0.02,-0.01,-0.00,0.00,-0.15,0.09,0.00,0.00,0.00,0.00,0.00,819,819,819,819
10609,0,0.02,-0.01,-0.00,0.00,-0.13,0.08,0.00,0.00,0.00,0.00,0.00,819,819,819,819
10616,0,0.02,-0.01,-0.00,0.00,-0.15,0.09,0.00,0.00,0.00,0.00,0.00,819,819,819,819
10622,0,0.02,-0.01,-0.00,0.00,-0.16,0.10,0.00,0.00,0.00,0.00,0.00,819,819,819,819
10630,0,0.02,-0.01,-0.00,0.00,-0.13,0.08,0.00,0.00,0.00,0.00,0.00,819,819,819,819
10637,0,0.02,-0.01,-0.00,0.00,-0.13,0.08,0.00,0.00,0.00,0.00,0.00,819,819,819,819
10644,0,0.02,-0.01,-0.00,0.00,-0.16,0.10,0.00,0.00,0.00,0.00,0.00,819,819,819,819
10651,0,0.02,-0.01,-0.00,0.00,-0.14,0.08,0.00,0.00,0.00,0.00,0.00,819,819,819,819
10658,0,0.02,-0.01,-0.00,0.00,-0.13,0.08,0.00,0.00,0.00,0.00,0.00,819,819,819,819
10665,0,0.02,-0.01,-0.00,0.00,-0.16,0.09,0.00,0.00,0.00,0.00,0.00,819,819,819,819
10672,0,0.02,-0.01,-0.00,0.00,-0.14,0.09,0.00,0.00,0.00,0.00,0.00,819,819,819,819
10679,0,0.02,-0.01,-0.00,0.00,-0.14,0.08,0.00,0.00,0.00,0.00,0.00,819,819,819,819
10685,0,0.02,-0.01,-0.00,0.00,-0.15,0.09,0.00,0.00,0.00,0.00,0.00,819,819,819,819
10692,0,0.02,-0.01,-0.00,0.00,-0.15,0.09,0.00,0.00,0.00,0.00,0.00,819,819,819,819
10699,0,0.02,-0.01,-0.00,0.00,-0.16,0.10,0.00,0.00,0.00,0.00,0.00,819,819,819,819
10705,0,0.02,-0.01,-0.00,0.00,-0.16,0.10,0.00,0.00,0.00,0.00,0.00,819,819,819,819
10717,0,0.02,-0.01,-0.00,0.00,-0.08,0.05,0.00,0.00,0.00,0.00,0.00,819,819,819,819
10724,0,0.02,-0.01,-0.00,0.00,-0.15,0.09,0.00,0.00,0.00,0.00,0.00,819,819,819,819
10731,0,0.02,-0.01,-0.00,0.00,-0.14,0.08,0.00,0.00,0.00,0.00,0.00,819,819,819,819
10739,0,0.02,-0.01,-0.00,0.00,-0.14,0.08,0.00,0.00,0.00,0.00,0.00,819,819,819,819
10745,0,0.02,-0.01,-0.00,0.00,-0.15,0.09,0.00,0.00,0.00,0.00,0.00,819,819,819,819
10752,0,0.02,-0.01,-0.00,0.00,-0.14,0.09,0.00,0.00,0.00,0.00,0.00,819,819,819,819
10759,0,0.02,-0.01,-0.00,0.00,-0.14,0.08,0.00,0.00,0.00,0.00,0.00,819,819,819,819
10766,0,0.02,-0.01,-0.00,0.00,-0.16,0.10,0.00,0.00,0.00,0.00,0.00,819,819,819,819
10772,0,0.02,-0.01,-0.00,0.00,-0.15,0.09,0.00,0.00,0.00,0.00,0.00,819,819,819,819
10780,0,0.02,-0.01,-0.00,0.00,-0.13,0.08,0.00,0.00,0.00,0.00,0.00,819,819,819,819
10786,0,0.02,-0.01,-0.00,0.00,-0.15,0.09,0.00,0.00,0.00,0.00,0.00,819,819,819,819
10793,0,0.02,-0.01,-0.00,0.00,-0.16,0.10,0.00,0.00,0.00,0.00,0.00,819,819,819,819
10799,0,0.02,-0.01,-0.00,0.00,-0.15,0.09,0.00,0.00,0.00,0.00,0.00,819,819,819,819
10806,0,0.02,-0.01,-0.00,0.00,-0.16,0.09,0.00,0.00,0.00,0.00,0.00,819,819,819,819
10812,0,0.02,-0.01,-0.00,0.00,-0.15,0.09,0.00,0.00,0.00,0.00,0.00,819,819,819,819
10820,0,0.02,-0.01,-0.00,0.00,-0.14,0.08,0.00,0.00,0.00,0.00,0.00,819,819,819,819
10826,0,0.02,-0.01,-0.00,0.00,-0.16,0.10,0.00,0.00,0.00,0.00,0.00,819,819,819,819
10833,0,0.02,-0.01,-0.00,0.00,-0.15,0.09,0.00,0.00,0.00,0.00,0.00,819,819,819,819
10840,0,0.02,-0.01,-0.00,0.00,-0.14,0.08,0.00,0.00,0.00,0.00,0.00,819,819,819,819
10846,0,0.02,-0.01,-0.00,0.00,-0.16,0.10,0.00,0.00,0.00,0.00,0.00,819,819,819,819
10852,0,0.02,-0.01,-0.00,0.00,-0.15,0.09,0.00,0.00,0.00,0.00,0.00,819,819,819,819
10860,0,0.02,-0.01,-0.00,0.00,-0.14,0.08,0.00,0.00,0.00,0.00,0.00,819,819,819,819
10870,0,0.02,-0.01,-0.00,0.00,-0.10,0.06,0.00,0.00,0.00,0.00,0.00,819,819,819,819
10876,0,0.02,-0.01,-0.00,0.00,-0.16,0.10,0.00,0.00,0.00,0.00,0.00,819,819,819,819
10883,0,0.02,-0.01,-0.00,0.00,-0.16,0.10,0.00,0.00,0.00,0.00,0.00,819,819,819,819
10890,0,0.02,-0.01,-0.00,0.00,-0.14,0.09,0.00,0.00,0.00,0.00,0.00,819,819,819,819
10896,0,0.02,-0.01,-0.00,0.00,-0.16,0.10,0.00,0.00,0.00,0.00,0.00,819,819,819,819
10902,0,0.02,-0.01,-0.00,0.00,-0.15,0.09,0.00,0.00,0.00,0.00,0.00,819,819,819,819
10910,0,0.02,-0.01,-0.00,0.00,-0.14,0.09,0.00,0.00,0.00,0.00,0.00,819,819,819,819
10916,0,0.02,-0.01,-0.00,0.00,-0.16,0.10,0.00,0.00,0.00,0.00,0.00,819,819,819,819
10925,0,0.02,-0.01,-0.00,0.00,-0.11,0.07,0.00,0.00,0.00,0.00,0.00,819,819,819,819
10932,0,0.02,-0.01,-0.00,0.00,-0.13,0.08,0.00,0.00,0.00,0.00,0.00,819,819,819,819
10940,0,0.02,-0.01,-0.00,0.00,-0.14,0.08,0.00,0.00,0.00,0.00,0.00,819,819,819,819
10946,0,0.02,-0.01,-0.00,0.00,-0.16,0.10,0.00,0.00,0.00,0.00,0.00,819,819,819,819
10953,0,0.02,-0.01,-0.00,0.00,-0.15,0.09,0.00,0.00,0.00,0.00,0.00,819,819,819,819
10960,0,0.02,-0.01,-0.00,0.00,-0.13,0.08,0.00,0.00,0.00,0.00,0.00,819,819,819,819
10966,0,0.02,-0.01,-0.00,0.00,-0.16,0.10,0.00,0.00,0.00,0.00,0.00,819,819,819,819
10973,0,0.02,-0.01,-0.00,0.00,-0.15,0.09,0.00,0.00,0.00,0.00,0.00,819,819,819,819
10980,0,0.02,-0.01,-0.00,0.00,-0.14,0.08,0.00,0.00,0.00,0.00,0.00,819,819,819,819
10987,0,0.02,-0.01,-0.00,0.00,-0.14,0.09,0.00,0.00,0.00,0.00,0.00,819,819,819,819
10994,0,0.02,-0.01,-0.00,0.00,-0.16,0.10,0.00,0.00,0.00,0.00,0.00,819,819,819,819
11000,0,0.02,-0.01,-0.00,0.00,-0.16,0.10,0.00,0.00,0.00,0.00,0.00,819,819,819,819
11006,0,0.02,-0.01,-0.00,0.00,-0.16,0.10,0.00,0.00,0.00,0.00,0.00,819,819,819,819
11013,0,0.02,-0.01,-0.00,0.00,-0.15,0.09,0.00,0.00,0.00,0.00,0.00,819,819,819,819
11020,0,0.02,-0.01,-0.00,0.00,-0.14,0.08,0.00,0.00,0.00,0.00,0.00,819,819,819,819
11027,0,0.02,-0.01,-0.00,0.00,-0.15,0.09,0.00,0.00,0.00,0.00,0.00,819,819,819,819
11033,0,0.02,-0.01,-0.00,0.00,-0.16,0.10,0.00,0.00,0.00,0.00,0.00,819,819,819,819
11041,0,0.02,-0.01,-0.00,0.00,-0.13,0.08,0.00,0.00,0.00,0.00,0.00,819,819,819,819
11047,0,0.02,-0.01,-0.00,0.00,-0.16,0.10,0.00,0.00,0.00,0.00,0.00,819,819,819,819
11053,0,0.02,-0.01,-0.00,0.00,-0.16,0.10,0.00,0.00,0.00,0.00,0.00,819,819,819,819
11060,0,0.02,-0.01,-0.00,0.00,-0.14,0.08,0.00,0.00,0.00,0.00,0.00,819,819,819,819
11067,0,0.02,-0.01,-0.00,0.00,-0.15,0.09,0.00,0.00,0.00,0.00,0.00,819,819,819,819
11074,0,0.02,-0.01,-0.00,0.00,-0.16,0.10,0.00,0.00,0.00,0.00,0.00,819,819,819,819
11081,0,0.02,-0.01,-0.00,0.00,-0.14,0.08,0.00,0.00,0.00,0.00,0.00,819,819,819,819
11088,0,0.02,-0.01,-0.00,0.00,-0.14,0.08,0.00,0.00,0.00,0.00,0.00,819,819,819,819
11095,0,0.02,-0.01,-0.00,0.00,-0.15,0.09,0.00,0.00,0.00,0.00,0.00,819,819,819,819
11102,0,0.02,-0.01,-0.00,0.00,-0.14,0.08,0.00,0.00,0.00,0.00,0.00,819,819,819,819
11109,0,0.02,-0.01,-0.00,0.00,-0.14,0.08,0.00,0.00,0.00,0.00,0.00,819,819,819,819
11116,0,0.02,-0.01,-0.00,0.00,-0.16,0.09,0.00,0.00,0.00,0.00,0.00,819,819,819,819
11123,0,0.02,-0.01,-0.00,0.00,-0.14,0.08,0.00,0.00,0.00,0.00,0.00,819,819,819,819
11130,0,0.02,-0.01,-0.00,0.00,-0.14,0.08,0.00,0.00,0.00,0.00,0.00,819,819,819,819
11142,0,0.02,-0.01,-0.00,0.00,-0.08,0.05,0.00,0.00,0.00,0.00,0.00,819,819,819,819
11149,0,0.02,-0.01,-0.00,0.00,-0.15,0.09,0.00,0.00,0.00,0.00,0.00,819,819,819,819
11155,0,0.02,-0.01,-0.00,0.00,-0.15,0.09,0.00,0.00,0.00,0.00,0.00,819,819,819,819
11163,0,0.02,-0.01,-0.00,0.00,-0.14,0.08,0.00,0.00,0.00,0.00,0.00,819,819,819,819
11170,0,0.02,-0.01,-0.00,0.00,-0.14,0.09,0.00,0.00,0.00,0.00,0.00,819,819,819,819
11176,0,0.02,-0.01,-0.00,0.00,-0.17,0.10,0.00,0.00,0.00,0.00,0.00,819,819,819,819
11183,0,0.02,-0.01,-0.00,0.00,-0.14,0.09,0.00,0.00,0.00,0.00,0.00,819,819,819,819
11190,0,0.02,-0.01,-0.00,0.00,-0.14,0.09,0.00,0.00,0.00,0.00,0.00,819,819,819,819
11196,0,0.02,-0.01,-0.00,0.00,-0.16,0.10,0.00,0.00,0.00,0.00,0.00,819,819,819,819
11203,0,0.02,-0.01,-0.00,0.00,-0.15,0.09,0.00,0.00,0.00,0.00,0.00,819,819,819,819
11210,0,0.02,-0.01,-0.00,0.00,-0.13,0.08,0.00,0.00,0.00,0.00,0.00,819,819,819,819
11217,0,0.02,-0.01,-0.00,0.00,-0.16,0.10,0.00,0.00,0.00,0.00,0.00,819,819,819,819
11223,0,0.02,-0.01,-0.00,0.00,-0.15,0.09,0.00,0.00,0.00,0.00,0.00,819,819,819,819
11230,0,0.02,-0.01,-0.00,0.00,-0.14,0.08,0.00,0.00,0.00,0.00,0.00,819,819,819,819
11237,0,0.02,-0.01,-0.00,0.00,-0.16,0.10,0.00,0.00,0.00,0.00,0.00,819,819,819,819
11243,0,0.02,-0.01,-0.00,0.00,-0.14,0.09,0.00,0.00,0.00,0.00,0.00,819,819,819,819
11250,0,0.02,-0.01,-0.00,0.00,-0.16,0.10,0.00,0.00,0.00,0.00,0.00,819,819,819,819
11256,0,0.02,-0.01,-0.00,0.00,-0.15,0.09,0.00,0.00,0.00,0.00,0.00,819,819,819,819
11263,0,0.02,-0.01,-0.00,0.00,-0.14,0.08,0.00,0.00,0.00,0.00,0.00,819,819,819,819
11270,0,0.02,-0.01,-0.00,0.00,-0.14,0.08,0.00,0.00,0.00,0.00,0.00,819,819,819,819
11277,0,0.02,-0.01,-0.00,0.00,-0.16,0.10,0.00,0.00,0.00,0.00,0.00,819,819,819,819
11284,0,0.02,-0.01,-0.00,0.00,-0.15,0.09,0.00,0.00,0.00,0.00,0.00,819,819,819,819
11291,0,0.02,-0.01,-0.00,0.00,-0.13,0.08,0.00,0.00,0.00,0.00,0.00,819,819,819,819
11297,0,0.02,-0.01,-0.00,0.00,-0.16,0.10,0.00,0.00,0.00,0.00,0.00,819,819,819,819
11304,0,0.02,-0.01,-0.00,0.00,-0.15,0.09,0.00,0.00,0.00,0.00,0.00,819,819,819,819
11311,0,0.02,-0.01,-0.00,0.00,-0.13,0.08,0.00,0.00,0.00,0.00,0.00,819,819,819,819
11318,0,0.02,-0.01,-0.00,0.00,-0.14,0.09,0.00,0.00,0.00,0.00,0.00,819,819,819,819
11325,0,0.02,-0.01,-0.00,0.00,-0.16,0.10,0.00,0.00,0.00,0.00,0.00,819,819,819,819
11332,0,0.02,-0.01,-0.00,0.00,-0.14,0.08,0.00,0.00,0.00,0.00,0.00,819,819,819,819
11339,0,0.02,-0.01,-0.00,0.00,-0.13,0.08,0.00,0.00,0.00,0.00,0.00,819,819,819,819
11346,0,0.02,-0.01,-0.00,0.00,-0.16,0.10,0.00,0.00,0.00,0.00,0.00,819,819,819,819
11355,0,0.02,-0.01,-0.00,0.00,-0.11,0.07,0.00,0.00,0.00,0.00,0.00,819,819,819,819
11362,0,0.02,-0.01,-0.00,0.00,-0.14,0.08,0.00,0.00,0.00,0.00,0.00,819,819,819,819
11369,0,0.02,-0.01,-0.00,0.00,-0.13,0.08,0.00,0.00,0.00,0.00,0.00,819,819,819,819
11376,0,0.02,-0.01,-0.00,0.00,-0.16,0.10,0.00,0.00,0.00,0.00,0.00,819,819,819,819
11383,0,0.02,-0.01,-0.00,0.00,-0.14,0.08,0.00,0.00,0.00,0.00,0.00,819,819,819,819
11390,0,0.02,-0.01,-0.00,0.00,-0.14,0.08,0.00,0.00,0.00,0.00,0.00,819,819,819,819
11397,0,0.02,-0.01,-0.00,0.00,-0.15,0.09,0.00,0.00,0.00,0.00,0.00,819,819,819,819
11404,0,0.02,-0.01,-0.00,0.00,-0.14,0.09,0.00,0.00,0.00,0.00,0.00,819,819,819,819
11411,0,0.02,-0.01,-0.00,0.00,-0.14,0.08,0.00,0.00,0.00,0.00,0.00,819,819,819,819
11417,0,0.02,-0.01,-0.00,0.00,-0.16,0.10,0.00,0.00,0.00,0.00,0.00,819,819,819,819
11424,0,0.02,-0.01,-0.00,0.00,-0.15,0.09,0.00,0.00,0.00,0.00,0.00,819,819,819,819
11431,0,0.02,-0.01,-0.00,0.00,-0.14,0.08,0.00,0.00,0.00,0.00,0.00,819,819,819,819
11438,0,0.02,-0.01,-0.00,0.00,-0.15,0.09,0.00,0.00,0.00,0.00,0.00,819,819,819,819
11444,0,0.02,-0.01,-0.00,0.00,-0.15,0.09,0.00,0.00,0.00,0.00,0.00,819,819,819,819
11451,0,0.02,-0.01,-0.00,0.00,-0.15,0.09,0.00,0.00,0.00,0.00,0.00,819,819,819,819
11457,0,0.02,-0.01,-0.00,0.00,-0.15,0.09,0.00,0.00,0.00,0.00,0.00,819,819,819,819
11464,0,0.02,-0.01,-0.00,0.00,-0.15,0.09,0.00,0.00,0.00,0.00,0.00,819,819,819,819
11471,0,0.02,-0.01,-0.00,0.00,-0.14,0.08,0.00,0.00,0.00,0.00,0.00,819,819,819,819
11478,0,0.02,-0.01,-0.00,0.00,-0.15,0.09,0.00,0.00,0.00,0.00,0.00,819,819,819,819
11484,0,0.02,-0.01,-0.00,0.00,-0.16,0.09,0.00,0.00,0.00,0.00,0.00,819,819,819,819
11492,0,0.02,-0.01,-0.00,0.00,-0.14,0.08,0.00,0.00,0.00,0.00,0.00,819,819,819,819
11498,0,0.02,-0.01,-0.00,0.00,-0.16,0.10,0.00,0.00,0.00,0.00,0.00,819,819,819,819
11504,0,0.02,-0.01,-0.00,0.00,-0.16,0.10,0.00,0.00,0.00,0.00,0.00,819,819,819,819
11512,0,0.02,-0.01,-0.00,0.00,-0.14,0.08,0.00,0.00,0.00,0.00,0.00,819,819,819,819
11518,0,0.02,-0.01,-0.00,0.00,-0.16,0.10,0.00,0.00,0.00,0.00,0.00,819,819,819,819
11524,0,0.02,-0.01,-0.00,0.00,-0.15,0.09,0.00,0.00,0.00,0.00,0.00,819,819,819,819
11532,0,0.02,-0.01,-0.00,0.00,-0.14,0.08,0.00,0.00,0.00,0.00,0.00,819,819,819,819
11538,0,0.02,-0.01,-0.00,0.00,-0.16,0.10,0.00,0.00,0.00,0.00,0.00,819,819,819,819
11545,0,0.02,-0.01,-0.00,0.00,-0.15,0.09,0.00,0.00,0.00,0.00,0.00,819,819,819,819
11552,0,0.02,-0.01,-0.00,0.00,-0.14,0.09,0.00,0.00,0.00,0.00,0.00,819,819,819,819
11558,0,0.02,-0.01,-0.00,0.00,-0.16,0.10,0.00,0.00,0.00,0.00,0.00,819,819,819,819
11569,0,0.02,-0.01,-0.00,0.00,-0.09,0.06,0.00,0.00,0.00,0.00,0.00,819,819,819,819
11576,0,0.02,-0.01,-0.00,0.00,-0.15,0.09,0.00,0.00,0.00,0.00,0.00,819,819,819,819
11583,0,0.02,-0.01,-0.00,0.00,-0.14,0.08,0.00,0.00,0.00,0.00,0.00,819,819,819,819
11590,0,0.02,-0.01,-0.00,0.00,-0.14,0.09,0.00,0.00,0.00,0.00,0.00,819,819,819,819
11596,0,0.02,-0.01,-0.00,0.00,-0.16,0.10,0.00,0.00,0.00,0.00,0.00,819,819,819,819
11603,0,0.02,-0.01,-0.00,0.00,-0.14,0.08,0.00,0.00,0.00,0.00,0.00,819,819,819,819
11611,0,0.02,-0.01,-0.00,0.00,-0.14,0.08,0.00,0.00,0.00,0.00,0.00,819,819,819,819
11617,0,0.02,-0.01,-0.00,0.00,-0.15,0.09,0.00,0.00,0.00,0.00,0.00,819,819,819,819
11624,0,0.02,-0.01,-0.00,0.00,-0.14,0.09,0.00,0.00,0.00,0.00,0.00,819,819,819,819
11631,0,0.02,-0.01,-0.00,0.00,-0.14,0.08,0.00,0.00,0.00,0.00,0.00,819,819,819,819
11638,0,0.02,-0.01,-0.00,0.00,-0.16,0.10,0.00,0.00,0.00,0.00,0.00,819,819,819,819
11645,0,0.02,-0.01,-0.00,0.00,-0.14,0.09,0.00,0.00,0.00,0.00,0.00,819,819,819,819
11651,0,0.02,-0.01,-0.00,0.00,-0.15,0.09,0.00,0.00,0.00,0.00,0.00,819,819,819,819
11658,0,0.02,-0.01,-0.00,0.00,-0.16,0.10,0.00,0.00,0.00,0.00,0.00,819,819,819,819
11665,0,0.02,-0.01,-0.00,0.00,-0.14,0.09,0.00,0.00,0.00,0.00,0.00,819,819,819,819
11672,0,0.02,-0.01,-0.00,0.00,-0.13,0.08,0.00,0.00,0.00,0.00,0.00,819,819,819,819
11679,0,0.02,-0.01,-0.00,0.00,-0.15,0.09,0.00,0.00,0.00,0.00,0.00,819,819,819,819
11685,0,0.02,-0.01,-0.00,0.00,-0.16,0.10,0.00,0.00,0.00,0.00,0.00,819,819,819,819
11692,0,0.02,-0.01,-0.00,0.00,-0.14,0.08,0.00,0.00,0.00,0.00,0.00,819,819,819,819
11699,0,0.02,-0.01,-0.00,0.00,-0.15,0.09,0.00,0.00,0.00,0.00,0.00,819,819,819,819
11705,0,0.02,-0.01,-0.00,0.00,-0.16,0.10,0.00,0.00,0.00,0.00,0.00,819,819,819,819
11712,0,0.02,-0.01,-0.00,0.00,-0.14,0.08,0.00,0.00,0.00,0.00,0.00,819,819,819,819
11719,0,0.02,-0.01,-0.00,0.00,-0.14,0.09,0.00,0.00,0.00,0.00,0.00,819,819,819,819
11726,0,0.02,-0.01,-0.00,0.00,-0.16,0.09,0.00,0.00,0.00,0.00,0.00,819,819,819,819
11733,0,0.02,-0.01,-0.00,0.00,-0.14,0.08,0.00,0.00,0.00,0.00,0.00,819,819,819,819
11740,0,0.02,-0.01,-0.00,0.00,-0.14,0.08,0.00,0.00,0.00,0.00,0.00,819,819,819,819
11747,0,0.02,-0.01,-0.00,0.00,-0.16,0.10,0.00,0.00,0.00,0.00,0.00,819,819,819,819
11754,0,0.02,-0.01,-0.00,0.00,-0.14,0.08,0.00,0.00,0.00,0.00,0.00,819,819,819,819
11761,0,0.02,-0.01,-0.00,0.00,-0.14,0.08,0.00,0.00,0.00,0.00,0.00,819,819,819,819
11768,0,0.02,-0.01,-0.00,0.00,-0.16,0.10,0.00,0.00,0.00,0.00,0.00,819,819,819,819
11775,0,0.02,-0.01,-0.00,0.00,-0.14,0.09,0.00,0.00,0.00,0.00,0.00,819,819,819,819
11785,0,0.02,-0.01,-0.00,0.00,-0.10,0.06,0.00,0.00,0.00,0.00,0.00,819,819,819,819
11792,0,0.02,-0.01,-0.00,0.00,-0.14,0.08,0.00,0.00,0.00,0.00,0.00,819,819,819,819
11798,0,0.02,-0.01,-0.00,0.00,-0.16,0.10,0.00,0.00,0.00,0.00,0.00,819,819,819,819
11805,0,0.02,-0.01,-0.00,0.00,-0.15,0.09,0.00,0.00,0.00,0.00,0.00,819,819,819,819
11812,0,0.02,-0.01,-0.00,0.00,-0.13,0.08,0.00,0.00,0.00,0.00,0.00,819,819,819,819
11819,0,0.02,-0.01,-0.00,0.00,-0.15,0.09,0.00,0.00,0.00,0.00,0.00,819,819,819,819
11825,0,0.02,-0.01,-0.00,0.00,-0.16,0.10,0.00,0.00,0.00,0.00,0.00,819,819,819,819
11833,0,0.02,-0.01,-0.00,0.00,-0.14,0.08,0.00,0.00,0.00,0.00,0.00,819,819,819,819
11840,0,0.02,-0.01,-0.00,0.00,-0.13,0.08,0.00,0.00,0.00,0.00,0.00,819,819,819,819
11846,0,0.02,-0.01,-0.00,0.00,-0.16,0.10,0.00,0.00,0.00,0.00,0.00,819,819,819,819
11854,0,0.02,-0.01,-0.00,0.00,-0.14,0.08,0.00,0.00,0.00,0.00,0.00,819,819,819,819
11861,0,0.02,-0.01,-0.00,0.00,-0.14,0.09,0.00,0.00,0.00,0.00,0.00,819,819,819,819
11867,0,0.02,-0.01,-0.00,0.00,-0.16,0.10,0.00,0.00,0.00,0.00,0.00,819,819,819,819
11874,0,0.02,-0.01,-0.00,0.00,-0.14,0.09,0.00,0.00,0.00,0.00,0.00,819,819,819,819
11881,0,0.02,-0.01,-0.00,0.00,-0.14,0.08,0.00,0.00,0.00,0.00,0.00,819,819,819,819
11887,0,0.02,-0.01,-0.00,0.00,-0.17,0.10,0.00,0.00,0.00,0.00,0.00,819,819,819,819
11894,0,0.02,-0.01,-0.00,0.00,-0.13,0.08,0.00,0.00,0.00,0.00,0.00,819,819,819,819
11901,0,0.02,-0.01,-0.00,0.00,-0.16,0.10,0.00,0.00,0.00,0.00,0.00,819,819,819,819
11907,0,0.02,-0.01,-0.00,0.00,-0.17,0.10,0.00,0.00,0.00,0.00,0.00,819,819,819,819
11914,0,0.02,-0.01,-0.00,0.00,-0.14,0.08,0.00,0.00,0.00,0.00,0.00,819,819,819,819
11921,0,0.02,-0.01,-0.00,0.00,-0.14,0.09,0.00,0.00,0.00,0.00,0.00,819,819,819,819
11927,0,0.02,-0.01,-0.00,0.00,-0.16,0.10,0.00,0.00,0.00,0.00,0.00,819,819,819,819
11934,0,0.02,-0.01,-0.00,0.00,-0.14,0.09,0.00,0.00,0.00,0.00,0.00,819,819,819,819
11941,0,0.02,-0.01,-0.00,0.00,-0.13,0.08,0.00,0.00,0.00,0.00,0.00,819,819,819,819
11948,0,0.02,-0.01,-0.00,0.00,-0.16,0.09,0.00,0.00,0.00,0.00,0.00,819,819,819,819
11955,0,0.02,-0.01,-0.00,0.00,-0.14,0.09,0.00,0.00,0.00,0.00,0.00,819,819,819,819
11962,0,0.02,-0.01,-0.00,0.00,-0.14,0.08,0.00,0.00,0.00,0.00,0.00,819,819,819,819
11969,0,0.02,-0.01,-0.00,0.00,-0.15,0.09,0.00,0.00,0.00,0.00,0.00,819,819,819,819
11975,0,0.02,-0.01,-0.00,0.00,-0.15,0.09,0.00,0.00,0.00,0.00,0.00,819,819,819,819
11983,0,0.02,-0.01,-0.00,0.00,-0.14,0.08,0.00,0.00,0.00,0.00,0.00,819,819,819,819
11989,0,0.02,-0.01,-0.00,0.00,-0.15,0.09,0.00,0.00,0.00,0.00,0.00,819,819,819,819
12001,0,0.02,-0.01,-0.00,0.00,-0.09,0.05,0.00,0.00,0.00,0.00,0.00,819,819,819,819
12007,0,0.02,-0.01,-0.00,0.00,-0.15,0.09,0.00,0.00,0.00,0.00,0.00,819,819,819,819
12015,0,0.02,-0.01,-0.00,0.00,-0.14,0.08,0.00,0.00,0.00,0.00,0.00,819,819,819,819
12022,0,0.02,-0.01,-0.00,0.00,-0.14,0.08,0.00,0.00,0.00,0.00,0.00,819,819,819,819
12028,0,0.02,-0.01,-0.00,0.00,-0.15,0.09,0.00,0.00,0.00,0.00,0.00,819,819,819,819
12035,0,0.02,-0.01,-0.00,0.00,-0.14,0.09,0.00,0.00,0.00,0.00,0.00,819,819,819,819
12043,0,0.02,-0.01,-0.00,0.00,-0.14,0.08,0.00,0.00,0.00,0.00,0.00,819,819,819,819
12049,0,0.02,-0.01,-0.00,0.00,-0.16,0.10,0.00,0.00,0.00,0.00,0.00,819,819,819,819
12056,0,0.02,-0.01,-0.00,0.00,-0.15,0.09,0.00,0.00,0.00,0.00,0.00,819,819,819,819
12063,0,0.02,-0.01,-0.00,0.00,-0.14,0.08,0.00,0.00,0.00,0.00,0.00,819,819,819,819
12070,0,0.02,-0.01,-0.00,0.00,-0.15,0.09,0.00,0.00,0.00,0.00,0.00,819,819,819,819
12076,0,0.02,-0.01,-0.00,0.00,-0.16,0.10,0.00,0.00,0.00,0.00,0.00,819,819,819,819
12084,0,0.02,-0.01,-0.00,0.00,-0.13,0.08,0.00,0.00,0.00,0.00,0.00,819,819,819,819
12091,0,0.02,-0.01,-0.00,0.00,-0.14,0.08,0.00,0.00,0.00,0.00,0.00,819,819,819,819
12097,0,0.02,-0.01,-0.00,0.00,-0.16,0.10,0.00,0.00,0.00,0.00,0.00,819,819,819,819
12104,0,0.02,-0.01,-0.00,0.00,-0.14,0.09,0.00,0.00,0.00,0.00,0.00,819,819,819,819
12112,0,0.02,-0.01,-0.00,0.00,-0.13,0.08,0.00,0.00,0.00,0.00,0.00,819,819,819,819
12118,0,0.02,-0.01,-0.00,0.00,-0.16,0.09,0.00,0.00,0.00,0.00,0.00,819,819,819,819
12125,0,0.02,-0.01,-0.00,0.00,-0.14,0.08,0.00,0.00,0.00,0.00,0.00,819,819,819,819
12133,0,0.02,-0.01,-0.00,0.00,-0.14,0.08,0.00,0.00,0.00,0.00,0.00,819,819,819,819
12139,0,0.02,-0.01,-0.00,0.00,-0.15,0.09,0.00,0.00,0.00,0.00,0.00,819,819,819,819
12146,0,0.02,-0.01,-0.00,0.00,-0.14,0.09,0.00,0.00,0.00,0.00,0.00,819,819,819,819
12152,0,0.02,-0.01,-0.00,0.00,-0.16,0.10,0.00,0.00,0.00,0.00,0.00,819,819,819,819
12159,0,0.02,-0.01,-0.00,0.00,-0.16,0.10,0.00,0.00,0.00,0.00,0.00,819,819,819,819
12166,0,0.02,-0.01,-0.00,0.00,-0.14,0.09,0.00,0.00,0.00,0.00,0.00,819,819,819,819
12173,0,0.02,-0.01,-0.00,0.00,-0.13,0.08,0.00,0.00,0.00,0.00,0.00,819,819,819,819
12180,0,0.02,-0.01,-0.00,0.00,-0.16,0.10,0.00,0.00,0.00,0.00,0.00,819,819,819,819
12186,0,0.02,-0.01,-0.00,0.00,-0.15,0.09,0.00,0.00,0.00,0.00,0.00,819,819,819,819
12193,0,0.02,-0.01,-0.00,0.00,-0.14,0.08,0.00,0.00,0.00,0.00,0.00,819,819,819,819
12200,0,0.02,-0.01,-0.00,0.00,-0.16,0.10,0.00,0.00,0.00,0.00,0.00,819,819,819,819
12206,0,0.02,-0.01,-0.00,0.00,-0.16,0.10,0.00,0.00,0.00,0.00,0.00,819,819,819,819
12216,0,0.02,-0.01,-0.00,0.00,-0.10,0.06,0.00,0.00,0.00,0.00,0.00,819,819,819,819
12223,0,0.02,-0.01,-0.00,0.00,-0.14,0.08,0.00,0.00,0.00,0.00,0.00,819,819,819,819
12229,0,0.02,-0.01,-0.00,0.00,-0.16,0.10,0.00,0.00,0.00,0.00,0.00,819,819,819,819
12239,0,0.02,-0.01,-0.00,0.00,-0.11,0.07,0.00,0.00,0.00,0.00,0.00,819,819,819,819
12246,0,0.02,-0.01,-0.00,0.00,-0.14,0.08,0.00,0.00,0.00,0.00,0.00,819,819,819,819
12252,0,0.02,-0.01,-0.00,0.00,-0.16,0.10,0.00,0.00,0.00,0.00,0.00,819,819,819,819
12258,0,0.02,-0.01,-0.00,0.00,-0.16,0.10,0.00,0.00,0.00,0.00,0.00,819,819,819,819
12265,0,0.02,-0.01,-0.00,0.00,-0.14,0.09,0.00,0.00,0.00,0.00,0.00,819,819,819,819
12272,0,0.02,-0.01,-0.00,0.00,-0.14,0.09,0.00,0.00,0.00,0.00,0.00,819,819,819,819
12278,0,0.02,-0.01,-0.00,0.00,-0.16,0.10,0.00,0.00,0.00,0.00,0.00,819,819,819,819
12286,0,0.02,-0.01,-0.00,0.00,-0.14,0.08,0.00,0.00,0.00,0.00,0.00,819,819,819,819
12293,0,0.02,-0.01,-0.00,0.00,-0.14,0.08,0.00,0.00,0.00,0.00,0.00,819,819,819,819
12299,0,0.02,-0.01,-0.00,0.00,-0.15,0.09,0.00,0.00,0.00,0.00,0.00,819,819,819,819
12306,0,0.02,-0.01,-0.00,0.00,-0.15,0.09,0.00,0.00,0.00,0.00,0.00,819,819,819,819
12314,0,0.02,-0.01,-0.00,0.00,-0.14,0.08,0.00,0.00,0.00,0.00,0.00,819,819,819,819
12320,0,0.02,-0.01,-0.00,0.00,-0.15,0.09,0.00,0.00,0.00,0.00,0.00,819,819,819,819
12327,0,0.02,-0.01,-0.00,0.00,-0.15,0.09,0.00,0.00,0.00,0.00,0.00,819,819,819,819
12334,0,0.02,-0.01,-0.00,0.00,-0.14,0.08,0.00,0.00,0.00,0.00,0.00,819,819,819,819
12341,0,0.02,-0.01,-0.00,0.00,-0.14,0.09,0.00,0.00,0.00,0.00,0.00,819,819,819,819
12347,0,0.02,-0.01,-0.00,0.00,-0.16,0.10,0.00,0.00,0.00,0.00,0.00,819,819,819,819
12355,0,0.02,-0.01,-0.00,0.00,-0.13,0.08,0.00,0.00,0.00,0.00,0.00,819,819,819,819
12362,0,0.02,-0.01,-0.00,0.00,-0.14,0.08,0.00,0.00,0.00,0.00,0.00,819,819,819,819
12368,0,0.02,-0.01,-0.00,0.00,-0.16,0.10,0.00,0.00,0.00,0.00,0.00,819,819,819,819
12376,0,0.02,-0.01,-0.00,0.00,-0.14,0.08,0.00,0.00,0.00,0.00,0.00,819,819,819,819
12383,0,0.02,-0.01,-0.00,0.00,-0.13,0.08,0.00,0.00,0.00,0.00,0.00,819,819,819,819
12389,0,0.02,-0.01,-0.00,0.00,-0.16,0.10,0.00,0.00,0.00,0.00,0.00,819,819,819,819
12397,0,0.02,-0.01,-0.00,0.00,-0.14,0.09,0.00,0.00,0.00,0.00,0.00,819,819,819,819
12403,0,0.02,-0.01,-0.00,0.00,-0.16,0.10,0.00,0.00,0.00,0.00,0.00,819,819,819,819
12409,0,0.02,-0.01,-0.00,0.00,-0.15,0.09,0.00,0.00,0.00,0.00,0.00,819,819,819,819
12416,0,0.02,-0.01,-0.00,0.00,-0.14,0.09,0.00,0.00,0.00,0.00,0.00,819,819,819,819
12426,0,0.02,-0.01,-0.00,0.00,-0.11,0.06,0.00,0.00,0.00,0.00,0.00,819,819,819,819
12433,0,0.02,-0.01,-0.00,0.00,-0.14,0.08,0.00,0.00,0.00,0.00,0.00,819,819,819,819
12440,0,0.02,-0.01,-0.00,0.00,-0.16,0.09,0.00,0.00,0.00,0.00,0.00,819,819,819,819
12447,0,0.02,-0.01,-0.00,0.00,-0.14,0.09,0.00,0.00,0.00,0.00,0.00,819,819,819,819
12453,0,0.02,-0.01,-0.00,0.00,-0.16,0.10,0.00,0.00,0.00,0.00,0.00,819,819,819,819
12459,0,0.02,-0.01,-0.00,0.00,-0.16,0.09,0.00,0.00,0.00,0.00,0.00,819,819,819,819
12466,0,0.02,-0.01,-0.00,0.00,-0.14,0.09,0.00,0.00,0.00,0.00,0.00,819,819,819,819
12474,0,0.02,-0.01,-0.00,0.00,-0.14,0.08,0.00,0.00,0.00,0.00,0.00,819,819,819,819
12480,0,0.02,-0.01,-0.00,0.00,-0.16,0.10,0.00,0.00,0.00,0.00,0.00,819,819,819,819
12487,0,0.02,-0.01,-0.00,0.00,-0.15,0.09,0.00,0.00,0.00,0.00,0.00,819,819,819,819
12494,0,0.02,-0.01,-0.00,0.00,-0.13,0.08,0.00,0.00,0.00,0.00,0.00,819,819,819,819
12501,0,0.02,-0.01,-0.00,0.00,-0.16,0.10,0.00,0.00,0.00,0.00,0.00,819,819,819,819
12507,0,0.02,-0.01,-0.00,0.00,-0.16,0.10,0.00,0.00,0.00,0.00,0.00,819,819,819,819
12514,0,0.02,-0.01,-0.00,0.00,-0.14,0.08,0.00,0.00,0.00,0.00,0.00,819,819,819,819
12521,0,0.02,-0.01,-0.00,0.00,-0.14,0.08,0.00,0.00,0.00,0.00,0.00,819,819,819,819
12528,0,0.02,-0.01,-0.00,0.00,-0.16,0.10,0.00,0.00,0.00,0.00,0.00,819,819,819,819
12535,0,0.02,-0.01,-0.00,0.00,-0.14,0.08,0.00,0.00,0.00,0.00,0.00,819,819,819,819
12542,0,0.02,-0.01,-0.00,0.00,-0.15,0.09,0.00,0.00,0.00,0.00,0.00,819,819,819,819
12548,0,0.02,-0.01,-0.00,0.00,-0.16,0.10,0.00,0.00,0.00,0.00,0.00,819,819,819,819
12555,0,0.02,-0.01,-0.00,0.00,-0.14,0.09,0.00,0.00,0.00,0.00,0.00,819,819,819,819
12562,0,0.02,-0.01,-0.00,0.00,-0.14,0.09,0.00,0.00,0.00,0.00,0.00,819,819,819,819
12568,0,0.02,-0.01,-0.00,0.00,-0.17,0.10,0.00,0.00,0.00,0.00,0.00,819,819,819,819
12575,0,0.02,-0.01,-0.00,0.00,-0.14,0.08,0.00,0.00,0.00,0.00,0.00,819,819,819,819
12583,0,0.02,-0.01,-0.00,0.00,-0.13,0.08,0.00,0.00,0.00,0.00,0.00,819,819,819,819
12589,0,0.02,-0.01,-0.00,0.00,-0.16,0.10,0.00,0.00,0.00,0.00,0.00,819,819,819,819
12597,0,0.02,-0.01,-0.00,0.00,-0.13,0.08,0.00,0.00,0.00,0.00,0.00,819,819,819,819
12603,0,0.02,-0.01,-0.00,0.00,-0.16,0.10,0.00,0.00,0.00,0.00,0.00,819,819,819,819
12609,0,0.02,-0.01,-0.00,0.00,-0.16,0.10,0.00,0.00,0.00,0.00,0.00,819,819,819,819
12616,0,0.02,-0.01,-0.00,0.00,-0.14,0.09,0.00,0.00,0.00,0.00,0.00,819,819,819,819
12623,0,0.02,-0.01,-0.00,0.00,-0.14,0.08,0.00,0.00,0.00,0.00,0.00,819,819,819,819
12629,0,0.02,-0.01,-0.00,0.00,-0.16,0.09,0.00,0.00,0.00,0.00,0.00,819,819,819,819
12640,0,0.02,-0.01,-0.00,0.00,-0.09,0.06,0.00,0.00,0.00,0.00,0.00,819,819,819,819
12647,0,0.02,-0.01,-0.00,0.00,-0.14,0.09,0.00,0.00,0.00,0.00,0.00,819,819,819,819
12654,0,0.02,-0.01,-0.00,0.00,-0.15,0.09,0.00,0.00,0.00,0.00,0.00,819,819,819,819
12660,0,0.02,-0.01,-0.00,0.00,-0.16,0.09,0.00,0.00,0.00,0.00,0.00,819,819,819,819
12667,0,0.02,-0.01,-0.00,0.01,-0.15,0.09,0.00,0.00,0.00,0.00,0.00,819,819,819,819
12674,0,0.02,-0.01,-0.00,0.01,-0.14,0.08,0.00,0.00,0.00,0.00,0.00,819,819,819,819
12681,0,0.02,-0.01,-0.00,0.01,-0.15,0.09,0.00,0.00,0.00,0.00,0.00,819,819,819,819
12687,0,0.02,-0.01,-0.00,0.01,-0.15,0.09,0.00,0.00,0.00,0.00,0.00,819,819,819,819
12695,0,0.02,-0.01,-0.00,0.01,-0.14,0.08,0.00,0.00,0.00,0.00,0.00,819,819,819,819
12701,0,0.02,-0.01,-0.00,0.01,-0.16,0.10,0.00,0.00,0.00,0.00,0.00,819,819,819,819
12707,0,0.02,-0.01,-0.00,0.01,-0.15,0.09,0.00,0.00,0.00,0.00,0.00,819,819,819,819
12715,0,0.02,-0.01,-0.00,0.01,-0.14,0.08,0.00,0.00,0.00,0.00,0.00,819,819,819,819
12722,0,0.02,-0.01,-0.00,0.01,-0.15,0.09,0.00,0.00,0.00,0.00,0.00,819,819,819,819
12728,0,0.02,-0.01,-0.00,0.01,-0.16,0.10,0.00,0.00,0.00,0.00,0.00,819,819,819,819
12735,0,0.02,-0.01,-0.00,0.01,-0.13,0.08,0.00,0.00,0.00,0.00,0.00,819,819,819,819
12743,0,0.02,-0.01,-0.00,0.01,-0.14,0.08,0.00,0.00,0.00,0.00,0.00,819,819,819,819
12749,0,0.02,-0.01,-0.00,0.01,-0.16,0.10,0.00,0.00,0.00,0.00,0.00,819,819,819,819
12756,0,0.02,-0.01,-0.00,0.01,-0.14,0.08,0.00,0.00,0.00,0.00,0.00,819,819,819,819
12764,0,0.02,-0.01,-0.00,0.01,-0.13,0.08,0.00,0.00,0.00,0.00,0.00,819,819,819,819
12770,0,0.02,-0.01,-0.00,0.01,-0.16,0.10,0.00,0.00,0.00,0.00,0.00,819,819,819,819
12777,0,0.02,-0.01,-0.00,0.01,-0.14,0.09,0.00,0.00,0.00,0.00,0.00,819,819,819,819
12784,0,0.02,-0.01,-0.00,0.01,-0.14,0.08,0.00,0.00,0.00,0.00,0.00,819,819,819,819
12791,0,0.02,-0.01,-0.00,0.03,-0.15,0.09,0.00,0.28,0.09,-0.03,-0.22,1049,895,835,835
12798,0,0.02,-0.01,-0.00,0.04,-0.00,0.00,0.00,0.05,0.04,0.04,0.04,856,854,853,851
12804,0,0.02,-0.01,-0.00,0.04,-0.00,0.00,0.00,0.05,0.04,0.04,0.04,856,854,853,851
12811,0,0.02,-0.01,-0.00,0.05,-0.00,0.00,0.00,0.05,0.05,0.05,0.05,862,860,859,857
12818,0,0.02,-0.01,-0.00,0.05,-0.00,0.00,0.00,0.05,0.05,0.05,0.05,862,860,859,857
12825,0,0.02,-0.01,-0.00,0.05,-0.00,0.00,0.00,0.05,0.05,0.05,0.05,862,860,859,857
12832,0,0.02,-0.01,-0.00,0.05,-0.00,0.00,0.00,0.05,0.05,0.05,0.05,862,860,859,857
12838,0,0.02,-0.01,-0.00,0.05,-0.00,0.00,0.00,0.05,0.05,0.05,0.05,862,860,859,857
12846,0,0.02,-0.01,-0.00,0.05,-0.00,0.00,0.00,0.05,0.05,0.05,0.05,862,860,859,857
12856,0,0.02,-0.01,-0.00,0.05,-0.00,0.00,0.00,0.06,0.05,0.05,0.05,864,862,861,859
12863,0,0.02,-0.01,-0.00,0.05,-0.00,0.00,0.00,0.06,0.05,0.05,0.05,864,862,861,859
12870,0,0.02,-0.01,-0.00,0.05,-0.00,0.00,0.00,0.06,0.05,0.05,0.05,864,862,861,859
12877,0,0.02,-0.01,-0.00,0.05,-0.00,0.00,0.00,0.06,0.05,0.05,0.05,864,862,861,859
12885,0,0.02,-0.01,-0.00,0.05,-0.00,0.00,0.00,0.06,0.05,0.05,0.05,864,862,861,859
12891,0,0.02,-0.01,-0.00,0.05,-0.00,0.00,0.00,0.06,0.05,0.05,0.05,864,862,861,859
12898,0,0.02,-0.01,-0.00,0.05,-0.00,0.00,0.00,0.06,0.05,0.05,0.05,864,862,861,859
12904,0,0.02,-0.01,-0.00,0.05,-0.00,0.00,0.00,0.06,0.05,0.05,0.05,864,862,861,859
12911,0,0.02,-0.01,-0.00,0.05,-0.00,0.00,0.00,0.05,0.05,0.05,0.05,863,861,860,858
12918,0,0.02,-0.01,-0.00,0.05,-0.00,0.00,0.00,0.05,0.05,0.05,0.05,863,861,860,858
12925,0,0.02,-0.01,-0.00,0.05,-0.00,0.00,0.00,0.05,0.05,0.05,0.05,863,861,860,858
12931,0,0.02,-0.01,-0.00,0.05,-0.00,0.00,0.00,0.05,0.05,0.05,0.05,863,861,860,858
12938,0,0.02,-0.01,-0.00,0.05,-0.00,0.00,0.00,0.05,0.05,0.05,0.05,863,861,860,858
12945,0,0.02,-0.01,-0.00,0.05,-0.00,0.00,0.00,0.05,0.05,0.05,0.05,863,861,860,858
12951,0,0.02,-0.01,-0.00,0.05,-0.00,0.00,0.00,0.05,0.05,0.05,0.05,863,861,860,858
12958,0,0.02,-0.01,-0.00,0.05,-0.00,0.00,0.00,0.05,0.05,0.05,0.05,863,861,860,858
12965,0,0.02,-0.01,-0.00,0.05,-0.00,0.00,0.00,0.05,0.05,0.05,0.05,863,861,860,858
12971,0,0.02,-0.01,-0.00,0.05,-0.00,0.00,0.00,0.05,0.05,0.05,0.05,863,861,860,858
12978,0,0.02,-0.01,-0.00,0.05,-0.00,0.00,0.00,0.05,0.05,0.05,0.05,863,861,860,858
12986,0,0.02,-0.01,-0.00,0.05,-0.00,0.00,0.00,0.05,0.05,0.05,0.05,863,861,860,858
12993,0,0.02,-0.01,-0.00,0.05,-0.00,0.00,0.00,0.05,0.05,0.05,0.05,863,861,860,858
12999,0,0.02,-0.01,-0.00,0.05,-0.00,0.00,0.00,0.05,0.05,0.05,0.05,863,861,860,858
13007,0,0.02,-0.01,-0.00,0.05,-0.00,0.00,0.00,0.05,0.05,0.05,0.05,863,861,860,858
13014,0,0.02,-0.01,-0.00,0.05,-0.00,0.00,0.00,0.06,0.05,0.05,0.05,864,862,861,859
13021,0,0.02,-0.01,-0.00,0.05,-0.00,0.00,0.00,0.06,0.05,0.05,0.05,864,862,861,859
13028,0,0.02,-0.01,-0.00,0.05,-0.00,0.00,0.00,0.06,0.05,0.05,0.05,864,862,861,859
13035,0,0.02,-0.01,-0.00,0.05,-0.00,0.00,0.00,0.05,0.05,0.05,0.05,863,861,860,858
13042,0,0.02,-0.01,-0.00,0.05,-0.00,0.00,0.00,0.06,0.05,0.05,0.05,864,862,861,859
13049,0,0.02,-0.01,-0.00,0.05,-0.00,0.00,0.00,0.06,0.05,0.05,0.05,864,862,861,859
13056,0,0.02,-0.01,-0.00,0.05,-0.00,0.00,0.00,0.06,0.05,0.05,0.05,864,862,861,859
13063,0,0.02,-0.01,-0.00,0.05,-0.00,0.00,0.00,0.06,0.05,0.05,0.05,864,862,861,859
13075,0,0.02,-0.01,-0.00,0.05,-0.00,0.00,0.00,0.06,0.05,0.05,0.05,864,862,861,859
13082,0,0.02,-0.01,-0.00,0.05,-0.00,0.00,0.00,0.05,0.05,0.05,0.05,863,861,860,858
13089,0,0.02,-0.01,-0.00,0.05,-0.00,0.00,0.00,0.05,0.05,0.05,0.05,863,861,860,858
13096,0,0.02,-0.01,-0.00,0.05,-0.00,0.00,0.00,0.05,0.05,0.05,0.05,863,861,860,858
13103,0,0.02,-0.01,-0.00,0.05,-0.00,0.00,0.00,0.05,0.05,0.05,0.05,863,861,860,858
13109,0,0.02,-0.01,-0.00,0.05,-0.00,0.00,0.00,0.05,0.05,0.05,0.05,863,861,860,858
13117,0,0.02,-0.01,-0.00,0.05,-0.00,0.00,0.00,0.05,0.05,0.05,0.05,863,861,860,858
13124,0,0.02,-0.01,-0.00,0.05,-0.00,0.00,0.00,0.05,0.05,0.05,0.05,863,861,860,858
13131,0,0.02,-0.01,-0.00,0.05,-0.00,0.00,0.00,0.05,0.05,0.05,0.05,863,861,860,858
13138,0,0.02,-0.01,-0.00,0.05,-0.00,0.00,0.00,0.05,0.05,0.05,0.05,863,861,860,858
