t,is_crashed,roll,pitch,yaw,p,q,r,throttle,p_cmd,q_cmd,r_cmd,roll_cmd,pitch_cmd,yaw_cmd,roll_pid_out,pitch_pid_out,yaw_pid_out,motor_fl,motor_bl,motor_fr,motor_br,pwm_fl,pwm_bl,pwm_fr,pwm_br
7052,0,3.375000,0.937500,-0.312500,0.06,-0.06,-0.118750,-1.000000,0.000000,0.000000,0.000000,0.000000,0.000000,0.000000,0.000036,0.000036,0.000072,0.000000,0.000000,0.000000,0.000000,0,0,0,0
7064,0,0.000000,0.000000,-0.312500,-14.06,-3.97,-0.124688,-1.000000,0.000000,0.000000,0.000000,0.000000,0.000000,0.000000,-0.008498,0.002396,0.000075,0.000000,0.000000,0.000000,0.000000,819,819,819,819
7074,0,0.000000,0.000000,-0.312500,0.00,-0.18,-0.184359,-1.000000,0.000000,0.000000,0.000000,0.000000,0.000000,0.000000,-0.000000,0.000108,0.000111,0.000000,0.000000,0.000000,0.000000,819,819,819,819
7084,0,0.000000,0.000000,-0.312500,-0.12,-0.18,0.050157,-1.000000,0.000000,0.000000,0.000000,0.000000,0.000000,0.000000,-0.000072,0.000108,-0.000030,0.000000,0.000000,0.000000,0.000000,819,819,819,819
7094,0,0.000000,0.000000,-0.312500,0.06,0.00,0.002508,-1.000000,0.000000,0.000000,0.000000,0.000000,0.000000,0.000000,0.000036,0.000000,-0.000002,0.000000,0.000000,0.000000,0.000000,819,819,819,819
7103,0,0.000000,0.000000,-0.312500,0.00,0.18,-0.059250,-1.000000,0.000000,0.000000,0.000000,0.000000,0.000000,0.000000,-0.000000,-0.000108,0.000036,0.000000,0.000000,0.000000,0.000000,819,819,819,819
7114,0,0.000000,0.000000,-0.312500,0.06,-0.12,0.056413,-1.000000,0.000000,0.000000,0.000000,0.000000,0.000000,0.000000,0.000036,0.000072,-0.000034,0.000000,0.000000,0.000000,0.000000,819,819,819,819
7124,0,0.000000,0.000000,-0.312500,0.06,-0.06,-0.175304,-1.000000,0.000000,0.000000,0.000000,0.000000,0.000000,0.000000,0.000036,0.000036,0.000106,0.000000,0.000000,0.000000,0.000000,819,819,819,819
7134,0,0.000000,0.000000,-0.312500,0.06,-0.12,0.109985,-1.000000,0.000000,0.000000,0.000000,0.000000,0.000000,0.000000,0.000036,0.000072,-0.000066,0.000000,0.000000,0.000000,0.000000,819,819,819,819
7144,0,0.000000,0.000000,-0.312500,-0.12,0.12,-0.053876,-1.000000,0.000000,0.000000,0.000000,0.000000,0.000000,0.000000,-0.000072,-0.000072,0.000033,0.000000,0.000000,0.000000,0.000000,819,819,819,819
7161,0,0.000000,0.000000,-0.312500,-0.06,0.00,0.056681,-1.000000,0.000000,0.000000,0.000000,0.000000,0.000000,0.000000,-0.000036,0.000000,-0.000034,0.000000,0.000000,0.000000,0.000000,819,819,819,819
7173,0,0.000000,0.000000,-0.312500,0.00,0.24,0.002834,-1.000000,0.000000,0.000000,0.000000,0.000000,0.000000,0.000000,-0.000000,-0.000144,-0.000002,0.000000,0.000000,0.000000,0.000000,819,819,819,819
7183,0,0.000000,0.000000,-0.312500,-0.06,0.00,0.000142,-1.000000,0.000000,0.000000,0.000000,0.000000,0.000000,0.000000,-0.000036,0.000000,-0.000000,0.000000,0.000000,0.000000,0.000000,819,819,819,819
7194,0,0.000000,0.000000,-0.312500,0.06,-0.12,0.000007,-1.000000,0.000000,0.000000,0.000000,0.000000,0.000000,0.000000,0.000036,0.000072,-0.000000,0.000000,0.000000,0.000000,0.000000,819,819,819,819
7204,0,0.000000,0.000000,-0.312500,-0.06,-0.12,0.059375,-1.000000,0.000000,0.000000,0.000000,0.000000,0.000000,0.000000,-0.000036,0.000072,-0.000036,0.000000,0.000000,0.000000,0.000000,819,819,819,819
7214,0,0.000000,0.000000,-0.312500,-0.12,0.12,-0.056406,-1.000000,0.000000,0.000000,0.000000,0.000000,0.000000,0.000000,-0.000072,-0.000072,0.000034,0.000000,0.000000,0.000000,0.000000,819,819,819,819
7224,0,0.000000,0.000000,-0.312500,-0.06,0.06,0.056555,-1.000000,0.000000,0.000000,0.000000,0.000000,0.000000,0.000000,-0.000036,-0.000036,-0.000034,0.000000,0.000000,0.000000,0.000000,819,819,819,819
7234,0,0.000000,0.000000,-0.312500,0.06,0.12,-0.056547,-1.000000,0.000000,0.000000,0.000000,0.000000,0.000000,0.000000,0.000036,-0.000072,0.000034,0.000000,0.000000,0.000000,0.000000,819,819,819,819
7244,0,0.000000,0.000000,-0.312500,-0.12,0.00,0.056548,-1.000000,0.000000,0.000000,0.000000,0.000000,0.000000,0.000000,-0.000072,0.000000,-0.000034,0.000000,0.000000,0.000000,0.000000,819,819,819,819
7254,0,0.000000,0.000000,-0.312500,-0.06,0.12,0.002827,-1.000000,0.000000,0.000000,0.000000,0.000000,0.000000,0.000000,-0.000036,-0.000072,-0.000002,0.000000,0.000000,0.000000,0.000000,819,819,819,819
7264,0,0.000000,0.000000,-0.312500,0.00,0.06,-0.059234,-1.000000,0.000000,0.000000,0.000000,0.000000,0.000000,0.000000,-0.000000,-0.000036,0.000036,0.000000,0.000000,0.000000,0.000000,819,819,819,819
7274,0,0.000000,0.000000,-0.312500,0.00,0.00,-0.121712,-1.000000,0.000000,0.000000,0.000000,0.000000,0.000000,0.000000,-0.000000,0.000000,0.000074,0.000000,0.000000,0.000000,0.000000,819,819,819,819
7284,0,0.000000,0.000000,-0.312500,-0.06,-0.06,0.053289,-1.000000,0.000000,0.000000,0.000000,0.000000,0.000000,0.000000,-0.000036,0.000036,-0.000032,0.000000,0.000000,0.000000,0.000000,819,819,819,819
7294,0,0.000000,0.000000,-0.312500,-0.06,0.18,-0.116086,-1.000000,0.000000,0.000000,0.000000,0.000000,0.000000,0.000000,-0.000036,-0.000108,0.000070,0.000000,0.000000,0.000000,0.000000,819,819,819,819
7304,0,0.000000,0.000000,-0.312500,0.00,0.06,-0.005804,-1.000000,0.000000,0.000000,0.000000,0.000000,0.000000,0.000000,-0.000000,-0.000036,0.000004,0.000000,0.000000,0.000000,0.000000,819,819,819,819
7314,0,0.000000,0.000000,-0.312500,0.00,0.00,-0.000290,-1.000000,0.000000,0.000000,0.000000,0.000000,0.000000,0.000000,-0.000000,0.000000,0.000000,0.000000,0.000000,0.000000,0.000000,819,819,819,819
7324,0,0.000000,0.000000,-0.312500,-0.12,-0.06,-0.000015,-1.000000,0.000000,0.000000,0.000000,0.000000,0.000000,0.000000,-0.000072,0.000036,0.000000,0.000000,0.000000,0.000000,0.000000,819,819,819,819
7334,0,0.000000,0.000000,-0.312500,0.00,-0.24,-0.000000,-1.000000,0.000000,0.000000,0.000000,0.000000,0.000000,0.000000,-0.000000,0.000143,0.000000,0.000000,0.000000,0.000000,0.000000,819,819,819,819
7344,0,0.000000,0.000000,-0.312500,0.00,0.12,0.118750,-1.000000,0.000000,0.000000,0.000000,0.000000,0.000000,0.000000,-0.000000,-0.000072,-0.000072,0.000000,0.000000,0.000000,0.000000,819,819,819,819
7354,0,0.000000,0.000000,-0.312500,-0.12,0.06,0.065312,-1.000000,0.000000,0.000000,0.000000,0.000000,0.000000,0.000000,-0.000072,-0.000036,-0.000039,0.000000,0.000000,0.000000,0.000000,819,819,819,819
7364,0,0.000000,0.000000,-0.312500,-0.18,-0.30,-0.768609,-1.000000,0.000000,0.000000,0.000000,0.000000,0.000000,0.000000,-0.000108,0.000179,0.000464,0.000000,0.000000,0.000000,0.000000,819,819,819,819
7374,0,0.000000,0.000000,-0.312500,-0.06,0.89,-0.810305,-1.000000,0.000000,0.000000,0.000000,0.000000,0.000000,0.000000,-0.000036,-0.000538,0.000490,0.000000,0.000000,0.000000,0.000000,819,819,819,819
7384,0,0.062500,0.000000,-0.312500,0.31,0.00,-0.990515,-1.000000,0.000000,0.000000,0.000000,0.000000,0.000000,0.000000,0.000189,0.000000,0.000598,0.000000,0.000000,0.000000,0.000000,819,819,819,819
7394,0,0.062500,0.000000,-0.312500,0.00,0.47,-0.227651,-1.000000,0.000000,0.000000,0.000000,0.000000,0.000000,0.000000,-0.000000,-0.000287,0.000138,0.000000,0.000000,0.000000,0.000000,819,819,819,819
7404,0,0.062500,0.000000,-0.312500,0.00,0.06,-0.189508,-1.000000,0.000000,0.000000,0.000000,0.000000,0.000000,0.000000,-0.000000,-0.000036,0.000114,0.000000,0.000000,0.000000,0.000000,819,819,819,819
7414,0,0.062500,0.000000,-0.312500,0.00,-0.30,-0.365725,-1.000000,0.000000,0.000000,0.000000,0.000000,0.000000,0.000000,-0.000000,0.000179,0.000221,0.000000,0.000000,0.000000,0.000000,819,819,819,819
7424,0,0.062500,0.000000,-0.312500,0.00,0.18,-0.374536,-1.000000,0.000000,0.000000,0.000000,0.000000,0.000000,0.000000,-0.000000,-0.000108,0.000226,0.000000,0.000000,0.000000,0.000000,819,819,819,819
7434,0,0.062500,0.000000,-0.312500,-0.06,-0.36,-0.612477,-1.000000,0.000000,0.000000,0.000000,0.000000,0.000000,0.000000,-0.000036,0.000215,0.000370,0.000000,0.000000,0.000000,0.000000,819,819,819,819
7444,0,0.062500,0.000000,-0.312500,-0.06,0.65,-0.446249,-1.000000,0.000000,0.000000,0.000000,0.000000,0.000000,0.000000,-0.000036,-0.000395,0.000270,0.000000,0.000000,0.000000,0.000000,819,819,819,819
7454,0,0.062500,0.000000,-0.312500,0.00,0.59,-0.200437,-1.000000,0.000000,0.000000,0.000000,0.000000,0.000000,0.000000,-0.000000,-0.000359,0.000121,0.000000,0.000000,0.000000,0.000000,819,819,819,819
7464,0,0.062500,0.000000,-0.312500,0.00,0.89,-0.366272,-1.000000,0.000000,0.000000,0.000000,0.000000,0.000000,0.000000,-0.000000,-0.000538,0.000221,0.000000,0.000000,0.000000,0.000000,819,819,819,819
7481,0,0.062500,-0.062500,-0.312500,-0.06,1.06,-0.374564,-1.000000,0.000000,0.000000,0.000000,0.000000,0.000000,0.000000,-0.000036,-0.000642,0.000226,0.000000,0.000000,0.000000,0.000000,819,819,819,819
7494,0,0.062500,-0.062500,-0.312500,0.00,0.59,-0.434353,-1.000000,0.000000,0.000000,0.000000,0.000000,0.000000,0.000000,-0.000000,-0.000359,0.000262,0.000000,0.000000,0.000000,0.000000,819,819,819,819
7504,0,0.062500,-0.062500,-0.312500,0.00,0.30,-0.615468,-1.000000,0.000000,0.000000,0.000000,0.000000,0.000000,0.000000,-0.000000,-0.000179,0.000372,0.000000,0.000000,0.000000,0.000000,819,819,819,819
7514,0,0.062500,-0.062500,-0.312500,0.06,0.95,0.028602,-1.000000,0.000000,0.000000,0.000000,0.000000,0.000000,0.000000,0.000036,-0.000574,-0.000017,0.000000,0.000000,0.000000,0.000000,819,819,819,819
7525,0,0.062500,-0.062500,-0.312500,0.00,1.37,-0.473570,-1.000000,0.000000,0.000000,0.000000,0.000000,0.000000,0.000000,-0.000000,-0.000825,0.000286,0.000000,0.000000,0.000000,0.000000,819,819,819,819
7534,0,0.062500,-0.062500,-0.312500,0.06,0.00,-1.151803,-1.000000,0.000000,0.000000,0.000000,0.000000,0.000000,0.000000,0.000036,0.000000,0.000696,0.000000,0.000000,0.000000,0.000000,819,819,819,819
7545,0,0.062500,-0.062500,-0.312500,-0.12,0.24,-0.888840,-1.000000,0.000000,0.000000,0.000000,0.000000,0.000000,0.000000,-0.000072,-0.000143,0.000537,0.000000,0.000000,0.000000,0.000000,819,819,819,819
7555,0,0.062500,-0.062500,-0.312500,0.00,0.12,-0.281942,-1.000000,0.000000,0.000000,0.000000,0.000000,0.000000,0.000000,-0.000000,-0.000072,0.000170,0.000000,0.000000,0.000000,0.000000,819,819,819,819
7565,0,0.062500,-0.062500,-0.312500,0.00,-0.06,-0.429722,-1.000000,0.000000,0.000000,0.000000,0.000000,0.000000,0.000000,-0.000000,0.000036,0.000260,0.000000,0.000000,0.000000,0.000000,819,819,819,819
7575,0,0.062500,-0.062500,-0.312500,0.06,-0.24,-0.615236,-1.000000,0.000000,0.000000,0.000000,0.000000,0.000000,0.000000,0.000036,0.000143,0.000372,0.000000,0.000000,0.000000,0.000000,819,819,819,819
7585,0,0.062500,-0.062500,-0.312500,-0.06,0.59,-0.208887,-1.000000,0.000000,0.000000,0.000000,0.000000,0.000000,0.000000,-0.000036,-0.000359,0.000126,0.000000,0.000000,0.000000,0.000000,819,819,819,819
7595,0,0.062500,-0.062500,-0.312500,0.06,0.77,-0.782319,-1.000000,0.000000,0.000000,0.000000,0.000000,0.000000,0.000000,0.000036,-0.000466,0.000473,0.000000,0.000000,0.000000,0.000000,819,819,819,819
7605,0,0.125000,-0.062500,-0.312500,0.43,0.95,0.079634,-1.000000,0.000000,0.000000,0.000000,0.000000,0.000000,0.000000,0.000260,-0.000574,-0.000048,0.000000,0.000000,0.000000,0.000000,819,819,819,819
7615,0,0.125000,-0.062500,-0.312500,0.00,0.12,-0.352268,-1.000000,0.000000,0.000000,0.000000,0.000000,0.000000,0.000000,-0.000000,-0.000072,0.000213,0.000000,0.000000,0.000000,0.000000,819,819,819,819
7625,0,0.125000,-0.062500,-0.312500,0.06,-0.24,-0.611363,-1.000000,0.000000,0.000000,0.000000,0.000000,0.000000,0.000000,0.000036,0.000143,0.000369,0.000000,0.000000,0.000000,0.000000,819,819,819,819
7635,0,0.125000,-0.062500,-0.312500,0.00,0.77,-0.327443,-1.000000,0.000000,0.000000,0.000000,0.000000,0.000000,0.000000,-0.000000,-0.000466,0.000198,0.000000,0.000000,0.000000,0.000000,819,819,819,819
7645,0,0.125000,-0.125000,-0.312500,-0.12,0.04,-0.372622,-1.000000,0.000000,0.000000,0.000000,0.000000,0.000000,0.000000,-0.000072,-0.000026,0.000225,0.000000,0.000000,0.000000,0.000000,819,819,819,819
7655,0,0.125000,-0.125000,-0.312500,-0.06,0.89,-0.315506,-1.000000,0.000000,0.000000,0.000000,0.000000,0.000000,0.000000,-0.000036,-0.000538,0.000191,0.000000,0.000000,0.000000,0.000000,819,819,819,819
7665,0,0.125000,-0.125000,-0.312500,0.00,0.53,-0.668900,-1.000000,0.000000,0.000000,0.000000,0.000000,0.000000,0.000000,-0.000000,-0.000323,0.000404,0.000000,0.000000,0.000000,0.000000,819,819,819,819
7675,0,0.125000,-0.125000,-0.312500,0.00,0.18,-1.042820,-1.000000,0.000000,0.000000,0.000000,0.000000,0.000000,0.000000,-0.000000,-0.000108,0.000630,0.000000,0.000000,0.000000,0.000000,819,819,819,819
7685,0,0.125000,-0.125000,-0.312500,-0.06,0.83,-0.942766,-1.000000,0.000000,0.000000,0.000000,0.000000,0.000000,0.000000,-0.000036,-0.000502,0.000569,0.000000,0.000000,0.000000,0.000000,819,819,819,819
7695,0,0.125000,-0.125000,-0.312500,0.00,-0.06,-0.047138,-1.000000,0.000000,0.000000,0.000000,0.000000,0.000000,0.000000,-0.000000,0.000036,0.000028,0.000000,0.000000,0.000000,0.000000,819,819,819,819
7705,0,0.125000,-0.125000,-0.312500,0.06,-0.83,-0.417982,-1.000000,0.000000,0.000000,0.000000,0.000000,0.000000,0.000000,0.000036,0.000502,0.000252,0.000000,0.000000,0.000000,0.000000,819,819,819,819
7715,0,0.125000,-0.125000,-0.312500,-0.12,0.24,-0.139649,-1.000000,0.000000,0.000000,0.000000,0.000000,0.000000,0.000000,-0.000072,-0.000143,0.000084,0.000000,0.000000,0.000000,0.000000,819,819,819,819
7725,0,0.125000,-0.125000,-0.312500,-0.06,-0.83,-0.600732,-1.000000,0.000000,0.000000,0.000000,0.000000,0.000000,0.000000,-0.000036,0.000502,0.000363,0.000000,0.000000,0.000000,0.000000,819,819,819,819
7735,0,0.125000,-0.125000,-0.312500,-0.06,-0.06,-0.030037,-1.000000,0.000000,0.000000,0.000000,0.000000,0.000000,0.000000,-0.000036,0.000036,0.000018,0.000000,0.000000,0.000000,0.000000,819,819,819,819
7745,0,0.125000,-0.125000,-0.312500,0.00,0.06,-0.535877,-1.000000,0.000000,0.000000,0.000000,0.000000,0.000000,0.000000,-0.000000,-0.000036,0.000324,0.000000,0.000000,0.000000,0.000000,819,819,819,819
7755,0,0.125000,-0.125000,-0.312500,-0.06,0.36,-0.620544,-1.000000,0.000000,0.000000,0.000000,0.000000,0.000000,0.000000,-0.000036,-0.000215,0.000375,0.000000,0.000000,0.000000,0.000000,819,819,819,819
7765,0,0.125000,-0.125000,-0.312500,0.12,0.06,-0.506027,-1.000000,0.000000,0.000000,0.000000,0.000000,0.000000,0.000000,0.000072,-0.000036,0.000306,0.000000,0.000000,0.000000,0.000000,819,819,819,819
7775,0,0.125000,-0.125000,-0.312500,0.12,-0.47,0.627824,-1.000000,0.000000,0.000000,0.000000,0.000000,0.000000,0.000000,0.000072,0.000287,-0.000379,0.000000,0.000000,0.000000,0.000000,819,819,819,819
7785,0,0.125000,-0.125000,-0.312500,0.00,-1.07,0.565766,-1.000000,0.000000,0.000000,0.000000,0.000000,0.000000,0.000000,-0.000000,0.000645,-0.000342,0.000000,0.000000,0.000000,0.000000,819,819,819,819
7801,0,0.125000,-0.062500,-0.312500,0.00,-0.40,0.859538,-1.000000,0.000000,0.000000,0.000000,0.000000,0.000000,0.000000,-0.000000,0.000241,-0.000519,0.000000,0.000000,0.000000,0.000000,819,819,819,819
7813,0,0.125000,-0.062500,-0.312500,-0.12,-0.71,0.280477,-1.000000,0.000000,0.000000,0.000000,0.000000,0.000000,0.000000,-0.000072,0.000430,-0.000169,0.000000,0.000000,0.000000,0.000000,819,819,819,819
7824,0,0.125000,-0.062500,-0.312500,-0.06,-1.37,0.548399,-1.000000,0.000000,0.000000,0.000000,0.000000,0.000000,0.000000,-0.000036,0.000825,-0.000331,0.000000,0.000000,0.000000,0.000000,819,819,819,819
7835,0,0.125000,-0.062500,-0.312500,-0.12,-1.01,0.264920,-1.000000,0.000000,0.000000,0.000000,0.000000,0.000000,0.000000,-0.000072,0.000610,-0.000160,0.000000,0.000000,0.000000,0.000000,819,819,819,819
7845,0,0.125000,-0.062500,-0.312500,-0.06,-0.36,0.666371,-1.000000,0.000000,0.000000,0.000000,0.000000,0.000000,0.000000,-0.000036,0.000215,-0.000402,0.000000,0.000000,0.000000,0.000000,819,819,819,819
7855,0,0.125000,-0.062500,-0.312500,-0.12,-0.36,-0.204181,-1.000000,0.000000,0.000000,0.000000,0.000000,0.000000,0.000000,-0.000072,0.000215,0.000123,0.000000,0.000000,0.000000,0.000000,819,819,819,819
7865,0,0.125000,-0.062500,-0.312500,0.00,-0.18,-0.128959,-1.000000,0.000000,0.000000,0.000000,0.000000,0.000000,0.000000,-0.000000,0.000108,0.000078,0.000000,0.000000,0.000000,0.000000,819,819,819,819
7875,0,0.125000,-0.062500,-0.312500,-0.12,-0.30,-0.540823,-1.000000,0.000000,0.000000,0.000000,0.000000,0.000000,0.000000,-0.000072,0.000179,0.000327,0.000000,0.000000,0.000000,0.000000,819,819,819,819
7885,0,0.125000,-0.062500,-0.312500,-0.12,-0.12,-0.442666,-1.000000,0.000000,0.000000,0.000000,0.000000,0.000000,0.000000,-0.000072,0.000072,0.000267,0.000000,0.000000,0.000000,0.000000,819,819,819,819
7898,0,0.125000,-0.062500,-0.312500,0.06,0.00,-0.081508,-1.000000,0.000000,0.000000,0.000000,0.000000,0.000000,0.000000,0.000036,0.000000,0.000049,0.000000,0.000000,0.000000,0.000000,819,819,819,819
7908,0,0.125000,-0.062500,-0.312500,0.06,0.00,0.174050,-1.000000,0.000000,0.000000,0.000000,0.000000,0.000000,0.000000,0.000036,0.000000,-0.000105,0.000000,0.000000,0.000000,0.000000,819,819,819,819
7917,0,0.125000,-0.062500,-0.312500,0.06,0.00,0.186827,-1.000000,0.000000,0.000000,0.000000,0.000000,0.000000,0.000000,0.000036,0.000000,-0.000113,0.000000,0.000000,0.000000,0.000000,819,819,819,819
7927,0,0.125000,-0.062500,-0.312500,0.18,0.12,-0.050034,-1.000000,0.000000,0.000000,0.000000,0.000000,0.000000,0.000000,0.000108,-0.000072,0.000030,0.000000,0.000000,0.000000,0.000000,819,819,819,819
7936,0,0.125000,-0.062500,-0.312500,-0.12,0.06,0.116248,-1.000000,0.000000,0.000000,0.000000,0.000000,0.000000,0.000000,-0.000072,-0.000036,-0.000070,0.000000,0.000000,0.000000,0.000000,819,819,819,819
7946,0,0.125000,-0.062500,-0.312500,0.00,-0.12,-0.112938,-1.000000,0.000000,0.000000,0.000000,0.000000,0.000000,0.000000,-0.000000,0.000072,0.000068,0.000000,0.000000,0.000000,0.000000,819,819,819,819
7956,0,0.125000,-0.062500,-0.312500,-0.06,-0.12,-0.183772,-1.000000,0.000000,0.000000,0.000000,0.000000,0.000000,0.000000,-0.000036,0.000072,0.000111,0.000000,0.000000,0.000000,0.000000,819,819,819,819
7966,0,0.125000,-0.062500,-0.312500,0.00,0.24,0.109561,-1.000000,0.000000,0.000000,0.000000,0.000000,0.000000,0.000000,-0.000000,-0.000143,-0.000066,0.000000,0.000000,0.000000,0.000000,819,819,819,819
7976,0,0.125000,-0.062500,-0.312500,-0.06,-0.06,0.005478,-1.000000,0.000000,0.000000,0.000000,0.000000,0.000000,0.000000,-0.000036,0.000036,-0.000003,0.000000,0.000000,0.000000,0.000000,819,819,819,819
7986,0,0.125000,-0.062500,-0.312500,-0.06,-0.06,0.000274,-1.000000,0.000000,0.000000,0.000000,0.000000,0.000000,0.000000,-0.000036,0.000036,-0.000000,0.000000,0.000000,0.000000,0.000000,819,819,819,819
7996,0,0.125000,-0.062500,-0.312500,-0.18,-0.12,0.000014,-1.000000,0.000000,0.000000,0.000000,0.000000,0.000000,0.000000,-0.000108,0.000072,-0.000000,0.000000,0.000000,0.000000,0.000000,819,819,819,819
8006,0,0.125000,-0.062500,-0.312500,-0.06,0.00,0.059376,-1.000000,0.000000,0.000000,0.000000,0.000000,0.000000,0.000000,-0.000036,0.000000,-0.000036,0.000000,0.000000,0.000000,0.000000,819,819,819,819
8016,0,0.125000,-0.062500,-0.312500,0.06,0.06,0.002969,-1.000000,0.000000,0.000000,0.000000,0.000000,0.000000,0.000000,0.000036,-0.000036,-0.000002,0.000000,0.000000,0.000000,0.000000,819,819,819,819
8026,0,0.125000,-0.062500,-0.312500,0.06,0.06,-0.059227,-1.000000,0.000000,0.000000,0.000000,0.000000,0.000000,0.000000,0.000036,-0.000036,0.000036,0.000000,0.000000,0.000000,0.000000,819,819,819,819
8036,0,0.125000,-0.062500,-0.312500,-0.06,0.00,-0.002961,-1.000000,0.000000,0.000000,0.000000,0.000000,0.000000,0.000000,-0.000036,0.000000,0.000002,0.000000,0.000000,0.000000,0.000000,819,819,819,819
8046,0,0.125000,-0.062500,-0.312500,0.00,-0.06,-0.000148,-1.000000,0.000000,0.000000,0.000000,0.000000,0.000000,0.000000,-0.000000,0.000036,0.000000,0.000000,0.000000,0.000000,0.000000,819,819,819,819
8056,0,0.125000,-0.062500,-0.312500,0.06,-0.12,-0.178132,-1.000000,0.000000,0.000000,0.000000,0.000000,0.000000,0.000000,0.000036,0.000072,0.000108,0.000000,0.000000,0.000000,0.000000,819,819,819,819
8066,0,0.125000,-0.062500,-0.312500,-0.06,-0.06,-0.068282,-1.000000,0.000000,0.000000,0.000000,0.000000,0.000000,0.000000,-0.000036,0.000036,0.000041,0.000000,0.000000,0.000000,0.000000,819,819,819,819
8076,0,0.125000,-0.062500,-0.312500,0.00,-0.12,0.055961,-1.000000,0.000000,0.000000,0.000000,0.000000,0.000000,0.000000,-0.000000,0.000072,-0.000034,0.000000,0.000000,0.000000,0.000000,819,819,819,819
8086,0,0.125000,-0.062500,-0.312500,-0.06,-0.06,0.121548,-1.000000,0.000000,0.000000,0.000000,0.000000,0.000000,0.000000,-0.000036,0.000036,-0.000073,0.000000,0.000000,0.000000,0.000000,819,819,819,819
8096,0,0.125000,-0.062500,-0.312500,-0.06,-0.06,0.065452,-1.000000,0.000000,0.000000,0.000000,0.000000,0.000000,0.000000,-0.000036,0.000036,-0.000040,0.000000,0.000000,0.000000,0.000000,819,819,819,819
8112,0,0.125000,-0.062500,-0.312500,0.00,-0.12,-0.174852,-1.000000,0.000000,0.000000,0.000000,0.000000,0.000000,0.000000,-0.000000,0.000072,0.000106,0.000000,0.000000,0.000000,0.000000,819,819,819,819
8125,0,0.125000,-0.062500,-0.312500,-0.06,-0.06,-0.068118,-1.000000,0.000000,0.000000,0.000000,0.000000,0.000000,0.000000,-0.000036,0.000036,0.000041,0.000000,0.000000,0.000000,0.000000,819,819,819,819
8136,0,0.125000,-0.062500,-0.312500,-0.06,-0.06,0.055969,-1.000000,0.000000,0.000000,0.000000,0.000000,0.000000,0.000000,-0.000036,0.000036,-0.000034,0.000000,0.000000,0.000000,0.000000,819,819,819,819
8146,0,0.125000,-0.062500,-0.312500,-0.12,-0.06,0.002798,-1.000000,0.000000,0.000000,0.000000,0.000000,0.000000,0.000000,-0.000072,0.000036,-0.000002,0.000000,0.000000,0.000000,0.000000,819,819,819,819
8156,0,0.125000,-0.062500,-0.312500,-0.06,-0.12,-0.059235,-1.000000,0.000000,0.000000,0.000000,0.000000,0.000000,0.000000,-0.000036,0.000072,0.000036,0.000000,0.000000,0.000000,0.000000,819,819,819,819
8166,0,0.125000,-0.062500,-0.312500,-0.06,-0.24,-0.062337,-1.000000,0.000000,0.000000,0.000000,0.000000,0.000000,0.000000,-0.000036,0.000143,0.000038,0.000000,0.000000,0.000000,0.000000,819,819,819,819
8176,0,0.125000,-0.062500,-0.312500,-0.06,0.00,-0.003117,-1.000000,0.000000,0.000000,0.000000,0.000000,0.000000,0.000000,-0.000036,0.000000,0.000002,0.000000,0.000000,0.000000,0.000000,819,819,819,819
8186,0,0.125000,-0.062500,-0.312500,0.00,0.06,-0.178281,-1.000000,0.000000,0.000000,0.000000,0.000000,0.000000,0.000000,-0.000000,-0.000036,0.000108,0.000000,0.000000,0.000000,0.000000,819,819,819,819
8228,0,0.125000,-0.062500,-0.312500,0.12,-0.06,-0.127664,-1.000000,0.000000,0.000000,0.000000,0.000000,0.000000,0.000000,0.000072,0.000036,0.000077,0.000000,0.000000,0.000000,0.000000,819,819,819,819
8251,0,0.125000,-0.062500,-0.312500,0.06,-0.18,-0.006383,-1.000000,0.000000,0.000000,0.000000,0.000000,0.000000,0.000000,0.000036,0.000108,0.000004,0.000000,0.000000,0.000000,0.000000,819,819,819,819
8263,0,0.125000,-0.062500,-0.312500,-0.06,0.00,0.059056,-1.000000,0.000000,0.000000,0.000000,0.000000,0.000000,0.000000,-0.000036,0.000000,-0.000036,0.000000,0.000000,0.000000,0.000000,819,819,819,819
8274,0,0.125000,-0.062500,-0.312500,0.00,-0.06,0.062328,-1.000000,0.000000,0.000000,0.000000,0.000000,0.000000,0.000000,-0.000000,0.000036,-0.000038,0.000000,0.000000,0.000000,0.000000,819,819,819,819
8289,0,0.125000,-0.062500,-0.312500,0.00,-0.06,-0.293759,-1.000000,0.000000,0.000000,0.000000,0.000000,0.000000,0.000000,-0.000000,0.000036,0.000177,0.000000,0.000000,0.000000,0.000000,819,819,819,819
8299,0,0.125000,-0.062500,-0.312500,-0.12,-0.24,-0.074063,-1.000000,0.000000,0.000000,0.000000,0.000000,0.000000,0.000000,-0.000072,0.000143,0.000045,0.000000,0.000000,0.000000,0.000000,819,819,819,819
8309,0,0.125000,-0.062500,-0.312500,0.00,0.00,-0.122453,-1.000000,0.000000,0.000000,0.000000,0.000000,0.000000,0.000000,-0.000000,0.000000,0.000074,0.000000,0.000000,0.000000,0.000000,819,819,819,819
8318,0,0.125000,-0.062500,-0.312500,0.06,-0.24,-0.065498,-1.000000,0.000000,0.000000,0.000000,0.000000,0.000000,0.000000,0.000036,0.000143,0.000040,0.000000,0.000000,0.000000,0.000000,819,819,819,819
8328,0,0.125000,-0.062500,-0.312500,0.06,-0.12,-0.122025,-1.000000,0.000000,0.000000,0.000000,0.000000,0.000000,0.000000,0.000036,0.000072,0.000074,0.000000,0.000000,0.000000,0.000000,819,819,819,819
8338,0,0.125000,-0.062500,-0.312500,0.00,0.00,-0.124851,-1.000000,0.000000,0.000000,0.000000,0.000000,0.000000,0.000000,-0.000000,0.000000,0.000075,0.000000,0.000000,0.000000,0.000000,819,819,819,819
8347,0,0.125000,-0.062500,-0.312500,0.12,0.00,0.053132,-1.000000,0.000000,0.000000,0.000000,0.000000,0.000000,0.000000,0.000072,0.000000,-0.000032,0.000000,0.000000,0.000000,0.000000,819,819,819,819
8357,0,0.125000,-0.062500,-0.312500,-0.12,-0.24,0.062032,-1.000000,0.000000,0.000000,0.000000,0.000000,0.000000,0.000000,-0.000072,0.000143,-0.000037,0.000000,0.000000,0.000000,0.000000,819,819,819,819
8367,0,0.125000,-0.062500,-0.312500,-0.12,-0.12,-0.115648,-1.000000,0.000000,0.000000,0.000000,0.000000,0.000000,0.000000,-0.000072,0.000072,0.000070,0.000000,0.000000,0.000000,0.000000,819,819,819,819
8376,0,0.125000,-0.062500,-0.312500,-0.12,-0.06,-0.183907,-1.000000,0.000000,0.000000,0.000000,0.000000,0.000000,0.000000,-0.000072,0.000036,0.000111,0.000000,0.000000,0.000000,0.000000,819,819,819,819
8387,0,0.125000,-0.062500,-0.312500,-0.12,0.18,0.109555,-1.000000,0.000000,0.000000,0.000000,0.000000,0.000000,0.000000,-0.000072,-0.000108,-0.000066,0.000000,0.000000,0.000000,0.000000,819,819,819,819
8397,0,0.125000,-0.062500,-0.312500,-0.18,-0.24,-0.172647,-1.000000,0.000000,0.000000,0.000000,0.000000,0.000000,0.000000,-0.000108,0.000143,0.000104,0.000000,0.000000,0.000000,0.000000,819,819,819,819
8407,0,0.125000,-0.062500,-0.312500,0.06,0.00,-0.186757,-1.000000,0.000000,0.000000,0.000000,0.000000,0.000000,0.000000,0.000036,0.000000,0.000113,0.000000,0.000000,0.000000,0.000000,819,819,819,819
8417,0,0.125000,-0.062500,-0.312500,0.06,0.06,-0.009338,-1.000000,0.000000,0.000000,0.000000,0.000000,0.000000,0.000000,0.000036,-0.000036,0.000006,0.000000,0.000000,0.000000,0.000000,819,819,819,819
8427,0,0.125000,-0.062500,-0.312500,0.00,-0.12,-0.000467,-1.000000,0.000000,0.000000,0.000000,0.000000,0.000000,0.000000,-0.000000,0.000072,0.000000,0.000000,0.000000,0.000000,0.000000,819,819,819,819
8437,0,0.125000,-0.062500,-0.312500,0.06,0.06,-0.000023,-1.000000,0.000000,0.000000,0.000000,0.000000,0.000000,0.000000,0.000036,-0.000036,0.000000,0.000000,0.000000,0.000000,0.000000,819,819,819,819
8447,0,0.125000,-0.062500,-0.312500,-0.06,0.00,0.059374,-1.000000,0.000000,0.000000,0.000000,0.000000,0.000000,0.000000,-0.000036,0.000000,-0.000036,0.000000,0.000000,0.000000,0.000000,819,819,819,819
8457,0,0.125000,-0.062500,-0.312500,0.06,0.00,0.121719,-1.000000,0.000000,0.000000,0.000000,0.000000,0.000000,0.000000,0.000036,0.000000,-0.000073,0.000000,0.000000,0.000000,0.000000,819,819,819,819
8467,0,0.125000,-0.062500,-0.312500,-0.06,-0.18,0.065461,-1.000000,0.000000,0.000000,0.000000,0.000000,0.000000,0.000000,-0.000036,0.000108,-0.000040,0.000000,0.000000,0.000000,0.000000,819,819,819,819
8477,0,0.125000,-0.062500,-0.312500,-0.06,-0.18,0.003273,-1.000000,0.000000,0.000000,0.000000,0.000000,0.000000,0.000000,-0.000036,0.000108,-0.000002,0.000000,0.000000,0.000000,0.000000,819,819,819,819
8487,0,0.125000,-0.062500,-0.312500,0.00,0.06,0.059539,-1.000000,0.000000,0.000000,0.000000,0.000000,0.000000,0.000000,-0.000000,-0.000036,-0.000036,0.000000,0.000000,0.000000,0.000000,819,819,819,819
8497,0,0.125000,-0.062500,-0.312500,0.06,0.00,-0.115773,-1.000000,0.000000,0.000000,0.000000,0.000000,0.000000,0.000000,0.000036,0.000000,0.000070,0.000000,0.000000,0.000000,0.000000,819,819,819,819
8507,0,0.125000,-0.062500,-0.312500,0.00,-0.06,-0.065164,-1.000000,0.000000,0.000000,0.000000,0.000000,0.000000,0.000000,-0.000000,0.000036,0.000039,0.000000,0.000000,0.000000,0.000000,819,819,819,819
8517,0,0.125000,-0.062500,-0.312500,-0.06,-0.18,-0.181383,-1.000000,0.000000,0.000000,0.000000,0.000000,0.000000,0.000000,-0.000036,0.000108,0.000109,0.000000,0.000000,0.000000,0.000000,819,819,819,819
8527,0,0.125000,-0.062500,-0.312500,0.06,0.12,0.050306,-1.000000,0.000000,0.000000,0.000000,0.000000,0.000000,0.000000,0.000036,-0.000072,-0.000030,0.000000,0.000000,0.000000,0.000000,819,819,819,819
8537,0,0.125000,-0.062500,-0.312500,0.00,0.00,-0.056860,-1.000000,0.000000,0.000000,0.000000,0.000000,0.000000,0.000000,-0.000000,0.000000,0.000034,0.000000,0.000000,0.000000,0.000000,819,819,819,819
8547,0,0.125000,-0.062500,-0.312500,0.00,-0.06,0.115907,-1.000000,0.000000,0.000000,0.000000,0.000000,0.000000,0.000000,-0.000000,0.000036,-0.000070,0.000000,0.000000,0.000000,0.000000,819,819,819,819
8557,0,0.125000,-0.062500,-0.312500,0.00,-0.06,0.065170,-1.000000,0.000000,0.000000,0.000000,0.000000,0.000000,0.000000,-0.000000,0.000036,-0.000039,0.000000,0.000000,0.000000,0.000000,819,819,819,819
8575,0,0.125000,-0.062500,-0.312500,0.12,-0.06,0.003259,-1.000000,0.000000,0.000000,0.000000,0.000000,0.000000,0.000000,0.000072,0.000036,-0.000002,0.000000,0.000000,0.000000,0.000000,819,819,819,819
8589,0,0.125000,-0.062500,-0.312500,0.00,-0.12,0.118913,-1.000000,0.000000,0.000000,0.000000,0.000000,0.000000,0.000000,-0.000000,0.000072,-0.000072,0.000000,0.000000,0.000000,0.000000,819,819,819,819
8598,0,0.125000,-0.062500,-0.312500,-0.06,-0.18,-0.053429,-1.000000,0.000000,0.000000,0.000000,0.000000,0.000000,0.000000,-0.000036,0.000108,0.000032,0.000000,0.000000,0.000000,0.000000,819,819,819,819
8608,0,0.125000,-0.062500,-0.312500,0.00,-0.12,-0.002671,-1.000000,0.000000,0.000000,0.000000,0.000000,0.000000,0.000000,-0.000000,0.000072,0.000002,0.000000,0.000000,0.000000,0.000000,819,819,819,819
8618,0,0.125000,-0.062500,-0.312500,0.00,0.06,-0.059509,-1.000000,0.000000,0.000000,0.000000,0.000000,0.000000,0.000000,-0.000000,-0.000036,0.000036,0.000000,0.000000,0.000000,0.000000,819,819,819,819
8627,0,0.125000,-0.062500,-0.312500,0.00,0.18,-0.002975,-1.000000,0.000000,0.000000,0.000000,0.000000,0.000000,0.000000,-0.000000,-0.000108,0.000002,0.000000,0.000000,0.000000,0.000000,819,819,819,819
8637,0,0.125000,-0.062500,-0.312500,-0.06,-0.12,-0.000149,-1.000000,0.000000,0.000000,0.000000,0.000000,0.000000,0.000000,-0.000036,0.000072,0.000000,0.000000,0.000000,0.000000,0.000000,819,819,819,819
8647,0,0.125000,-0.062500,-0.312500,0.00,0.00,-0.059382,-1.000000,0.000000,0.000000,0.000000,0.000000,0.000000,0.000000,-0.000000,0.000000,0.000036,0.000000,0.000000,0.000000,0.000000,819,819,819,819
8657,0,0.125000,-0.062500,-0.312500,0.06,0.12,-0.002969,-1.000000,0.000000,0.000000,0.000000,0.000000,0.000000,0.000000,0.000036,-0.000072,0.000002,0.000000,0.000000,0.000000,0.000000,819,819,819,819
8667,0,0.125000,-0.062500,-0.312500,-0.06,0.06,-0.118898,-1.000000,0.000000,0.000000,0.000000,0.000000,0.000000,0.000000,-0.000036,-0.000036,0.000072,0.000000,0.000000,0.000000,0.000000,819,819,819,819
8677,0,0.125000,-0.062500,-0.312500,0.00,0.12,0.053430,-1.000000,0.000000,0.000000,0.000000,0.000000,0.000000,0.000000,-0.000000,-0.000072,-0.000032,0.000000,0.000000,0.000000,0.000000,819,819,819,819
8687,0,0.125000,-0.062500,-0.312500,0.06,0.00,0.002672,-1.000000,0.000000,0.000000,0.000000,0.000000,0.000000,0.000000,0.000036,0.000000,-0.000002,0.000000,0.000000,0.000000,0.000000,819,819,819,819
8698,0,0.125000,-0.062500,-0.312500,-0.06,0.12,0.000134,-1.000000,0.000000,0.000000,0.000000,0.000000,0.000000,0.000000,-0.000036,-0.000072,-0.000000,0.000000,0.000000,0.000000,0.000000,819,819,819,819
8707,0,0.125000,-0.062500,-0.312500,0.00,0.06,-0.118743,-1.000000,0.000000,0.000000,0.000000,0.000000,0.000000,0.000000,-0.000000,-0.000036,0.000072,0.000000,0.000000,0.000000,0.000000,819,819,819,819
8717,0,0.125000,-0.062500,-0.312500,0.06,-0.12,-0.065312,-1.000000,0.000000,0.000000,0.000000,0.000000,0.000000,0.000000,0.000036,0.000072,0.000039,0.000000,0.000000,0.000000,0.000000,819,819,819,819
8727,0,0.125000,-0.062500,-0.312500,0.00,0.00,-0.003266,-1.000000,0.000000,0.000000,0.000000,0.000000,0.000000,0.000000,-0.000000,0.000000,0.000002,0.000000,0.000000,0.000000,0.000000,819,819,819,819
8737,0,0.125000,-0.062500,-0.312500,0.00,-0.18,-0.000163,-1.000000,0.000000,0.000000,0.000000,0.000000,0.000000,0.000000,-0.000000,0.000107,0.000000,0.000000,0.000000,0.000000,0.000000,819,819,819,819
8747,0,0.125000,-0.062500,-0.312500,-0.12,0.00,-0.000008,-1.000000,0.000000,0.000000,0.000000,0.000000,0.000000,0.000000,-0.000072,0.000000,0.000000,0.000000,0.000000,0.000000,0.000000,819,819,819,819
8757,0,0.125000,-0.062500,-0.312500,-0.06,0.18,-0.118750,-1.000000,0.000000,0.000000,0.000000,0.000000,0.000000,0.000000,-0.000036,-0.000107,0.000072,0.000000,0.000000,0.000000,0.000000,819,819,819,819
8767,0,0.125000,-0.062500,-0.312500,-0.06,-0.18,0.053437,-1.000000,0.000000,0.000000,0.000000,0.000000,0.000000,0.000000,-0.000036,0.000107,-0.000032,0.000000,0.000000,0.000000,0.000000,819,819,819,819
8780,0,0.125000,-0.062500,-0.312500,-0.12,0.00,0.062047,-1.000000,0.000000,0.000000,0.000000,0.000000,0.000000,0.000000,-0.000072,0.000000,-0.000037,0.000000,0.000000,0.000000,0.000000,819,819,819,819
8790,0,0.125000,-0.062500,-0.312500,0.00,0.00,0.062477,-1.000000,0.000000,0.000000,0.000000,0.000000,0.000000,0.000000,-0.000000,0.000000,-0.000038,0.000000,0.000000,0.000000,0.000000,819,819,819,819
8799,0,0.125000,-0.062500,-0.312500,-0.12,0.00,0.121874,-1.000000,0.000000,0.000000,0.000000,0.000000,0.000000,0.000000,-0.000072,0.000000,-0.000074,0.000000,0.000000,0.000000,0.000000,819,819,819,819
8808,0,0.125000,-0.062500,-0.312500,-0.06,0.00,-0.053281,-1.000000,0.000000,0.000000,0.000000,0.000000,0.000000,0.000000,-0.000036,0.000000,0.000032,0.000000,0.000000,0.000000,0.000000,819,819,819,819
8818,0,0.125000,-0.062500,-0.312500,-0.06,0.00,-0.002664,-1.000000,0.000000,0.000000,0.000000,0.000000,0.000000,0.000000,-0.000036,0.000000,0.000002,0.000000,0.000000,0.000000,0.000000,819,819,819,819
8828,0,0.125000,-0.062500,-0.312500,-0.06,-0.06,-0.000133,-1.000000,0.000000,0.000000,0.000000,0.000000,0.000000,0.000000,-0.000036,0.000036,0.000000,0.000000,0.000000,0.000000,0.000000,819,819,819,819
8838,0,0.125000,-0.062500,-0.312500,0.06,0.06,-0.059382,-1.000000,0.000000,0.000000,0.000000,0.000000,0.000000,0.000000,0.000036,-0.000036,0.000036,0.000000,0.000000,0.000000,0.000000,819,819,819,819
8848,0,0.125000,-0.062500,-0.312500,0.00,0.12,-0.121719,-1.000000,0.000000,0.000000,0.000000,0.000000,0.000000,0.000000,-0.000000,-0.000072,0.000073,0.000000,0.000000,0.000000,0.000000,819,819,819,819
8858,0,0.125000,-0.062500,-0.312500,0.00,-0.06,0.053289,-1.000000,0.000000,0.000000,0.000000,0.000000,0.000000,0.000000,-0.000000,0.000036,-0.000032,0.000000,0.000000,0.000000,0.000000,819,819,819,819
8868,0,0.125000,-0.062500,-0.312500,0.06,0.06,-0.056711,-1.000000,0.000000,0.000000,0.000000,0.000000,0.000000,0.000000,0.000036,-0.000036,0.000034,0.000000,0.000000,0.000000,0.000000,819,819,819,819
8886,0,0.125000,-0.062500,-0.312500,0.06,0.06,-0.002836,-1.000000,0.000000,0.000000,0.000000,0.000000,0.000000,0.000000,0.000036,-0.000036,0.000002,0.000000,0.000000,0.000000,0.000000,819,819,819,819
8897,0,0.125000,-0.062500,-0.312500,0.00,0.00,0.059233,-1.000000,0.000000,0.000000,0.000000,0.000000,0.000000,0.000000,-0.000000,0.000000,-0.000036,0.000000,0.000000,0.000000,0.000000,819,819,819,819
8907,0,0.125000,-0.062500,-0.312500,0.00,0.00,0.002962,-1.000000,0.000000,0.000000,0.000000,0.000000,0.000000,0.000000,-0.000000,0.000000,-0.000002,0.000000,0.000000,0.000000,0.000000,819,819,819,819
8918,0,0.125000,-0.062500,-0.312500,-0.06,0.12,0.059523,-1.000000,0.000000,0.000000,0.000000,0.000000,0.000000,0.000000,-0.000036,-0.000072,-0.000036,0.000000,0.000000,0.000000,0.000000,819,819,819,819
8928,0,0.125000,-0.062500,-0.312500,0.00,0.06,0.002976,-1.000000,0.000000,0.000000,0.000000,0.000000,0.000000,0.000000,-0.000000,-0.000036,-0.000002,0.000000,0.000000,0.000000,0.000000,819,819,819,819
8938,0,0.125000,-0.062500,-0.312500,0.06,0.18,-0.059226,-1.000000,0.000000,0.000000,0.000000,0.000000,0.000000,0.000000,0.000036,-0.000107,0.000036,0.000000,0.000000,0.000000,0.000000,819,819,819,819
8948,0,0.125000,-0.062500,-0.312500,-0.12,-0.06,-0.062336,-1.000000,0.000000,0.000000,0.000000,0.000000,0.000000,0.000000,-0.000072,0.000036,0.000038,0.000000,0.000000,0.000000,0.000000,819,819,819,819
8958,0,0.125000,-0.062500,-0.312500,-0.06,0.06,-0.181242,-1.000000,0.000000,0.000000,0.000000,0.000000,0.000000,0.000000,-0.000036,-0.000036,0.000109,0.000000,0.000000,0.000000,0.000000,819,819,819,819
8968,0,0.125000,-0.062500,-0.312500,-0.12,0.00,-0.068437,-1.000000,0.000000,0.000000,0.000000,0.000000,0.000000,0.000000,-0.000072,0.000000,0.000041,0.000000,0.000000,0.000000,0.000000,819,819,819,819
8978,0,0.125000,-0.062500,-0.312500,-0.06,0.12,-0.122172,-1.000000,0.000000,0.000000,0.000000,0.000000,0.000000,0.000000,-0.000036,-0.000072,0.000074,0.000000,0.000000,0.000000,0.000000,819,819,819,819
8988,0,0.125000,-0.062500,-0.312500,-0.06,0.00,-0.124859,-1.000000,0.000000,0.000000,0.000000,0.000000,0.000000,0.000000,-0.000036,0.000000,0.000075,0.000000,0.000000,0.000000,0.000000,819,819,819,819
8998,0,0.125000,-0.062500,-0.312500,0.00,0.06,-0.065618,-1.000000,0.000000,0.000000,0.000000,0.000000,0.000000,0.000000,-0.000000,-0.000036,0.000040,0.000000,0.000000,0.000000,0.000000,819,819,819,819
9008,0,0.125000,-0.062500,-0.312500,0.00,0.18,-0.003281,-1.000000,0.000000,0.000000,0.000000,0.000000,0.000000,0.000000,-0.000000,-0.000107,0.000002,0.000000,0.000000,0.000000,0.000000,819,819,819,819
9018,0,0.125000,-0.062500,-0.312500,0.12,-0.06,-0.059539,-1.000000,0.000000,0.000000,0.000000,0.000000,0.000000,0.000000,0.000072,0.000036,0.000036,0.000000,0.000000,0.000000,0.000000,819,819,819,819
9028,0,0.125000,-0.062500,-0.312500,0.06,0.12,-0.002977,-1.000000,0.000000,0.000000,0.000000,0.000000,0.000000,0.000000,0.000036,-0.000072,0.000002,0.000000,0.000000,0.000000,0.000000,819,819,819,819
9038,0,0.125000,-0.062500,-0.312500,0.00,0.00,-0.059524,-1.000000,0.000000,0.000000,0.000000,0.000000,0.000000,0.000000,-0.000000,0.000000,0.000036,0.000000,0.000000,0.000000,0.000000,819,819,819,819
9048,0,0.125000,-0.062500,-0.312500,0.06,-0.12,-0.062351,-1.000000,0.000000,0.000000,0.000000,0.000000,0.000000,0.000000,0.000036,0.000072,0.000038,0.000000,0.000000,0.000000,0.000000,819,819,819,819
9058,0,0.125000,-0.062500,-0.312500,0.06,-0.06,-0.121868,-1.000000,0.000000,0.000000,0.000000,0.000000,0.000000,0.000000,0.000036,0.000036,0.000074,0.000000,0.000000,0.000000,0.000000,819,819,819,819
9070,0,0.125000,-0.062500,-0.312500,-0.06,-0.12,-0.065468,-1.000000,0.000000,0.000000,0.000000,0.000000,0.000000,0.000000,-0.000036,0.000072,0.000040,0.000000,0.000000,0.000000,0.000000,819,819,819,819
9080,0,0.125000,-0.062500,-0.312500,-0.06,-0.06,-0.062648,-1.000000,0.000000,0.000000,0.000000,0.000000,0.000000,0.000000,-0.000036,0.000036,0.000038,0.000000,0.000000,0.000000,0.000000,819,819,819,819
9090,0,0.125000,-0.062500,-0.312500,0.00,0.12,-0.003132,-1.000000,0.000000,0.000000,0.000000,0.000000,0.000000,0.000000,-0.000000,-0.000072,0.000002,0.000000,0.000000,0.000000,0.000000,819,819,819,819
9100,0,0.125000,-0.062500,-0.312500,-0.12,0.12,-0.178282,-1.000000,0.000000,0.000000,0.000000,0.000000,0.000000,0.000000,-0.000072,-0.000072,0.000108,0.000000,0.000000,0.000000,0.000000,819,819,819,819
9109,0,0.125000,-0.062500,-0.312500,0.06,0.06,-0.127664,-1.000000,0.000000,0.000000,0.000000,0.000000,0.000000,0.000000,0.000036,-0.000036,0.000077,0.000000,0.000000,0.000000,0.000000,819,819,819,819
9119,0,0.125000,-0.062500,-0.312500,0.06,0.00,-0.065758,-1.000000,0.000000,0.000000,0.000000,0.000000,0.000000,0.000000,0.000036,0.000000,0.000040,0.000000,0.000000,0.000000,0.000000,819,819,819,819
9129,0,0.125000,-0.062500,-0.312500,0.12,-0.12,-0.062663,-1.000000,0.000000,0.000000,0.000000,0.000000,0.000000,0.000000,0.000072,0.000072,0.000038,0.000000,0.000000,0.000000,0.000000,819,819,819,819
9139,0,0.125000,-0.062500,-0.312500,0.12,-0.06,-0.003133,-1.000000,0.000000,0.000000,0.000000,0.000000,0.000000,0.000000,0.000072,0.000036,0.000002,0.000000,0.000000,0.000000,0.000000,819,819,819,819
9149,0,0.125000,-0.062500,-0.312500,-0.06,-0.06,0.059218,-1.000000,0.000000,0.000000,0.000000,0.000000,0.000000,0.000000,-0.000036,0.000036,-0.000036,0.000000,0.000000,0.000000,0.000000,819,819,819,819
9158,0,0.125000,-0.062500,-0.312500,-0.06,0.12,-0.056414,-1.000000,0.000000,0.000000,0.000000,0.000000,0.000000,0.000000,-0.000036,-0.000072,0.000034,0.000000,0.000000,0.000000,0.000000,819,819,819,819
9168,0,0.125000,-0.062500,-0.312500,0.00,0.00,-0.002821,-1.000000,0.000000,0.000000,0.000000,0.000000,0.000000,0.000000,-0.000000,0.000000,0.000002,0.000000,0.000000,0.000000,0.000000,819,819,819,819
9178,0,0.125000,-0.062500,-0.312500,0.00,-0.24,0.059234,-1.000000,0.000000,0.000000,0.000000,0.000000,0.000000,0.000000,-0.000000,0.000143,-0.000036,0.000000,0.000000,0.000000,0.000000,819,819,819,819
9188,0,0.125000,-0.062500,-0.312500,0.00,0.00,0.062337,-1.000000,0.000000,0.000000,0.000000,0.000000,0.000000,0.000000,-0.000000,0.000000,-0.000038,0.000000,0.000000,0.000000,0.000000,819,819,819,819
9205,0,0.125000,-0.062500,-0.312500,-0.12,-0.06,0.003117,-1.000000,0.000000,0.000000,0.000000,0.000000,0.000000,0.000000,-0.000072,0.000036,-0.000002,0.000000,0.000000,0.000000,0.000000,819,819,819,819
9216,0,0.125000,-0.062500,-0.312500,0.00,0.00,0.000156,-1.000000,0.000000,0.000000,0.000000,0.000000,0.000000,0.000000,-0.000000,0.000000,-0.000000,0.000000,0.000000,0.000000,0.000000,819,819,819,819
9227,0,0.125000,-0.062500,-0.312500,0.18,0.24,0.059383,-1.000000,0.000000,0.000000,0.000000,0.000000,0.000000,0.000000,0.000107,-0.000143,-0.000036,0.000000,0.000000,0.000000,0.000000,819,819,819,819
9245,0,0.125000,-0.062500,-0.312500,-0.06,-0.06,0.062344,-1.000000,0.000000,0.000000,0.000000,0.000000,0.000000,0.000000,-0.000036,0.000036,-0.000038,0.000000,0.000000,0.000000,0.000000,819,819,819,819
9257,0,0.125000,-0.062500,-0.312500,-0.06,-0.06,0.062492,-1.000000,0.000000,0.000000,0.000000,0.000000,0.000000,0.000000,-0.000036,0.000036,-0.000038,0.000000,0.000000,0.000000,0.000000,819,819,819,819
9268,0,0.125000,-0.062500,-0.312500,0.06,-0.18,0.062500,-1.000000,0.000000,0.000000,0.000000,0.000000,0.000000,0.000000,0.000036,0.000107,-0.000038,0.000000,0.000000,0.000000,0.000000,819,819,819,819
9278,0,0.125000,-0.062500,-0.312500,0.00,-0.12,0.121875,-1.000000,0.000000,0.000000,0.000000,0.000000,0.000000,0.000000,-0.000000,0.000072,-0.000074,0.000000,0.000000,0.000000,0.000000,819,819,819,819
9288,0,0.125000,-0.062500,-0.312500,-0.12,0.18,0.006094,-1.000000,0.000000,0.000000,0.000000,0.000000,0.000000,0.000000,-0.000072,-0.000107,-0.000004,0.000000,0.000000,0.000000,0.000000,819,819,819,819
9299,0,0.125000,-0.062500,-0.312500,-0.06,-0.12,0.000305,-1.000000,0.000000,0.000000,0.000000,0.000000,0.000000,0.000000,-0.000036,0.000072,-0.000000,0.000000,0.000000,0.000000,0.000000,819,819,819,819
9309,0,0.125000,-0.062500,-0.312500,0.00,0.18,0.118765,-1.000000,0.000000,0.000000,0.000000,0.000000,0.000000,0.000000,-0.000000,-0.000107,-0.000072,0.000000,0.000000,0.000000,0.000000,819,819,819,819
9319,0,0.125000,-0.062500,-0.312500,0.06,-0.12,0.005938,-1.000000,0.000000,0.000000,0.000000,0.000000,0.000000,0.000000,0.000036,0.000072,-0.000004,0.000000,0.000000,0.000000,0.000000,819,819,819,819
9329,0,0.125000,-0.062500,-0.312500,0.00,-0.18,0.059672,-1.000000,0.000000,0.000000,0.000000,0.000000,0.000000,0.000000,-0.000000,0.000107,-0.000036,0.000000,0.000000,0.000000,0.000000,819,819,819,819
9339,0,0.125000,-0.062500,-0.312500,-0.18,0.00,0.062359,-1.000000,0.000000,0.000000,0.000000,0.000000,0.000000,0.000000,-0.000107,0.000000,-0.000038,0.000000,0.000000,0.000000,0.000000,819,819,819,819
9349,0,0.125000,-0.062500,-0.312500,0.00,0.00,0.062493,-1.000000,0.000000,0.000000,0.000000,0.000000,0.000000,0.000000,-0.000000,0.000000,-0.000038,0.000000,0.000000,0.000000,0.000000,819,819,819,819
9359,0,0.125000,-0.062500,-0.312500,-0.06,0.06,-0.115625,-1.000000,0.000000,0.000000,0.000000,0.000000,0.000000,0.000000,-0.000036,-0.000036,0.000070,0.000000,0.000000,0.000000,0.000000,819,819,819,819
9369,0,0.125000,-0.062500,-0.312500,-0.06,-0.12,-0.065156,-1.000000,0.000000,0.000000,0.000000,0.000000,0.000000,0.000000,-0.000036,0.000072,0.000039,0.000000,0.000000,0.000000,0.000000,819,819,819,819
9379,0,0.125000,-0.062500,-0.312500,0.00,-0.24,-0.062633,-1.000000,0.000000,0.000000,0.000000,0.000000,0.000000,0.000000,-0.000000,0.000143,0.000038,0.000000,0.000000,0.000000,0.000000,819,819,819,819
9389,0,0.125000,-0.062500,-0.312500,0.00,0.06,0.056243,-1.000000,0.000000,0.000000,0.000000,0.000000,0.000000,0.000000,-0.000000,-0.000036,-0.000034,0.000000,0.000000,0.000000,0.000000,819,819,819,819
9399,0,0.125000,-0.062500,-0.312500,0.00,-0.06,0.121562,-1.000000,0.000000,0.000000,0.000000,0.000000,0.000000,0.000000,-0.000000,0.000036,-0.000073,0.000000,0.000000,0.000000,0.000000,819,819,819,819
9409,0,0.125000,-0.062500,-0.312500,-0.12,-0.12,0.065453,-1.000000,0.000000,0.000000,0.000000,0.000000,0.000000,0.000000,-0.000072,0.000072,-0.000039,0.000000,0.000000,0.000000,0.000000,819,819,819,819
9419,0,0.125000,-0.062500,-0.312500,-0.12,-0.12,0.003273,-1.000000,0.000000,0.000000,0.000000,0.000000,0.000000,0.000000,-0.000072,0.000072,-0.000002,0.000000,0.000000,0.000000,0.000000,819,819,819,819
9429,0,0.125000,-0.062500,-0.312500,0.00,0.00,0.118914,-1.000000,0.000000,0.000000,0.000000,0.000000,0.000000,0.000000,-0.000000,0.000000,-0.000072,0.000000,0.000000,0.000000,0.000000,819,819,819,819
9439,0,0.125000,-0.062500,-0.312500,-0.06,0.12,0.184071,-1.000000,0.000000,0.000000,0.000000,0.000000,0.000000,0.000000,-0.000036,-0.000072,-0.000111,0.000000,0.000000,0.000000,0.000000,819,819,819,819
9449,0,0.125000,-0.062500,-0.312500,0.00,0.12,0.009204,-1.000000,0.000000,0.000000,0.000000,0.000000,0.000000,0.000000,-0.000000,-0.000072,-0.000006,0.000000,0.000000,0.000000,0.000000,819,819,819,819
9459,0,0.125000,-0.062500,-0.312500,0.00,0.00,0.059835,-1.000000,0.000000,0.000000,0.000000,0.000000,0.000000,0.000000,-0.000000,0.000000,-0.000036,0.000000,0.000000,0.000000,0.000000,819,819,819,819
9469,0,0.125000,-0.062500,-0.312500,-0.06,0.12,0.062367,-1.000000,0.000000,0.000000,0.000000,0.000000,0.000000,0.000000,-0.000036,-0.000072,-0.000038,0.000000,0.000000,0.000000,0.000000,819,819,819,819
9479,0,0.125000,-0.062500,-0.312500,-0.06,0.06,-0.056257,-1.000000,0.000000,0.000000,0.000000,0.000000,0.000000,0.000000,-0.000036,-0.000036,0.000034,0.000000,0.000000,0.000000,0.000000,819,819,819,819
9489,0,0.125000,-0.062500,-0.312500,-0.06,0.24,0.056562,-1.000000,0.000000,0.000000,0.000000,0.000000,0.000000,0.000000,-0.000036,-0.000143,-0.000034,0.000000,0.000000,0.000000,0.000000,819,819,819,819
9499,0,0.125000,-0.062500,-0.312500,0.00,0.00,0.121578,-1.000000,0.000000,0.000000,0.000000,0.000000,0.000000,0.000000,-0.000000,0.000000,-0.000073,0.000000,0.000000,0.000000,0.000000,819,819,819,819
9509,0,0.125000,-0.062500,-0.312500,-0.06,-0.12,0.184204,-1.000000,0.000000,0.000000,0.000000,0.000000,0.000000,0.000000,-0.000036,0.000072,-0.000111,0.000000,0.000000,0.000000,0.000000,819,819,819,819
9519,0,0.125000,-0.062500,-0.312500,-0.06,-0.18,0.009210,-1.000000,0.000000,0.000000,0.000000,0.000000,0.000000,0.000000,-0.000036,0.000107,-0.000006,0.000000,0.000000,0.000000,0.000000,819,819,819,819
9537,0,0.125000,-0.062500,-0.312500,-0.06,-0.12,0.000461,-1.000000,0.000000,0.000000,0.000000,0.000000,0.000000,0.000000,-0.000036,0.000072,-0.000000,0.000000,0.000000,0.000000,0.000000,819,819,819,819
9552,0,0.125000,-0.062500,-0.312500,-0.06,0.06,0.000023,-1.000000,0.000000,0.000000,0.000000,0.000000,0.000000,0.000000,-0.000036,-0.000036,-0.000000,0.000000,0.000000,0.000000,0.000000,819,819,819,819
9561,0,0.125000,-0.062500,-0.312500,0.06,0.00,-0.059374,-1.000000,0.000000,0.000000,0.000000,0.000000,0.000000,0.000000,0.000036,0.000000,0.000036,0.000000,0.000000,0.000000,0.000000,819,819,819,819
9570,0,0.125000,-0.062500,-0.312500,-0.06,0.18,0.056406,-1.000000,0.000000,0.000000,0.000000,0.000000,0.000000,0.000000,-0.000036,-0.000107,-0.000034,0.000000,0.000000,0.000000,0.000000,819,819,819,819
9580,0,0.125000,-0.062500,-0.312500,-0.06,-0.12,0.062195,-1.000000,0.000000,0.000000,0.000000,0.000000,0.000000,0.000000,-0.000036,0.000072,-0.000038,0.000000,0.000000,0.000000,0.000000,819,819,819,819
9590,0,0.125000,-0.062500,-0.312500,0.06,-0.12,0.240610,-1.000000,0.000000,0.000000,0.000000,0.000000,0.000000,0.000000,0.000036,0.000072,-0.000145,0.000000,0.000000,0.000000,0.000000,819,819,819,819
9600,0,0.125000,-0.062500,-0.312500,0.00,-0.12,0.190155,-1.000000,0.000000,0.000000,0.000000,0.000000,0.000000,0.000000,-0.000000,0.000072,-0.000115,0.000000,0.000000,0.000000,0.000000,819,819,819,819
9609,0,0.125000,-0.062500,-0.312500,-0.06,0.00,0.187633,-1.000000,0.000000,0.000000,0.000000,0.000000,0.000000,0.000000,-0.000036,0.000000,-0.000113,0.000000,0.000000,0.000000,0.000000,819,819,819,819
9619,0,0.125000,-0.062500,-0.312500,0.12,-0.06,0.009382,-1.000000,0.000000,0.000000,0.000000,0.000000,0.000000,0.000000,0.000072,0.000036,-0.000006,0.000000,0.000000,0.000000,0.000000,819,819,819,819
9633,0,0.125000,-0.062500,-0.312500,0.00,0.12,-0.118281,-1.000000,0.000000,0.000000,0.000000,0.000000,0.000000,0.000000,-0.000000,-0.000072,0.000071,0.000000,0.000000,0.000000,0.000000,819,819,819,819
9642,0,0.125000,-0.062500,-0.312500,0.00,-0.18,-0.184039,-1.000000,0.000000,0.000000,0.000000,0.000000,0.000000,0.000000,-0.000000,0.000107,0.000111,0.000000,0.000000,0.000000,0.000000,819,819,819,819
9651,0,0.125000,-0.062500,-0.312500,-0.06,-0.18,-0.187327,-1.000000,0.000000,0.000000,0.000000,0.000000,0.000000,0.000000,-0.000036,0.000107,0.000113,0.000000,0.000000,0.000000,0.000000,819,819,819,819
9661,0,0.125000,-0.062500,-0.312500,0.12,0.12,-0.068741,-1.000000,0.000000,0.000000,0.000000,0.000000,0.000000,0.000000,0.000072,-0.000072,0.000041,0.000000,0.000000,0.000000,0.000000,819,819,819,819
9671,0,0.125000,-0.062500,-0.312500,0.00,0.06,-0.062812,-1.000000,0.000000,0.000000,0.000000,0.000000,0.000000,0.000000,-0.000000,-0.000036,0.000038,0.000000,0.000000,0.000000,0.000000,819,819,819,819
9680,0,0.125000,-0.062500,-0.312500,0.12,0.12,-0.003141,-1.000000,0.000000,0.000000,0.000000,0.000000,0.000000,0.000000,0.000072,-0.000072,0.000002,0.000000,0.000000,0.000000,0.000000,819,819,819,819
9690,0,0.125000,-0.062500,-0.312500,-0.06,0.00,0.177968,-1.000000,0.000000,0.000000,0.000000,0.000000,0.000000,0.000000,-0.000036,0.000000,-0.000107,0.000000,0.000000,0.000000,0.000000,819,819,819,819
9700,0,0.125000,-0.062500,-0.312500,-0.06,0.06,-0.109852,-1.000000,0.000000,0.000000,0.000000,0.000000,0.000000,0.000000,-0.000036,-0.000036,0.000066,0.000000,0.000000,0.000000,0.000000,819,819,819,819
9710,0,0.125000,-0.062500,-0.312500,0.00,0.06,-0.064868,-1.000000,0.000000,0.000000,0.000000,0.000000,0.000000,0.000000,-0.000000,-0.000036,0.000039,0.000000,0.000000,0.000000,0.000000,819,819,819,819
9720,0,0.125000,-0.062500,-0.312500,0.12,0.06,-0.121993,-1.000000,0.000000,0.000000,0.000000,0.000000,0.000000,0.000000,0.000072,-0.000036,0.000074,0.000000,0.000000,0.000000,0.000000,819,819,819,819
9730,0,0.125000,-0.062500,-0.312500,0.00,-0.18,-0.006100,-1.000000,0.000000,0.000000,0.000000,0.000000,0.000000,0.000000,-0.000000,0.000107,0.000004,0.000000,0.000000,0.000000,0.000000,819,819,819,819
9740,0,0.125000,-0.062500,-0.312500,0.00,-0.12,-0.119055,-1.000000,0.000000,0.000000,0.000000,0.000000,0.000000,0.000000,-0.000000,0.000072,0.000072,0.000000,0.000000,0.000000,0.000000,819,819,819,819
9750,0,0.125000,-0.062500,-0.312500,0.06,0.06,-0.005953,-1.000000,0.000000,0.000000,0.000000,0.000000,0.000000,0.000000,0.000036,-0.000036,0.000004,0.000000,0.000000,0.000000,0.000000,819,819,819,819
9760,0,0.125000,-0.062500,-0.312500,0.06,-0.06,-0.000298,-1.000000,0.000000,0.000000,0.000000,0.000000,0.000000,0.000000,0.000036,0.000036,0.000000,0.000000,0.000000,0.000000,0.000000,819,819,819,819
9770,0,0.125000,-0.062500,-0.312500,0.06,-0.18,-0.118765,-1.000000,0.000000,0.000000,0.000000,0.000000,0.000000,0.000000,0.000036,0.000107,0.000072,0.000000,0.000000,0.000000,0.000000,819,819,819,819
9780,0,0.125000,-0.062500,-0.312500,0.00,-0.24,0.053437,-1.000000,0.000000,0.000000,0.000000,0.000000,0.000000,0.000000,-0.000000,0.000143,-0.000032,0.000000,0.000000,0.000000,0.000000,819,819,819,819
9790,0,0.125000,-0.062500,-0.312500,0.06,0.00,0.062047,-1.000000,0.000000,0.000000,0.000000,0.000000,0.000000,0.000000,0.000036,0.000000,-0.000037,0.000000,0.000000,0.000000,0.000000,819,819,819,819
9800,0,0.125000,-0.062500,-0.312500,0.00,0.18,-0.056273,-1.000000,0.000000,0.000000,0.000000,0.000000,0.000000,0.000000,-0.000000,-0.000107,0.000034,0.000000,0.000000,0.000000,0.000000,819,819,819,819
9810,0,0.125000,-0.062500,-0.312500,0.06,0.00,-0.180939,-1.000000,0.000000,0.000000,0.000000,0.000000,0.000000,0.000000,0.000036,0.000000,0.000109,0.000000,0.000000,0.000000,0.000000,819,819,819,819
9820,0,0.125000,-0.062500,-0.312500,0.06,-0.18,0.050328,-1.000000,0.000000,0.000000,0.000000,0.000000,0.000000,0.000000,0.000036,0.000107,-0.000030,0.000000,0.000000,0.000000,0.000000,819,819,819,819
9830,0,0.125000,-0.062500,-0.312500,0.06,-0.24,-0.056859,-1.000000,0.000000,0.000000,0.000000,0.000000,0.000000,0.000000,0.000036,0.000143,0.000034,0.000000,0.000000,0.000000,0.000000,819,819,819,819
9848,0,0.125000,-0.062500,-0.312500,0.06,-0.12,0.056532,-1.000000,0.000000,0.000000,0.000000,0.000000,0.000000,0.000000,0.000036,0.000072,-0.000034,0.000000,0.000000,0.000000,0.000000,819,819,819,819
9859,0,0.125000,-0.062500,-0.312500,0.00,0.06,-0.056548,-1.000000,0.000000,0.000000,0.000000,0.000000,0.000000,0.000000,-0.000000,-0.000036,0.000034,0.000000,0.000000,0.000000,0.000000,819,819,819,819
9869,0,0.125000,-0.062500,-0.312500,0.00,0.18,-0.002827,-1.000000,0.000000,0.000000,0.000000,0.000000,0.000000,0.000000,-0.000000,-0.000107,0.000002,0.000000,0.000000,0.000000,0.000000,819,819,819,819
9880,0,0.125000,-0.062500,-0.312500,0.12,0.00,-0.118891,-1.000000,0.000000,0.000000,0.000000,0.000000,0.000000,0.000000,0.000072,0.000000,0.000072,0.000000,0.000000,0.000000,0.000000,819,819,819,819
9890,0,0.125000,-0.062500,-0.312500,0.06,-0.30,0.053430,-1.000000,0.000000,0.000000,0.000000,0.000000,0.000000,0.000000,0.000036,0.000179,-0.000032,0.000000,0.000000,0.000000,0.000000,819,819,819,819
9900,0,0.125000,-0.062500,-0.312500,0.00,-0.36,0.002672,-1.000000,0.000000,0.000000,0.000000,0.000000,0.000000,0.000000,-0.000000,0.000215,-0.000002,0.000000,0.000000,0.000000,0.000000,819,819,819,819
9912,0,0.125000,-0.062500,-0.312500,-0.06,0.12,0.000134,-1.000000,0.000000,0.000000,0.000000,0.000000,0.000000,0.000000,-0.000036,-0.000072,-0.000000,0.000000,0.000000,0.000000,0.000000,819,819,819,819
9922,0,0.125000,-0.062500,-0.312500,0.00,0.12,0.059382,-1.000000,0.000000,0.000000,0.000000,0.000000,0.000000,0.000000,-0.000000,-0.000072,-0.000036,0.000000,0.000000,0.000000,0.000000,819,819,819,819
9932,0,0.125000,-0.062500,-0.312500,0.12,0.06,-0.056406,-1.000000,0.000000,0.000000,0.000000,0.000000,0.000000,0.000000,0.000072,-0.000036,0.000034,0.000000,0.000000,0.000000,0.000000,819,819,819,819
9941,0,0.125000,-0.062500,-0.312500,0.00,-0.24,-0.062195,-1.000000,0.000000,0.000000,0.000000,0.000000,0.000000,0.000000,-0.000000,0.000143,0.000038,0.000000,0.000000,0.000000,0.000000,819,819,819,819
9951,0,0.125000,-0.062500,-0.312500,-0.06,-0.06,-0.121860,-1.000000,0.000000,0.000000,0.000000,0.000000,0.000000,0.000000,-0.000036,0.000036,0.000073,0.000000,0.000000,0.000000,0.000000,819,819,819,819
9960,0,0.125000,-0.062500,-0.312500,0.06,0.06,-0.065468,-1.000000,0.000000,0.000000,0.000000,0.000000,0.000000,0.000000,0.000036,-0.000036,0.000039,0.000000,0.000000,0.000000,0.000000,819,819,819,819
9970,0,0.125000,-0.062500,-0.312500,-0.06,0.12,0.056102,-1.000000,0.000000,0.000000,0.000000,0.000000,0.000000,0.000000,-0.000036,-0.000072,-0.000034,0.000000,0.000000,0.000000,0.000000,819,819,819,819
9980,0,0.125000,-0.062500,-0.312500,0.06,0.00,-0.056570,-1.000000,0.000000,0.000000,0.000000,0.000000,0.000000,0.000000,0.000036,0.000000,0.000034,0.000000,0.000000,0.000000,0.000000,819,819,819,819
9990,0,0.125000,-0.062500,-0.312500,0.06,-0.42,0.056547,-1.000000,0.000000,0.000000,0.000000,0.000000,0.000000,0.000000,0.000036,0.000251,-0.000034,0.000000,0.000000,0.000000,0.000000,819,819,819,819
10000,0,0.125000,-0.062500,-0.312500,0.00,-0.18,-0.115923,-1.000000,0.000000,0.000000,0.000000,0.000000,0.000000,0.000000,-0.000000,0.000107,0.000070,0.000000,0.000000,0.000000,0.000000,819,819,819,819
10010,0,0.125000,-0.062500,-0.312500,-0.06,-0.12,-0.065171,-1.000000,0.000000,0.000000,0.000000,0.000000,0.000000,0.000000,-0.000036,0.000072,0.000039,0.000000,0.000000,0.000000,0.000000,819,819,819,819
10020,0,0.125000,-0.062500,-0.312500,0.18,0.36,-0.240759,-1.000000,0.000000,0.000000,0.000000,0.000000,0.000000,0.000000,0.000107,-0.000215,0.000145,0.000000,0.000000,0.000000,0.000000,819,819,819,819
10030,0,0.125000,-0.062500,-0.312500,0.06,0.18,-0.130788,-1.000000,0.000000,0.000000,0.000000,0.000000,0.000000,0.000000,0.000036,-0.000107,0.000079,0.000000,0.000000,0.000000,0.000000,819,819,819,819
10040,0,0.125000,-0.062500,-0.312500,0.06,-0.12,-0.065914,-1.000000,0.000000,0.000000,0.000000,0.000000,0.000000,0.000000,0.000036,0.000072,0.000040,0.000000,0.000000,0.000000,0.000000,819,819,819,819
10051,0,0.125000,-0.062500,-0.312500,0.12,0.00,-0.181421,-1.000000,0.000000,0.000000,0.000000,0.000000,0.000000,0.000000,0.000072,0.000000,0.000109,0.000000,0.000000,0.000000,0.000000,819,819,819,819
10060,0,0.125000,-0.062500,-0.312500,0.06,0.30,0.109679,-1.000000,0.000000,0.000000,0.000000,0.000000,0.000000,0.000000,0.000036,-0.000179,-0.000066,0.000000,0.000000,0.000000,0.000000,819,819,819,819
10070,0,0.125000,-0.062500,-0.312500,0.00,0.36,0.242984,-1.000000,0.000000,0.000000,0.000000,0.000000,0.000000,0.000000,-0.000000,-0.000215,-0.000147,0.000000,0.000000,0.000000,0.000000,819,819,819,819
10080,0,0.125000,-0.062500,-0.312500,-0.06,-0.12,0.309024,-1.000000,0.000000,0.000000,0.000000,0.000000,0.000000,0.000000,-0.000036,0.000072,-0.000186,0.000000,0.000000,0.000000,0.000000,819,819,819,819
10090,0,0.125000,-0.062500,-0.312500,-0.06,-0.18,0.193576,-1.000000,0.000000,0.000000,0.000000,0.000000,0.000000,0.000000,-0.000036,0.000107,-0.000117,0.000000,0.000000,0.000000,0.000000,819,819,819,819
10101,0,0.125000,-0.062500,-0.312500,0.12,-0.24,-0.109071,-1.000000,0.000000,0.000000,0.000000,0.000000,0.000000,0.000000,0.000072,0.000143,0.000066,0.000000,0.000000,0.000000,0.000000,819,819,819,819
10111,0,0.125000,-0.062500,-0.312500,0.06,0.06,-0.242954,-1.000000,0.000000,0.000000,0.000000,0.000000,0.000000,0.000000,0.000036,-0.000036,0.000147,0.000000,0.000000,0.000000,0.000000,819,819,819,819
10121,0,0.125000,-0.062500,-0.312500,0.06,0.47,-0.427773,-1.000000,0.000000,0.000000,0.000000,0.000000,0.000000,0.000000,0.000036,-0.000286,0.000258,0.000000,0.000000,0.000000,0.000000,819,819,819,819
10131,0,0.125000,-0.062500,-0.312500,0.06,0.18,-0.437014,-1.000000,0.000000,0.000000,0.000000,0.000000,0.000000,0.000000,0.000036,-0.000107,0.000264,0.000000,0.000000,0.000000,0.000000,819,819,819,819
10141,0,0.125000,-0.062500,-0.312500,0.06,0.18,-0.259351,-1.000000,0.000000,0.000000,0.000000,0.000000,0.000000,0.000000,0.000036,-0.000107,0.000156,0.000000,0.000000,0.000000,0.000000,819,819,819,819
10151,0,0.125000,-0.062500,-0.312500,-0.06,-0.24,-0.072343,-1.000000,0.000000,0.000000,0.000000,0.000000,0.000000,0.000000,-0.000036,0.000143,0.000044,0.000000,0.000000,0.000000,0.000000,819,819,819,819
10169,0,0.125000,-0.062500,-0.312500,0.00,-0.18,0.352633,-1.000000,0.000000,0.000000,0.000000,0.000000,0.000000,0.000000,-0.000000,0.000107,-0.000213,0.000000,0.000000,0.000000,0.000000,819,819,819,819
