t,is_crashed,roll,pitch,yaw,p,q,r,throttle,p_cmd,q_cmd,r_cmd,roll_cmd,pitch_cmd,yaw_cmd,roll_pid_out,pitch_pid_out,yaw_pid_out,motor_fl,motor_bl,motor_fr,motor_br,pwm_fl,pwm_bl,pwm_fr,pwm_br
6992,0,0.462500,0.387500,0.012500,0.00,0.00,-0.000104,-1.000000,0.000000,0.000000,0.000000,0.000000,0.000000,0.000000,0.000000,-0.000000,0.000001,0.000000,0.000000,0.000000,0.000000,0,0,0,0
7004,0,0.740000,0.620000,0.022500,0.13,0.11,-0.000094,-1.000000,0.000000,0.000000,0.000000,0.000000,0.000000,0.000000,0.000503,-0.001059,0.000000,0.000000,0.000000,0.000000,0.000000,819,819,819,819
7013,0,0.962000,0.806000,0.030500,0.22,0.19,-0.000189,-1.000000,0.000000,0.000000,0.000000,0.000000,0.000000,0.000000,0.000895,-0.001888,0.000002,0.000000,0.000000,0.000000,0.000000,819,819,819,819
7023,0,1.139600,0.954800,0.036900,0.29,0.24,-0.000171,-1.000000,0.000000,0.000000,0.000000,0.000000,0.000000,0.000000,0.001159,-0.002445,0.000002,0.000000,0.000000,0.000000,0.000000,819,819,819,819
7033,0,1.281680,1.073840,0.042020,0.33,0.28,-0.000362,-1.000000,0.000000,0.000000,0.000000,0.000000,0.000000,0.000000,0.001327,-0.002794,0.000004,0.000000,0.000000,0.000000,0.000000,819,819,819,819
7043,0,1.395344,1.169072,0.046116,0.36,0.30,-0.000327,-1.000000,0.000000,0.000000,0.000000,0.000000,0.000000,0.000000,0.001421,-0.002992,0.000003,0.000000,0.000000,0.000000,0.000000,819,819,819,819
7053,0,1.486275,1.245258,0.049393,0.37,0.31,-0.000400,-1.000000,0.000000,0.000000,0.000000,0.000000,0.000000,0.000000,0.001461,-0.003071,0.000004,0.000000,0.000000,0.000000,0.000000,819,819,819,819
7063,0,1.559020,1.306206,0.052014,0.37,0.31,-0.000362,-1.000000,0.000000,0.000000,0.000000,0.000000,0.000000,0.000000,0.001461,-0.003068,0.000004,0.000000,0.000000,0.000000,0.000000,819,819,819,819
7073,0,1.617216,1.354965,0.054111,0.36,0.30,-0.000120,-1.000000,0.000000,0.000000,0.000000,0.000000,0.000000,0.000000,0.001432,-0.003006,0.000001,0.000000,0.000000,0.000000,0.000000,819,819,819,819
7083,0,1.663773,1.393972,0.055789,0.35,0.29,-0.000316,-1.000000,0.000000,0.000000,0.000000,0.000000,0.000000,0.000000,0.001384,-0.002902,0.000003,0.000000,0.000000,0.000000,0.000000,819,819,819,819
7093,0,1.701018,1.425177,0.057131,0.33,0.28,-0.000701,-1.000000,0.000000,0.000000,0.000000,0.000000,0.000000,0.000000,0.001322,-0.002770,0.000007,0.000000,0.000000,0.000000,0.000000,819,819,819,819
7103,0,1.730815,1.450142,0.058205,0.31,0.26,-0.000738,-1.000000,0.000000,0.000000,0.000000,0.000000,0.000000,0.000000,0.001252,-0.002620,0.000007,0.000000,0.000000,0.000000,0.000000,819,819,819,819
7113,0,1.754652,1.470114,0.059064,0.29,0.24,-0.000771,-1.000000,0.000000,0.000000,0.000000,0.000000,0.000000,0.000000,0.001176,-0.002459,0.000008,0.000000,0.000000,0.000000,0.000000,819,819,819,819
7123,0,1.773722,1.486091,0.059751,0.27,0.23,-0.000802,-1.000000,0.000000,0.000000,0.000000,0.000000,0.000000,0.000000,0.001099,-0.002297,0.000008,0.000000,0.000000,0.000000,0.000000,819,819,819,819
7133,0,1.788977,1.498873,0.060301,0.25,0.21,-0.000725,-1.000000,0.000000,0.000000,0.000000,0.000000,0.000000,0.000000,0.001023,-0.002132,0.000007,0.000000,0.000000,0.000000,0.000000,819,819,819,819
7143,0,1.801182,1.509098,0.060741,0.23,0.20,-0.000553,-1.000000,0.000000,0.000000,0.000000,0.000000,0.000000,0.000000,0.000948,-0.001972,0.000006,0.000000,0.000000,0.000000,0.000000,819,819,819,819
7153,0,1.810946,1.517278,0.061093,0.22,0.18,-0.000293,-1.000000,0.000000,0.000000,0.000000,0.000000,0.000000,0.000000,0.000875,-0.001819,0.000003,0.000000,0.000000,0.000000,0.000000,819,819,819,819
7163,0,1.818756,1.523823,0.061374,0.20,0.17,-0.000369,-1.000000,0.000000,0.000000,0.000000,0.000000,0.000000,0.000000,0.000806,-0.001672,0.000004,0.000000,0.000000,0.000000,0.000000,819,819,819,819
7173,0,1.825005,1.529058,0.061599,0.18,0.15,-0.000437,-1.000000,0.000000,0.000000,0.000000,0.000000,0.000000,0.000000,0.000740,-0.001533,0.000004,0.000000,0.000000,0.000000,0.000000,819,819,819,819
7183,0,1.830004,1.533246,0.061779,0.17,0.14,-0.000292,-1.000000,0.000000,0.000000,0.000000,0.000000,0.000000,0.000000,0.000678,-0.001405,0.000003,0.000000,0.000000,0.000000,0.000000,819,819,819,819
7193,0,1.834003,1.536597,0.061924,0.15,0.13,-0.000057,-1.000000,0.000000,0.000000,0.000000,0.000000,0.000000,0.000000,0.000621,-0.001284,0.000000,0.000000,0.000000,0.000000,0.000000,819,819,819,819
7203,0,1.837203,1.539278,0.062039,0.14,0.12,0.000052,-1.000000,0.000000,0.000000,0.000000,0.000000,0.000000,0.000000,0.000567,-0.001172,-0.000000,0.000000,0.000000,0.000000,0.000000,819,819,819,819
7213,0,1.839762,1.541422,0.062131,0.13,0.10,0.000358,-1.000000,0.000000,0.000000,0.000000,0.000000,0.000000,0.000000,0.000518,-0.001069,-0.000004,0.000000,0.000000,0.000000,0.000000,819,819,819,819
7223,0,1.841810,1.543138,0.062205,0.11,0.10,0.000220,-1.000000,0.000000,0.000000,0.000000,0.000000,0.000000,0.000000,0.000473,-0.000976,-0.000002,0.000000,0.000000,0.000000,0.000000,819,819,819,819
7233,0,1.843448,1.544510,0.062264,0.10,0.09,0.000199,-1.000000,0.000000,0.000000,0.000000,0.000000,0.000000,0.000000,0.000430,-0.000887,-0.000002,0.000000,0.000000,0.000000,0.000000,819,819,819,819
7243,0,1.844758,1.545608,0.062311,0.09,0.08,0.000077,-1.000000,0.000000,0.000000,0.000000,0.000000,0.000000,0.000000,0.000392,-0.000806,-0.000000,0.000000,0.000000,0.000000,0.000000,819,819,819,819
7253,0,1.845807,1.546486,0.062349,0.08,0.07,0.000069,-1.000000,0.000000,0.000000,0.000000,0.000000,0.000000,0.000000,0.000358,-0.000732,-0.000000,0.000000,0.000000,0.000000,0.000000,819,819,819,819
7271,0,1.846645,1.547189,0.062379,0.08,0.06,-0.000041,-1.000000,0.000000,0.000000,0.000000,0.000000,0.000000,0.000000,0.000326,-0.000663,0.000000,0.000000,0.000000,0.000000,0.000000,819,819,819,819
7283,0,1.847316,1.547751,0.062403,0.07,0.06,0.000274,-1.000000,0.000000,0.000000,0.000000,0.000000,0.000000,0.000000,0.000297,-0.000601,-0.000003,0.000000,0.000000,0.000000,0.000000,819,819,819,819
7293,0,1.847853,1.548201,0.062423,0.06,0.05,0.000144,-1.000000,0.000000,0.000000,0.000000,0.000000,0.000000,0.000000,0.000270,-0.000548,-0.000001,0.000000,0.000000,0.000000,0.000000,819,819,819,819
7303,0,1.848282,1.548561,0.062438,0.06,0.05,0.000131,-1.000000,0.000000,0.000000,0.000000,0.000000,0.000000,0.000000,0.000246,-0.000497,-0.000001,0.000000,0.000000,0.000000,0.000000,819,819,819,819
7313,0,1.848626,1.548849,0.062450,0.05,0.04,0.000118,-1.000000,0.000000,0.000000,0.000000,0.000000,0.000000,0.000000,0.000224,-0.000450,-0.000001,0.000000,0.000000,0.000000,0.000000,819,819,819,819
7323,0,1.848901,1.549079,0.062460,0.05,0.04,0.000211,-1.000000,0.000000,0.000000,0.000000,0.000000,0.000000,0.000000,0.000204,-0.000403,-0.000002,0.000000,0.000000,0.000000,0.000000,819,819,819,819
7333,0,1.849121,1.549263,0.062468,0.04,0.03,-0.000120,-1.000000,0.000000,0.000000,0.000000,0.000000,0.000000,0.000000,0.000187,-0.000364,0.000001,0.000000,0.000000,0.000000,0.000000,819,819,819,819
7343,0,1.849297,1.549410,0.062475,0.04,0.03,-0.000109,-1.000000,0.000000,0.000000,0.000000,0.000000,0.000000,0.000000,0.000171,-0.000335,0.000001,0.000000,0.000000,0.000000,0.000000,819,819,819,819
7353,0,1.849437,1.549528,0.062480,0.03,0.03,-0.000306,-1.000000,0.000000,0.000000,0.000000,0.000000,0.000000,0.000000,0.000157,-0.000307,0.000003,0.000000,0.000000,0.000000,0.000000,819,819,819,819
7363,0,1.849550,1.549623,0.062484,0.03,0.03,-0.000069,-1.000000,0.000000,0.000000,0.000000,0.000000,0.000000,0.000000,0.000144,-0.000279,0.000000,0.000000,0.000000,0.000000,0.000000,819,819,819,819
7373,0,1.849640,1.549698,0.062487,0.03,0.02,0.000041,-1.000000,0.000000,0.000000,0.000000,0.000000,0.000000,0.000000,0.000133,-0.000253,-0.000000,0.000000,0.000000,0.000000,0.000000,819,819,819,819
7384,0,1.849712,1.549758,0.062490,0.02,0.02,-0.000274,-1.000000,0.000000,0.000000,0.000000,0.000000,0.000000,0.000000,0.000122,-0.000226,0.000003,0.000000,0.000000,0.000000,0.000000,819,819,819,819
7393,0,1.849770,1.549807,0.062492,0.02,0.02,-0.000559,-1.000000,0.000000,0.000000,0.000000,0.000000,0.000000,0.000000,0.000113,-0.000203,0.000006,0.000000,0.000000,0.000000,0.000000,819,819,819,819
7403,0,1.849816,1.549845,0.062493,0.02,0.02,-0.000817,-1.000000,0.000000,0.000000,0.000000,0.000000,0.000000,0.000000,0.000104,-0.000188,0.000008,0.000000,0.000000,0.000000,0.000000,819,819,819,819
7414,0,1.849853,1.549876,0.062495,0.02,0.02,-0.001154,-1.000000,0.000000,0.000000,0.000000,0.000000,0.000000,0.000000,0.000096,-0.000175,0.000012,0.000000,0.000000,0.000000,0.000000,819,819,819,819
7423,0,1.849882,1.549901,0.062496,0.02,0.01,-0.000940,-1.000000,0.000000,0.000000,0.000000,0.000000,0.000000,0.000000,0.000089,-0.000162,0.000009,0.000000,0.000000,0.000000,0.000000,819,819,819,819
7434,0,1.849906,1.549921,0.062497,0.01,0.01,-0.000851,-1.000000,0.000000,0.000000,0.000000,0.000000,0.000000,0.000000,0.000082,-0.000146,0.000009,0.000000,0.000000,0.000000,0.000000,819,819,819,819
7443,0,1.849925,1.549937,0.062497,0.01,0.01,-0.000459,-1.000000,0.000000,0.000000,0.000000,0.000000,0.000000,0.000000,0.000076,-0.000129,0.000005,0.000000,0.000000,0.000000,0.000000,819,819,819,819
7454,0,1.849940,1.549949,0.062498,0.01,0.01,-0.000519,-1.000000,0.000000,0.000000,0.000000,0.000000,0.000000,0.000000,0.000071,-0.000117,0.000005,0.000000,0.000000,0.000000,0.000000,819,819,819,819
7464,0,1.849952,1.549959,0.062498,0.01,0.00,-0.000366,-1.000000,0.000000,0.000000,0.000000,0.000000,0.000000,0.000000,0.000066,-0.000106,0.000004,0.000000,0.000000,0.000000,0.000000,819,819,819,819
7474,0,1.849961,1.549967,0.062499,0.01,0.00,-0.000228,-1.000000,0.000000,0.000000,0.000000,0.000000,0.000000,0.000000,0.000062,-0.000098,0.000002,0.000000,0.000000,0.000000,0.000000,819,819,819,819
7484,0,1.849969,1.549974,0.062499,0.00,0.00,-0.000103,-1.000000,0.000000,0.000000,0.000000,0.000000,0.000000,0.000000,0.000059,-0.000091,0.000001,0.000000,0.000000,0.000000,0.000000,819,819,819,819
7494,0,1.849975,1.549979,0.062499,0.00,0.00,0.000114,-1.000000,0.000000,0.000000,0.000000,0.000000,0.000000,0.000000,0.000054,-0.000082,-0.000001,0.000000,0.000000,0.000000,0.000000,819,819,819,819
7504,0,1.849980,1.549983,0.062499,0.00,0.00,0.000104,-1.000000,0.000000,0.000000,0.000000,0.000000,0.000000,0.000000,0.000050,-0.000069,-0.000001,0.000000,0.000000,0.000000,0.000000,819,819,819,819
7514,0,1.849984,1.549987,0.062499,0.00,0.00,0.000508,-1.000000,0.000000,0.000000,0.000000,0.000000,0.000000,0.000000,0.000047,-0.000058,-0.000005,0.000000,0.000000,0.000000,0.000000,819,819,819,819
7524,0,1.849988,1.549989,0.062500,0.00,0.00,0.000771,-1.000000,0.000000,0.000000,0.000000,0.000000,0.000000,0.000000,0.000045,-0.000057,-0.000008,0.000000,0.000000,0.000000,0.000000,819,819,819,819
7534,0,1.849990,1.549991,0.062500,0.00,0.00,0.000905,-1.000000,0.000000,0.000000,0.000000,0.000000,0.000000,0.000000,0.000043,-0.000056,-0.000009,0.000000,0.000000,0.000000,0.000000,819,819,819,819
7544,0,1.849992,1.549993,0.062500,0.00,0.00,0.001337,-1.000000,0.000000,0.000000,0.000000,0.000000,0.000000,0.000000,0.000041,-0.000053,-0.000013,0.000000,0.000000,0.000000,0.000000,819,819,819,819
7554,0,1.849994,1.549994,0.062500,0.00,0.00,0.001106,-1.000000,0.000000,0.000000,0.000000,0.000000,0.000000,0.000000,0.000040,-0.000055,-0.000011,0.000000,0.000000,0.000000,0.000000,819,819,819,819
7564,0,1.849995,1.549995,0.062500,0.00,0.00,0.000794,-1.000000,0.000000,0.000000,0.000000,0.000000,0.000000,0.000000,0.000038,-0.000052,-0.000008,0.000000,0.000000,0.000000,0.000000,819,819,819,819
7574,0,1.849996,1.549996,0.062500,0.00,0.00,0.000719,-1.000000,0.000000,0.000000,0.000000,0.000000,0.000000,0.000000,0.000038,-0.000046,-0.000007,0.000000,0.000000,0.000000,0.000000,819,819,819,819
7589,0,1.849997,1.549997,0.062500,0.00,0.00,0.000547,-1.000000,0.000000,0.000000,0.000000,0.000000,0.000000,0.000000,0.000036,-0.000041,-0.000005,0.000000,0.000000,0.000000,0.000000,819,819,819,819
7601,0,1.849998,1.549998,0.062500,0.00,0.00,0.000495,-1.000000,0.000000,0.000000,0.000000,0.000000,0.000000,0.000000,0.000035,-0.000038,-0.000005,0.000000,0.000000,0.000000,0.000000,819,819,819,819
7613,0,1.849998,1.549998,0.062500,0.00,0.00,0.000655,-1.000000,0.000000,0.000000,0.000000,0.000000,0.000000,0.000000,0.000034,-0.000038,-0.000007,0.000000,0.000000,0.000000,0.000000,819,819,819,819
7624,0,1.849998,1.549998,0.062500,0.00,0.00,0.000800,-1.000000,0.000000,0.000000,0.000000,0.000000,0.000000,0.000000,0.000032,-0.000038,-0.000008,0.000000,0.000000,0.000000,0.000000,819,819,819,819
7634,0,1.849999,1.549999,0.062500,0.00,0.00,0.000828,-1.000000,0.000000,0.000000,0.000000,0.000000,0.000000,0.000000,0.000032,-0.000034,-0.000008,0.000000,0.000000,0.000000,0.000000,819,819,819,819
7644,0,1.849999,1.549999,0.062500,0.00,0.00,0.000749,-1.000000,0.000000,0.000000,0.000000,0.000000,0.000000,0.000000,0.000031,-0.000035,-0.000008,0.000000,0.000000,0.000000,0.000000,819,819,819,819
7654,0,1.849999,1.549999,0.062500,0.00,0.00,0.000574,-1.000000,0.000000,0.000000,0.000000,0.000000,0.000000,0.000000,0.000030,-0.000030,-0.000006,0.000000,0.000000,0.000000,0.000000,819,819,819,819
7664,0,1.849999,1.549999,0.062500,0.00,0.00,0.000520,-1.000000,0.000000,0.000000,0.000000,0.000000,0.000000,0.000000,0.000030,-0.000026,-0.000005,0.000000,0.000000,0.000000,0.000000,819,819,819,819
7674,0,1.850000,1.549999,0.062500,0.00,0.00,0.000367,-1.000000,0.000000,0.000000,0.000000,0.000000,0.000000,0.000000,0.000029,-0.000025,-0.000004,0.000000,0.000000,0.000000,0.000000,819,819,819,819
7684,0,1.850000,1.549999,0.062500,0.00,0.00,0.000435,-1.000000,0.000000,0.000000,0.000000,0.000000,0.000000,0.000000,0.000029,-0.000024,-0.000004,0.000000,0.000000,0.000000,0.000000,819,819,819,819
7694,0,1.850000,1.550000,0.062500,0.00,0.00,0.000809,-1.000000,0.000000,0.000000,0.000000,0.000000,0.000000,0.000000,0.000028,-0.000024,-0.000008,0.000000,0.000000,0.000000,0.000000,819,819,819,819
7704,0,1.850000,1.550000,0.062500,0.00,0.00,0.000939,-1.000000,0.000000,0.000000,0.000000,0.000000,0.000000,0.000000,0.000027,-0.000021,-0.000009,0.000000,0.000000,0.000000,0.000000,819,819,819,819
7714,0,1.850000,1.550000,0.062500,0.00,-0.00,0.001057,-1.000000,0.000000,0.000000,0.000000,0.000000,0.000000,0.000000,0.000026,-0.000018,-0.000011,0.000000,0.000000,0.000000,0.000000,819,819,819,819
7724,0,1.850000,1.550000,0.062500,0.00,-0.00,0.000957,-1.000000,0.000000,0.000000,0.000000,0.000000,0.000000,0.000000,0.000026,-0.000016,-0.000010,0.000000,0.000000,0.000000,0.000000,819,819,819,819
7734,0,1.850000,1.550000,0.062500,0.00,-0.00,0.000866,-1.000000,0.000000,0.000000,0.000000,0.000000,0.000000,0.000000,0.000025,-0.000016,-0.000009,0.000000,0.000000,0.000000,0.000000,819,819,819,819
7744,0,1.850000,1.550000,0.062500,0.00,-0.00,0.000576,-1.000000,0.000000,0.000000,0.000000,0.000000,0.000000,0.000000,0.000025,-0.000015,-0.000006,0.000000,0.000000,0.000000,0.000000,819,819,819,819
7754,0,1.850000,1.550000,0.062500,-0.00,-0.00,0.000314,-1.000000,0.000000,0.000000,0.000000,0.000000,0.000000,0.000000,0.000024,-0.000018,-0.000003,0.000000,0.000000,0.000000,0.000000,819,819,819,819
7764,0,1.850000,1.550000,0.062500,0.00,-0.00,0.000388,-1.000000,0.000000,0.000000,0.000000,0.000000,0.000000,0.000000,0.000025,-0.000019,-0.000004,0.000000,0.000000,0.000000,0.000000,819,819,819,819
7774,0,1.850000,1.550000,0.062500,0.00,-0.00,0.000455,-1.000000,0.000000,0.000000,0.000000,0.000000,0.000000,0.000000,0.000025,-0.000017,-0.000005,0.000000,0.000000,0.000000,0.000000,819,819,819,819
7784,0,1.850000,1.550000,0.062500,0.00,-0.00,0.000204,-1.000000,0.000000,0.000000,0.000000,0.000000,0.000000,0.000000,0.000025,-0.000013,-0.000002,0.000000,0.000000,0.000000,0.000000,819,819,819,819
7794,0,1.850000,1.550000,0.062500,0.00,-0.00,0.000496,-1.000000,0.000000,0.000000,0.000000,0.000000,0.000000,0.000000,0.000025,-0.000014,-0.000005,0.000000,0.000000,0.000000,0.000000,819,819,819,819
7804,0,1.850000,1.550000,0.062500,0.00,-0.00,0.000552,-1.000000,0.000000,0.000000,0.000000,0.000000,0.000000,0.000000,0.000026,-0.000016,-0.000006,0.000000,0.000000,0.000000,0.000000,819,819,819,819
7814,0,1.850000,1.550000,0.062500,0.00,-0.00,0.000396,-1.000000,0.000000,0.000000,0.000000,0.000000,0.000000,0.000000,0.000025,-0.000019,-0.000004,0.000000,0.000000,0.000000,0.000000,819,819,819,819
7824,0,1.850000,1.550000,0.062500,0.00,-0.00,0.000151,-1.000000,0.000000,0.000000,0.000000,0.000000,0.000000,0.000000,0.000025,-0.000018,-0.000002,0.000000,0.000000,0.000000,0.000000,819,819,819,819
7837,0,1.850000,1.550000,0.062500,0.00,-0.00,-0.000278,-1.000000,0.000000,0.000000,0.000000,0.000000,0.000000,0.000000,0.000026,-0.000017,0.000003,0.000000,0.000000,0.000000,0.000000,819,819,819,819
7846,0,1.850000,1.550000,0.062500,0.00,-0.00,-0.000251,-1.000000,0.000000,0.000000,0.000000,0.000000,0.000000,0.000000,0.000026,-0.000018,0.000002,0.000000,0.000000,0.000000,0.000000,819,819,819,819
7856,0,1.850000,1.550000,0.062500,0.00,-0.00,-0.000331,-1.000000,0.000000,0.000000,0.000000,0.000000,0.000000,0.000000,0.000025,-0.000019,0.000003,0.000000,0.000000,0.000000,0.000000,819,819,819,819
7866,0,1.850000,1.550000,0.062500,0.00,-0.00,-0.000196,-1.000000,0.000000,0.000000,0.000000,0.000000,0.000000,0.000000,0.000025,-0.000018,0.000002,0.000000,0.000000,0.000000,0.000000,819,819,819,819
7875,0,1.850000,1.550000,0.062500,0.00,-0.00,-0.000177,-1.000000,0.000000,0.000000,0.000000,0.000000,0.000000,0.000000,0.000024,-0.000019,0.000002,0.000000,0.000000,0.000000,0.000000,819,819,819,819
7885,0,1.850000,1.550000,0.062500,0.00,-0.00,-0.000471,-1.000000,0.000000,0.000000,0.000000,0.000000,0.000000,0.000000,0.000025,-0.000017,0.000005,0.000000,0.000000,0.000000,0.000000,819,819,819,819
7903,0,1.850000,1.550000,0.062500,0.00,-0.00,-0.000634,-1.000000,0.000000,0.000000,0.000000,0.000000,0.000000,0.000000,0.000025,-0.000018,0.000006,0.000000,0.000000,0.000000,0.000000,819,819,819,819
7914,0,1.850000,1.550000,0.062500,0.00,0.00,-0.000677,-1.000000,0.000000,0.000000,0.000000,0.000000,0.000000,0.000000,0.000025,-0.000022,0.000007,0.000000,0.000000,0.000000,0.000000,819,819,819,819
7924,0,1.850000,1.550000,0.062500,0.00,0.00,-0.000302,-1.000000,0.000000,0.000000,0.000000,0.000000,0.000000,0.000000,0.000024,-0.000022,0.000003,0.000000,0.000000,0.000000,0.000000,819,819,819,819
7935,0,1.850000,1.550000,0.062500,-0.00,-0.00,-0.000273,-1.000000,0.000000,0.000000,0.000000,0.000000,0.000000,0.000000,0.000024,-0.000019,0.000003,0.000000,0.000000,0.000000,0.000000,819,819,819,819
7945,0,1.850000,1.550000,0.062500,-0.00,-0.00,-0.000247,-1.000000,0.000000,0.000000,0.000000,0.000000,0.000000,0.000000,0.000023,-0.000017,0.000002,0.000000,0.000000,0.000000,0.000000,819,819,819,819
7955,0,1.850000,1.550000,0.062500,-0.00,-0.00,-0.000120,-1.000000,0.000000,0.000000,0.000000,0.000000,0.000000,0.000000,0.000022,-0.000017,0.000001,0.000000,0.000000,0.000000,0.000000,819,819,819,819
7965,0,1.850000,1.550000,0.062500,-0.00,-0.00,-0.000212,-1.000000,0.000000,0.000000,0.000000,0.000000,0.000000,0.000000,0.000023,-0.000019,0.000002,0.000000,0.000000,0.000000,0.000000,819,819,819,819
7975,0,1.850000,1.550000,0.062500,-0.00,-0.00,-0.000089,-1.000000,0.000000,0.000000,0.000000,0.000000,0.000000,0.000000,0.000022,-0.000019,0.000000,0.000000,0.000000,0.000000,0.000000,819,819,819,819
7985,0,1.850000,1.550000,0.062500,-0.00,-0.00,-0.000391,-1.000000,0.000000,0.000000,0.000000,0.000000,0.000000,0.000000,0.000022,-0.000019,0.000004,0.000000,0.000000,0.000000,0.000000,819,819,819,819
7995,0,1.850000,1.550000,0.062500,-0.00,-0.00,-0.000561,-1.000000,0.000000,0.000000,0.000000,0.000000,0.000000,0.000000,0.000022,-0.000020,0.000006,0.000000,0.000000,0.000000,0.000000,819,819,819,819
8005,0,1.850000,1.550000,0.062500,-0.00,0.00,-0.000715,-1.000000,0.000000,0.000000,0.000000,0.000000,0.000000,0.000000,0.000021,-0.000022,0.000007,0.000000,0.000000,0.000000,0.000000,819,819,819,819
8015,0,1.850000,1.550000,0.062500,-0.00,0.00,-0.000854,-1.000000,0.000000,0.000000,0.000000,0.000000,0.000000,0.000000,0.000022,-0.000021,0.000009,0.000000,0.000000,0.000000,0.000000,819,819,819,819
8025,0,1.850000,1.550000,0.062500,-0.00,-0.00,-0.000566,-1.000000,0.000000,0.000000,0.000000,0.000000,0.000000,0.000000,0.000021,-0.000020,0.000006,0.000000,0.000000,0.000000,0.000000,819,819,819,819
8035,0,1.850000,1.550000,0.062500,-0.00,-0.00,-0.000512,-1.000000,0.000000,0.000000,0.000000,0.000000,0.000000,0.000000,0.000022,-0.000019,0.000005,0.000000,0.000000,0.000000,0.000000,819,819,819,819
8045,0,1.850000,1.550000,0.062500,-0.00,-0.00,-0.000464,-1.000000,0.000000,0.000000,0.000000,0.000000,0.000000,0.000000,0.000022,-0.000017,0.000005,0.000000,0.000000,0.000000,0.000000,819,819,819,819
8055,0,1.850000,1.550000,0.062500,-0.00,-0.00,-0.000420,-1.000000,0.000000,0.000000,0.000000,0.000000,0.000000,0.000000,0.000022,-0.000016,0.000004,0.000000,0.000000,0.000000,0.000000,819,819,819,819
8065,0,1.850000,1.550000,0.062500,-0.00,-0.00,-0.000483,-1.000000,0.000000,0.000000,0.000000,0.000000,0.000000,0.000000,0.000022,-0.000016,0.000005,0.000000,0.000000,0.000000,0.000000,819,819,819,819
8075,0,1.850000,1.550000,0.062500,-0.00,-0.00,-0.000645,-1.000000,0.000000,0.000000,0.000000,0.000000,0.000000,0.000000,0.000022,-0.000019,0.000006,0.000000,0.000000,0.000000,0.000000,819,819,819,819
8085,0,1.850000,1.550000,0.062500,-0.00,-0.00,-0.000583,-1.000000,0.000000,0.000000,0.000000,0.000000,0.000000,0.000000,0.000022,-0.000016,0.000006,0.000000,0.000000,0.000000,0.000000,819,819,819,819
8095,0,1.850000,1.550000,0.062500,-0.00,-0.00,-0.000735,-1.000000,0.000000,0.000000,0.000000,0.000000,0.000000,0.000000,0.000022,-0.000016,0.000007,0.000000,0.000000,0.000000,0.000000,819,819,819,819
8105,0,1.850000,1.550000,0.062500,-0.00,-0.00,-0.000769,-1.000000,0.000000,0.000000,0.000000,0.000000,0.000000,0.000000,0.000023,-0.000016,0.000008,0.000000,0.000000,0.000000,0.000000,819,819,819,819
8115,0,1.850000,1.550000,0.062500,-0.00,-0.00,-0.000696,-1.000000,0.000000,0.000000,0.000000,0.000000,0.000000,0.000000,0.000022,-0.000015,0.000007,0.000000,0.000000,0.000000,0.000000,819,819,819,819
8125,0,1.850000,1.550000,0.062500,-0.00,-0.00,-0.000526,-1.000000,0.000000,0.000000,0.000000,0.000000,0.000000,0.000000,0.000021,-0.000015,0.000005,0.000000,0.000000,0.000000,0.000000,819,819,819,819
8135,0,1.850000,1.550000,0.062500,-0.00,-0.00,-0.000373,-1.000000,0.000000,0.000000,0.000000,0.000000,0.000000,0.000000,0.000021,-0.000011,0.000004,0.000000,0.000000,0.000000,0.000000,819,819,819,819
8145,0,1.850000,1.550000,0.062500,-0.00,-0.00,-0.000337,-1.000000,0.000000,0.000000,0.000000,0.000000,0.000000,0.000000,0.000021,-0.000011,0.000003,0.000000,0.000000,0.000000,0.000000,819,819,819,819
8155,0,1.850000,1.550000,0.062500,-0.00,-0.00,-0.000305,-1.000000,0.000000,0.000000,0.000000,0.000000,0.000000,0.000000,0.000022,-0.000012,0.000003,0.000000,0.000000,0.000000,0.000000,819,819,819,819
8165,0,1.850000,1.550000,0.062500,-0.00,-0.00,-0.000276,-1.000000,0.000000,0.000000,0.000000,0.000000,0.000000,0.000000,0.000023,-0.000009,0.000003,0.000000,0.000000,0.000000,0.000000,819,819,819,819
8175,0,1.850000,1.550000,0.062500,-0.00,-0.00,-0.000250,-1.000000,0.000000,0.000000,0.000000,0.000000,0.000000,0.000000,0.000023,-0.000012,0.000003,0.000000,0.000000,0.000000,0.000000,819,819,819,819
8185,0,1.850000,1.550000,0.062500,-0.00,-0.00,-0.000433,-1.000000,0.000000,0.000000,0.000000,0.000000,0.000000,0.000000,0.000023,-0.000012,0.000004,0.000000,0.000000,0.000000,0.000000,819,819,819,819
8195,0,1.850000,1.550000,0.062500,-0.00,-0.00,-0.000289,-1.000000,0.000000,0.000000,0.000000,0.000000,0.000000,0.000000,0.000024,-0.000010,0.000003,0.000000,0.000000,0.000000,0.000000,819,819,819,819
8205,0,1.850000,1.550000,0.062500,0.00,-0.00,-0.000365,-1.000000,0.000000,0.000000,0.000000,0.000000,0.000000,0.000000,0.000025,-0.000013,0.000004,0.000000,0.000000,0.000000,0.000000,819,819,819,819
8223,0,1.850000,1.550000,0.062500,0.00,-0.00,-0.000641,-1.000000,0.000000,0.000000,0.000000,0.000000,0.000000,0.000000,0.000025,-0.000015,0.000006,0.000000,0.000000,0.000000,0.000000,819,819,819,819
8234,0,1.850000,1.550000,0.062500,0.00,-0.00,-0.000995,-1.000000,0.000000,0.000000,0.000000,0.000000,0.000000,0.000000,0.000026,-0.000016,0.000010,0.000000,0.000000,0.000000,0.000000,819,819,819,819
8246,0,1.850000,1.550000,0.062500,0.00,-0.00,-0.000900,-1.000000,0.000000,0.000000,0.000000,0.000000,0.000000,0.000000,0.000026,-0.000017,0.000009,0.000000,0.000000,0.000000,0.000000,819,819,819,819
8256,0,1.850000,1.550000,0.062500,0.00,-0.00,-0.000815,-1.000000,0.000000,0.000000,0.000000,0.000000,0.000000,0.000000,0.000025,-0.000019,0.000008,0.000000,0.000000,0.000000,0.000000,819,819,819,819
8266,0,1.850000,1.550000,0.062500,0.00,0.00,-0.000737,-1.000000,0.000000,0.000000,0.000000,0.000000,0.000000,0.000000,0.000026,-0.000021,0.000007,0.000000,0.000000,0.000000,0.000000,819,819,819,819
8275,0,1.850000,1.550000,0.062500,0.00,0.00,-0.000771,-1.000000,0.000000,0.000000,0.000000,0.000000,0.000000,0.000000,0.000026,-0.000020,0.000008,0.000000,0.000000,0.000000,0.000000,819,819,819,819
8285,0,1.850000,1.550000,0.062500,0.00,0.00,-0.000905,-1.000000,0.000000,0.000000,0.000000,0.000000,0.000000,0.000000,0.000026,-0.000020,0.000009,0.000000,0.000000,0.000000,0.000000,819,819,819,819
8295,0,1.850000,1.550000,0.062500,0.00,-0.00,-0.001026,-1.000000,0.000000,0.000000,0.000000,0.000000,0.000000,0.000000,0.000026,-0.000019,0.000010,0.000000,0.000000,0.000000,0.000000,819,819,819,819
8305,0,1.850000,1.550000,0.062500,0.00,-0.00,-0.000929,-1.000000,0.000000,0.000000,0.000000,0.000000,0.000000,0.000000,0.000026,-0.000015,0.000009,0.000000,0.000000,0.000000,0.000000,819,819,819,819
8315,0,1.850000,1.550000,0.062500,0.00,-0.00,-0.000944,-1.000000,0.000000,0.000000,0.000000,0.000000,0.000000,0.000000,0.000026,-0.000015,0.000010,0.000000,0.000000,0.000000,0.000000,819,819,819,819
8325,0,1.850000,1.550000,0.062500,0.00,-0.00,-0.001269,-1.000000,0.000000,0.000000,0.000000,0.000000,0.000000,0.000000,0.000026,-0.000013,0.000013,0.000000,0.000000,0.000000,0.000000,819,819,819,819
8336,0,1.850000,1.550000,0.062500,0.00,-0.00,-0.001356,-1.000000,0.000000,0.000000,0.000000,0.000000,0.000000,0.000000,0.000025,-0.000013,0.000014,0.000000,0.000000,0.000000,0.000000,819,819,819,819
8346,0,1.850000,1.550000,0.062500,0.00,-0.00,-0.001123,-1.000000,0.000000,0.000000,0.000000,0.000000,0.000000,0.000000,0.000026,-0.000013,0.000011,0.000000,0.000000,0.000000,0.000000,819,819,819,819
8355,0,1.850000,1.550000,0.062500,0.00,-0.00,-0.000913,-1.000000,0.000000,0.000000,0.000000,0.000000,0.000000,0.000000,0.000026,-0.000009,0.000009,0.000000,0.000000,0.000000,0.000000,819,819,819,819
8365,0,1.850000,1.550000,0.062500,0.00,-0.00,-0.000515,-1.000000,0.000000,0.000000,0.000000,0.000000,0.000000,0.000000,0.000026,-0.000009,0.000005,0.000000,0.000000,0.000000,0.000000,819,819,819,819
8375,0,1.850000,1.550000,0.062500,0.00,-0.00,-0.000674,-1.000000,0.000000,0.000000,0.000000,0.000000,0.000000,0.000000,0.000026,-0.000008,0.000007,0.000000,0.000000,0.000000,0.000000,819,819,819,819
8386,0,1.850000,1.550000,0.062500,0.00,-0.00,-0.000506,-1.000000,0.000000,0.000000,0.000000,0.000000,0.000000,0.000000,0.000026,-0.000008,0.000005,0.000000,0.000000,0.000000,0.000000,819,819,819,819
8396,0,1.850000,1.550000,0.062500,0.00,-0.00,-0.000872,-1.000000,0.000000,0.000000,0.000000,0.000000,0.000000,0.000000,0.000026,-0.000007,0.000009,0.000000,0.000000,0.000000,0.000000,819,819,819,819
8406,0,1.850000,1.550000,0.062500,0.00,-0.00,-0.001204,-1.000000,0.000000,0.000000,0.000000,0.000000,0.000000,0.000000,0.000027,-0.000011,0.000012,0.000000,0.000000,0.000000,0.000000,819,819,819,819
8416,0,1.850000,1.550000,0.062500,0.00,-0.00,-0.001297,-1.000000,0.000000,0.000000,0.000000,0.000000,0.000000,0.000000,0.000026,-0.000016,0.000013,0.000000,0.000000,0.000000,0.000000,819,819,819,819
8426,0,1.850000,1.550000,0.062500,0.00,-0.00,-0.001070,-1.000000,0.000000,0.000000,0.000000,0.000000,0.000000,0.000000,0.000026,-0.000019,0.000011,0.000000,0.000000,0.000000,0.000000,819,819,819,819
8436,0,1.850000,1.550000,0.062500,0.00,-0.00,-0.000968,-1.000000,0.000000,0.000000,0.000000,0.000000,0.000000,0.000000,0.000026,-0.000019,0.000010,0.000000,0.000000,0.000000,0.000000,819,819,819,819
8446,0,1.850000,1.550000,0.062500,0.00,-0.00,-0.000566,-1.000000,0.000000,0.000000,0.000000,0.000000,0.000000,0.000000,0.000026,-0.000015,0.000006,0.000000,0.000000,0.000000,0.000000,819,819,819,819
8455,0,1.850000,1.550000,0.062500,0.00,-0.00,-0.000408,-1.000000,0.000000,0.000000,0.000000,0.000000,0.000000,0.000000,0.000026,-0.000013,0.000004,0.000000,0.000000,0.000000,0.000000,819,819,819,819
8466,0,1.850000,1.550000,0.062500,0.00,-0.00,-0.000473,-1.000000,0.000000,0.000000,0.000000,0.000000,0.000000,0.000000,0.000028,-0.000010,0.000005,0.000000,0.000000,0.000000,0.000000,819,819,819,819
8475,0,1.850000,1.550000,0.062500,0.00,-0.00,-0.000532,-1.000000,0.000000,0.000000,0.000000,0.000000,0.000000,0.000000,0.000028,-0.000011,0.000005,0.000000,0.000000,0.000000,0.000000,819,819,819,819
8486,0,1.850000,1.550000,0.062500,0.00,-0.00,-0.000688,-1.000000,0.000000,0.000000,0.000000,0.000000,0.000000,0.000000,0.000029,-0.000013,0.000007,0.000000,0.000000,0.000000,0.000000,819,819,819,819
8496,0,1.850000,1.550000,0.062500,0.00,-0.00,-0.000934,-1.000000,0.000000,0.000000,0.000000,0.000000,0.000000,0.000000,0.000029,-0.000014,0.000009,0.000000,0.000000,0.000000,0.000000,819,819,819,819
8506,0,1.850000,1.550000,0.062500,0.00,-0.00,-0.001156,-1.000000,0.000000,0.000000,0.000000,0.000000,0.000000,0.000000,0.000029,-0.000018,0.000012,0.000000,0.000000,0.000000,0.000000,819,819,819,819
8516,0,1.850000,1.550000,0.062500,0.00,-0.00,-0.001046,-1.000000,0.000000,0.000000,0.000000,0.000000,0.000000,0.000000,0.000029,-0.000019,0.000011,0.000000,0.000000,0.000000,0.000000,819,819,819,819
8526,0,1.850000,1.550000,0.062500,0.00,-0.00,-0.000843,-1.000000,0.000000,0.000000,0.000000,0.000000,0.000000,0.000000,0.000030,-0.000019,0.000009,0.000000,0.000000,0.000000,0.000000,819,819,819,819
8542,0,1.850000,1.550000,0.062500,0.00,-0.00,-0.000867,-1.000000,0.000000,0.000000,0.000000,0.000000,0.000000,0.000000,0.000029,-0.000017,0.000009,0.000000,0.000000,0.000000,0.000000,819,819,819,819
8554,0,1.850000,1.550000,0.062500,0.00,-0.00,-0.000888,-1.000000,0.000000,0.000000,0.000000,0.000000,0.000000,0.000000,0.000029,-0.000016,0.000009,0.000000,0.000000,0.000000,0.000000,819,819,819,819
8566,0,1.850000,1.550000,0.062500,0.00,-0.00,-0.001115,-1.000000,0.000000,0.000000,0.000000,0.000000,0.000000,0.000000,0.000029,-0.000020,0.000011,0.000000,0.000000,0.000000,0.000000,819,819,819,819
8576,0,1.850000,1.550000,0.062500,0.00,0.00,-0.001423,-1.000000,0.000000,0.000000,0.000000,0.000000,0.000000,0.000000,0.000029,-0.000021,0.000014,0.000000,0.000000,0.000000,0.000000,819,819,819,819
8586,0,1.850000,1.550000,0.062500,0.00,0.00,-0.001495,-1.000000,0.000000,0.000000,0.000000,0.000000,0.000000,0.000000,0.000029,-0.000022,0.000015,0.000000,0.000000,0.000000,0.000000,819,819,819,819
8596,0,1.850000,1.550000,0.062500,0.00,-0.00,-0.000524,-1.000000,0.000000,0.000000,0.000000,0.000000,0.000000,0.000000,0.000029,-0.000013,0.000005,0.000000,0.000000,0.000000,0.000000,819,819,819,819
8606,0,1.850000,1.550000,0.062500,0.00,-0.00,0.000355,-1.000000,0.000000,0.000000,0.000000,0.000000,0.000000,0.000000,0.000029,-0.000006,-0.000003,0.000000,0.000000,0.000000,0.000000,819,819,819,819
8616,0,1.850000,1.550000,0.062500,0.00,-0.00,0.000735,-1.000000,0.000000,0.000000,0.000000,0.000000,0.000000,0.000000,0.000028,-0.000006,-0.000007,0.000000,0.000000,0.000000,0.000000,819,819,819,819
8626,0,1.850000,1.550000,0.062500,0.00,-0.00,0.000873,-1.000000,0.000000,0.000000,0.000000,0.000000,0.000000,0.000000,0.000028,-0.000011,-0.000009,0.000000,0.000000,0.000000,0.000000,819,819,819,819
8636,0,1.850000,1.550000,0.062500,0.00,-0.00,0.000375,-1.000000,0.000000,0.000000,0.000000,0.000000,0.000000,0.000000,0.000028,-0.000013,-0.000004,0.000000,0.000000,0.000000,0.000000,819,819,819,819
8646,0,1.850000,1.550000,0.062500,0.00,-0.00,-0.000489,-1.000000,0.000000,0.000000,0.000000,0.000000,0.000000,0.000000,0.000029,-0.000015,0.000005,0.000000,0.000000,0.000000,0.000000,819,819,819,819
8656,0,1.850000,1.550000,0.062500,0.00,-0.00,-0.001272,-1.000000,0.000000,0.000000,0.000000,0.000000,0.000000,0.000000,0.000029,-0.000018,0.000013,0.000000,0.000000,0.000000,0.000000,819,819,819,819
8666,0,1.850000,1.550000,0.062500,0.00,0.00,-0.001566,-1.000000,0.000000,0.000000,0.000000,0.000000,0.000000,0.000000,0.000030,-0.000021,0.000016,0.000000,0.000000,0.000000,0.000000,819,819,819,819
8676,0,1.850000,1.550000,0.062500,0.00,-0.00,-0.001106,-1.000000,0.000000,0.000000,0.000000,0.000000,0.000000,0.000000,0.000029,-0.000017,0.000011,0.000000,0.000000,0.000000,0.000000,819,819,819,819
8688,0,1.850000,1.550000,0.062500,0.00,-0.00,-0.000379,-1.000000,0.000000,0.000000,0.000000,0.000000,0.000000,0.000000,0.000028,-0.000014,0.000004,0.000000,0.000000,0.000000,0.000000,819,819,819,819
8698,0,1.850000,1.550000,0.062500,0.00,-0.00,0.000071,-1.000000,0.000000,0.000000,0.000000,0.000000,0.000000,0.000000,0.000027,-0.000013,-0.000000,0.000000,0.000000,0.000000,0.000000,819,819,819,819
8708,0,1.850000,1.550000,0.062500,0.00,-0.00,0.000376,-1.000000,0.000000,0.000000,0.000000,0.000000,0.000000,0.000000,0.000026,-0.000009,-0.000004,0.000000,0.000000,0.000000,0.000000,819,819,819,819
8717,0,1.850000,1.550000,0.062500,0.00,-0.00,0.000547,-1.000000,0.000000,0.000000,0.000000,0.000000,0.000000,0.000000,0.000027,-0.000010,-0.000005,0.000000,0.000000,0.000000,0.000000,819,819,819,819
8727,0,1.850000,1.550000,0.062500,0.00,-0.00,0.000495,-1.000000,0.000000,0.000000,0.000000,0.000000,0.000000,0.000000,0.000028,-0.000009,-0.000005,0.000000,0.000000,0.000000,0.000000,819,819,819,819
8737,0,1.850000,1.550000,0.062500,0.00,-0.00,-0.000277,-1.000000,0.000000,0.000000,0.000000,0.000000,0.000000,0.000000,0.000027,-0.000008,0.000003,0.000000,0.000000,0.000000,0.000000,819,819,819,819
8746,0,1.850000,1.550000,0.062500,0.00,-0.00,-0.001702,-1.000000,0.000000,0.000000,0.000000,0.000000,0.000000,0.000000,0.000027,-0.000010,0.000017,0.000000,0.000000,0.000000,0.000000,819,819,819,819
8756,0,1.850000,1.550000,0.062500,0.00,-0.00,-0.002369,-1.000000,0.000000,0.000000,0.000000,0.000000,0.000000,0.000000,0.000026,-0.000006,0.000024,0.000000,0.000000,0.000000,0.000000,819,819,819,819
8766,0,1.850000,1.550000,0.062500,0.00,-0.00,-0.002040,-1.000000,0.000000,0.000000,0.000000,0.000000,0.000000,0.000000,0.000026,-0.000006,0.000021,0.000000,0.000000,0.000000,0.000000,819,819,819,819
8776,0,1.850000,1.550000,0.062500,0.00,-0.00,-0.000810,-1.000000,0.000000,0.000000,0.000000,0.000000,0.000000,0.000000,0.000026,-0.000007,0.000008,0.000000,0.000000,0.000000,0.000000,819,819,819,819
8786,0,1.850000,1.550000,0.062500,0.00,-0.00,0.000407,-1.000000,0.000000,0.000000,0.000000,0.000000,0.000000,0.000000,0.000025,-0.000006,-0.000004,0.000000,0.000000,0.000000,0.000000,819,819,819,819
8796,0,1.850000,1.550000,0.062500,-0.00,-0.00,0.001404,-1.000000,0.000000,0.000000,0.000000,0.000000,0.000000,0.000000,0.000023,-0.000007,-0.000014,0.000000,0.000000,0.000000,0.000000,819,819,819,819
8806,0,1.850000,1.550000,0.062500,-0.00,-0.00,0.001478,-1.000000,0.000000,0.000000,0.000000,0.000000,0.000000,0.000000,0.000023,-0.000006,-0.000015,0.000000,0.000000,0.000000,0.000000,819,819,819,819
8816,0,1.850000,1.550000,0.062500,-0.00,-0.00,0.000716,-1.000000,0.000000,0.000000,0.000000,0.000000,0.000000,0.000000,0.000023,-0.000007,-0.000007,0.000000,0.000000,0.000000,0.000000,819,819,819,819
8826,0,1.850000,1.550000,0.062500,-0.00,-0.00,-0.000388,-1.000000,0.000000,0.000000,0.000000,0.000000,0.000000,0.000000,0.000023,-0.000014,0.000004,0.000000,0.000000,0.000000,0.000000,819,819,819,819
8836,0,1.850000,1.550000,0.062500,-0.00,-0.00,-0.001388,-1.000000,0.000000,0.000000,0.000000,0.000000,0.000000,0.000000,0.000023,-0.000016,0.000014,0.000000,0.000000,0.000000,0.000000,819,819,819,819
8854,0,1.850000,1.550000,0.062500,-0.00,-0.00,-0.001878,-1.000000,0.000000,0.000000,0.000000,0.000000,0.000000,0.000000,0.000022,-0.000017,0.000019,0.000000,0.000000,0.000000,0.000000,819,819,819,819
8865,0,1.850000,1.550000,0.062500,-0.00,-0.00,-0.001803,-1.000000,0.000000,0.000000,0.000000,0.000000,0.000000,0.000000,0.000022,-0.000012,0.000018,0.000000,0.000000,0.000000,0.000000,819,819,819,819
8876,0,1.850000,1.550000,0.062500,-0.00,-0.00,-0.001010,-1.000000,0.000000,0.000000,0.000000,0.000000,0.000000,0.000000,0.000022,-0.000011,0.000010,0.000000,0.000000,0.000000,0.000000,819,819,819,819
8886,0,1.850000,1.550000,0.062500,-0.00,-0.00,-0.000292,-1.000000,0.000000,0.000000,0.000000,0.000000,0.000000,0.000000,0.000022,-0.000014,0.000003,0.000000,0.000000,0.000000,0.000000,819,819,819,819
8896,0,1.850000,1.550000,0.062500,-0.00,0.00,0.000254,-1.000000,0.000000,0.000000,0.000000,0.000000,0.000000,0.000000,0.000023,-0.000020,-0.000002,0.000000,0.000000,0.000000,0.000000,819,819,819,819
8906,0,1.850000,1.550000,0.062500,-0.00,0.00,0.000126,-1.000000,0.000000,0.000000,0.000000,0.000000,0.000000,0.000000,0.000023,-0.000026,-0.000001,0.000000,0.000000,0.000000,0.000000,819,819,819,819
8916,0,1.850000,1.550000,0.062500,-0.00,0.00,-0.000197,-1.000000,0.000000,0.000000,0.000000,0.000000,0.000000,0.000000,0.000022,-0.000023,0.000002,0.000000,0.000000,0.000000,0.000000,819,819,819,819
8926,0,1.850000,1.550000,0.062500,-0.00,-0.00,-0.000904,-1.000000,0.000000,0.000000,0.000000,0.000000,0.000000,0.000000,0.000023,-0.000018,0.000009,0.000000,0.000000,0.000000,0.000000,819,819,819,819
8937,0,1.850000,1.550000,0.062500,-0.00,-0.00,-0.001543,-1.000000,0.000000,0.000000,0.000000,0.000000,0.000000,0.000000,0.000023,-0.000008,0.000016,0.000000,0.000000,0.000000,0.000000,819,819,819,819
8947,0,1.850000,1.550000,0.062500,-0.00,-0.00,-0.001915,-1.000000,0.000000,0.000000,0.000000,0.000000,0.000000,0.000000,0.000022,-0.000009,0.000019,0.000000,0.000000,0.000000,0.000000,819,819,819,819
8956,0,1.850000,1.550000,0.062500,-0.00,-0.00,-0.001940,-1.000000,0.000000,0.000000,0.000000,0.000000,0.000000,0.000000,0.000022,-0.000015,0.000020,0.000000,0.000000,0.000000,0.000000,819,819,819,819
8966,0,1.850000,1.550000,0.062500,-0.00,0.00,-0.001756,-1.000000,0.000000,0.000000,0.000000,0.000000,0.000000,0.000000,0.000021,-0.000021,0.000018,0.000000,0.000000,0.000000,0.000000,819,819,819,819
8977,0,1.850000,1.550000,0.062500,-0.00,0.00,-0.001382,-1.000000,0.000000,0.000000,0.000000,0.000000,0.000000,0.000000,0.000021,-0.000022,0.000014,0.000000,0.000000,0.000000,0.000000,819,819,819,819
8987,0,1.850000,1.550000,0.062500,-0.00,-0.00,-0.001043,-1.000000,0.000000,0.000000,0.000000,0.000000,0.000000,0.000000,0.000022,-0.000018,0.000011,0.000000,0.000000,0.000000,0.000000,819,819,819,819
8997,0,1.850000,1.550000,0.062500,-0.00,-0.00,-0.000633,-1.000000,0.000000,0.000000,0.000000,0.000000,0.000000,0.000000,0.000022,-0.000010,0.000007,0.000000,0.000000,0.000000,0.000000,819,819,819,819
9007,0,1.850000,1.550000,0.062500,-0.00,-0.00,-0.000262,-1.000000,0.000000,0.000000,0.000000,0.000000,0.000000,0.000000,0.000022,-0.000004,0.000003,0.000000,0.000000,0.000000,0.000000,819,819,819,819
9017,0,1.850000,1.550000,0.062500,-0.00,-0.00,-0.000134,-1.000000,0.000000,0.000000,0.000000,0.000000,0.000000,0.000000,0.000022,-0.000005,0.000002,0.000000,0.000000,0.000000,0.000000,819,819,819,819
9027,0,1.850000,1.550000,0.062500,-0.00,-0.00,-0.000328,-1.000000,0.000000,0.000000,0.000000,0.000000,0.000000,0.000000,0.000022,-0.000011,0.000004,0.000000,0.000000,0.000000,0.000000,819,819,819,819
9037,0,1.850000,1.550000,0.062500,-0.00,-0.00,-0.000815,-1.000000,0.000000,0.000000,0.000000,0.000000,0.000000,0.000000,0.000023,-0.000012,0.000008,0.000000,0.000000,0.000000,0.000000,819,819,819,819
9047,0,1.850000,1.550000,0.062500,-0.00,-0.00,-0.001359,-1.000000,0.000000,0.000000,0.000000,0.000000,0.000000,0.000000,0.000022,-0.000009,0.000014,0.000000,0.000000,0.000000,0.000000,819,819,819,819
9057,0,1.850000,1.550000,0.062500,-0.00,-0.00,-0.001748,-1.000000,0.000000,0.000000,0.000000,0.000000,0.000000,0.000000,0.000022,-0.000005,0.000018,0.000000,0.000000,0.000000,0.000000,819,819,819,819
9067,0,1.850000,1.550000,0.062500,-0.00,-0.00,-0.002101,-1.000000,0.000000,0.000000,0.000000,0.000000,0.000000,0.000000,0.000022,0.000001,0.000021,0.000000,0.000000,0.000000,0.000000,819,819,819,819
9077,0,1.850000,1.550000,0.062500,-0.00,-0.00,-0.002005,-1.000000,0.000000,0.000000,0.000000,0.000000,0.000000,0.000000,0.000022,0.000003,0.000020,0.000000,0.000000,0.000000,0.000000,819,819,819,819
9087,0,1.850000,1.550000,0.062500,-0.00,-0.00,-0.001711,-1.000000,0.000000,0.000000,0.000000,0.000000,0.000000,0.000000,0.000022,0.000001,0.000017,0.000000,0.000000,0.000000,0.000000,819,819,819,819
9097,0,1.850000,1.550000,0.062500,-0.00,-0.00,-0.001548,-1.000000,0.000000,0.000000,0.000000,0.000000,0.000000,0.000000,0.000022,-0.000007,0.000016,0.000000,0.000000,0.000000,0.000000,819,819,819,819
9107,0,1.850000,1.550000,0.062500,-0.00,-0.00,-0.001505,-1.000000,0.000000,0.000000,0.000000,0.000000,0.000000,0.000000,0.000022,-0.000013,0.000015,0.000000,0.000000,0.000000,0.000000,819,819,819,819
9117,0,1.850000,1.550000,0.062500,-0.00,-0.00,-0.001258,-1.000000,0.000000,0.000000,0.000000,0.000000,0.000000,0.000000,0.000022,-0.000016,0.000013,0.000000,0.000000,0.000000,0.000000,819,819,819,819
9127,0,1.850000,1.550000,0.062500,-0.00,-0.00,-0.001139,-1.000000,0.000000,0.000000,0.000000,0.000000,0.000000,0.000000,0.000023,-0.000013,0.000012,0.000000,0.000000,0.000000,0.000000,819,819,819,819
9137,0,1.850000,1.550000,0.062500,-0.00,-0.00,-0.000823,-1.000000,0.000000,0.000000,0.000000,0.000000,0.000000,0.000000,0.000023,-0.000006,0.000009,0.000000,0.000000,0.000000,0.000000,819,819,819,819
9147,0,1.850000,1.550000,0.062500,-0.00,-0.00,-0.000434,-1.000000,0.000000,0.000000,0.000000,0.000000,0.000000,0.000000,0.000023,-0.000005,0.000005,0.000000,0.000000,0.000000,0.000000,819,819,819,819
9157,0,1.850000,1.550000,0.062500,-0.00,-0.00,-0.000496,-1.000000,0.000000,0.000000,0.000000,0.000000,0.000000,0.000000,0.000022,-0.000005,0.000005,0.000000,0.000000,0.000000,0.000000,819,819,819,819
9174,0,1.850000,1.550000,0.062500,-0.00,-0.00,-0.000864,-1.000000,0.000000,0.000000,0.000000,0.000000,0.000000,0.000000,0.000022,-0.000004,0.000009,0.000000,0.000000,0.000000,0.000000,819,819,819,819
9186,0,1.850000,1.550000,0.062500,-0.00,-0.00,-0.001300,-1.000000,0.000000,0.000000,0.000000,0.000000,0.000000,0.000000,0.000023,-0.000005,0.000013,0.000000,0.000000,0.000000,0.000000,819,819,819,819
9197,0,1.850000,1.550000,0.062500,-0.00,-0.00,-0.001591,-1.000000,0.000000,0.000000,0.000000,0.000000,0.000000,0.000000,0.000023,-0.000011,0.000016,0.000000,0.000000,0.000000,0.000000,819,819,819,819
9207,0,1.850000,1.550000,0.062500,-0.00,-0.00,-0.001440,-1.000000,0.000000,0.000000,0.000000,0.000000,0.000000,0.000000,0.000022,-0.000011,0.000015,0.000000,0.000000,0.000000,0.000000,819,819,819,819
9217,0,1.850000,1.550000,0.062500,-0.00,-0.00,-0.001199,-1.000000,0.000000,0.000000,0.000000,0.000000,0.000000,0.000000,0.000023,-0.000009,0.000012,0.000000,0.000000,0.000000,0.000000,819,819,819,819
9227,0,1.850000,1.550000,0.062500,-0.00,-0.00,-0.000982,-1.000000,0.000000,0.000000,0.000000,0.000000,0.000000,0.000000,0.000022,-0.000005,0.000010,0.000000,0.000000,0.000000,0.000000,819,819,819,819
9237,0,1.850000,1.550000,0.062500,-0.00,-0.00,-0.000889,-1.000000,0.000000,0.000000,0.000000,0.000000,0.000000,0.000000,0.000022,-0.000004,0.000009,0.000000,0.000000,0.000000,0.000000,819,819,819,819
9247,0,1.850000,1.550000,0.062500,-0.00,-0.00,-0.000908,-1.000000,0.000000,0.000000,0.000000,0.000000,0.000000,0.000000,0.000022,-0.000005,0.000009,0.000000,0.000000,0.000000,0.000000,819,819,819,819
9257,0,1.850000,1.550000,0.062500,-0.00,-0.00,-0.001029,-1.000000,0.000000,0.000000,0.000000,0.000000,0.000000,0.000000,0.000023,-0.000005,0.000011,0.000000,0.000000,0.000000,0.000000,819,819,819,819
9267,0,1.850000,1.550000,0.062500,-0.00,-0.00,-0.001346,-1.000000,0.000000,0.000000,0.000000,0.000000,0.000000,0.000000,0.000023,-0.000008,0.000014,0.000000,0.000000,0.000000,0.000000,819,819,819,819
9277,0,1.850000,1.550000,0.062500,-0.00,-0.00,-0.001529,-1.000000,0.000000,0.000000,0.000000,0.000000,0.000000,0.000000,0.000023,-0.000009,0.000016,0.000000,0.000000,0.000000,0.000000,819,819,819,819
9287,0,1.850000,1.550000,0.062500,-0.00,-0.00,-0.001591,-1.000000,0.000000,0.000000,0.000000,0.000000,0.000000,0.000000,0.000023,-0.000009,0.000016,0.000000,0.000000,0.000000,0.000000,819,819,819,819
9297,0,1.850000,1.550000,0.062500,-0.00,-0.00,-0.001336,-1.000000,0.000000,0.000000,0.000000,0.000000,0.000000,0.000000,0.000023,-0.000008,0.000014,0.000000,0.000000,0.000000,0.000000,819,819,819,819
9307,0,1.850000,1.550000,0.062500,-0.00,-0.00,-0.001002,-1.000000,0.000000,0.000000,0.000000,0.000000,0.000000,0.000000,0.000023,-0.000009,0.000010,0.000000,0.000000,0.000000,0.000000,819,819,819,819
9317,0,1.850000,1.550000,0.062500,-0.00,-0.00,-0.000285,-1.000000,0.000000,0.000000,0.000000,0.000000,0.000000,0.000000,0.000024,-0.000012,0.000003,0.000000,0.000000,0.000000,0.000000,819,819,819,819
9327,0,1.850000,1.550000,0.062500,-0.00,-0.00,0.000675,-1.000000,0.000000,0.000000,0.000000,0.000000,0.000000,0.000000,0.000023,-0.000018,-0.000006,0.000000,0.000000,0.000000,0.000000,819,819,819,819
9337,0,1.850000,1.550000,0.062500,-0.00,-0.00,0.000922,-1.000000,0.000000,0.000000,0.000000,0.000000,0.000000,0.000000,0.000023,-0.000016,-0.000009,0.000000,0.000000,0.000000,0.000000,819,819,819,819
9347,0,1.850000,1.550000,0.062500,-0.00,-0.00,0.000731,-1.000000,0.000000,0.000000,0.000000,0.000000,0.000000,0.000000,0.000022,-0.000018,-0.000007,0.000000,0.000000,0.000000,0.000000,819,819,819,819
9357,0,1.850000,1.550000,0.062500,-0.00,-0.00,0.000143,-1.000000,0.000000,0.000000,0.000000,0.000000,0.000000,0.000000,0.000022,-0.000018,-0.000001,0.000000,0.000000,0.000000,0.000000,819,819,819,819
9367,0,1.850000,1.550000,0.062500,-0.00,-0.00,-0.000700,-1.000000,0.000000,0.000000,0.000000,0.000000,0.000000,0.000000,0.000022,-0.000018,0.000007,0.000000,0.000000,0.000000,0.000000,819,819,819,819
9377,0,1.850000,1.550000,0.062500,-0.00,-0.00,-0.001255,-1.000000,0.000000,0.000000,0.000000,0.000000,0.000000,0.000000,0.000022,-0.000018,0.000013,0.000000,0.000000,0.000000,0.000000,819,819,819,819
9388,0,1.850000,1.550000,0.062500,-0.00,0.00,-0.001136,-1.000000,0.000000,0.000000,0.000000,0.000000,0.000000,0.000000,0.000023,-0.000022,0.000012,0.000000,0.000000,0.000000,0.000000,819,819,819,819
9397,0,1.850000,1.550000,0.062500,-0.00,0.00,-0.000821,-1.000000,0.000000,0.000000,0.000000,0.000000,0.000000,0.000000,0.000023,-0.000021,0.000009,0.000000,0.000000,0.000000,0.000000,819,819,819,819
9407,0,1.850000,1.550000,0.062500,-0.00,0.00,-0.000535,-1.000000,0.000000,0.000000,0.000000,0.000000,0.000000,0.000000,0.000023,-0.000021,0.000006,0.000000,0.000000,0.000000,0.000000,819,819,819,819
9417,0,1.850000,1.550000,0.062500,-0.00,-0.00,-0.000174,0.005000,0.000000,0.000000,0.000000,0.000000,0.000000,0.000000,0.000023,-0.000018,0.000002,0.000000,0.000000,0.000000,0.000000,819,819,819,819
9427,0,1.850000,1.550000,0.062500,-0.00,-0.00,0.000257,0.005000,0.000000,0.000000,0.000000,0.000000,0.000000,0.000000,0.000023,-0.000018,-0.000002,0.000000,0.000000,0.000000,0.000000,819,819,819,819
9438,0,1.850000,1.550000,0.062500,-0.00,0.00,0.000337,0.005000,0.000000,0.000000,0.000000,0.000000,0.000000,0.000000,0.000024,-0.000024,-0.000003,0.000000,0.000000,0.000000,0.000000,819,819,819,819
9448,0,1.850000,1.550000,0.062500,-0.00,0.00,0.000408,0.005000,0.000000,0.000000,0.000000,0.000000,0.000000,0.000000,0.000023,-0.000025,-0.000004,0.000000,0.000000,0.000000,0.000000,819,819,819,819
9458,0,1.850000,1.550000,0.062500,-0.00,0.00,0.000473,0.005000,0.000000,0.000000,0.000000,0.000000,0.000000,0.000000,0.000023,-0.000026,-0.000004,0.000000,0.000000,0.000000,0.000000,819,819,819,819
9468,0,1.850000,1.550000,0.062500,-0.00,0.00,0.000221,0.004000,0.000000,0.000000,0.000000,0.000000,0.000000,0.000000,0.000023,-0.000027,-0.000002,0.000000,0.000000,0.000000,0.000000,819,819,819,819
9478,0,1.850000,1.550000,0.062500,-0.00,0.00,-0.000007,0.004000,0.000000,0.000000,0.000000,0.000000,0.000000,0.000000,0.000022,-0.000029,0.000000,0.000000,0.000000,0.000000,0.000000,819,819,819,819
9493,0,1.850000,1.550000,0.062500,-0.00,0.00,-0.000318,0.004000,0.000000,0.000000,0.000000,0.000000,0.000000,0.000000,0.000022,-0.000026,0.000004,0.000000,0.000000,0.000000,0.000000,819,819,819,819
9505,0,1.850000,1.550000,0.062500,-0.00,0.00,-0.000598,0.005000,0.000000,0.000000,0.000000,0.000000,0.000000,0.000000,0.000022,-0.000025,0.000006,0.000000,0.000000,0.000000,0.000000,819,819,819,819
9516,0,1.850000,1.550000,0.062500,-0.00,0.00,-0.000541,0.005000,0.000000,0.000000,0.000000,0.000000,0.000000,0.000000,0.000023,-0.000023,0.000006,0.000000,0.000000,0.000000,0.000000,819,819,819,819
9569,0,1.850000,1.550000,0.062500,-0.00,0.00,-0.000490,0.005000,0.000000,0.000000,0.000000,0.000000,0.000000,0.000000,0.000024,-0.000023,0.000005,0.000000,0.000000,0.000000,0.000000,819,819,819,819
9580,0,1.850000,1.550000,0.062500,0.00,0.00,-0.000443,0.005000,0.000000,0.000000,0.000000,0.000000,0.000000,0.000000,0.000025,-0.000025,0.000005,0.000000,0.000000,0.000000,0.000000,819,819,819,819
9589,0,1.850000,1.550000,0.062500,0.00,0.00,-0.000298,0.005000,0.000000,0.000000,0.000000,0.000000,0.000000,0.000000,0.000025,-0.000026,0.000003,0.000000,0.000000,0.000000,0.000000,819,819,819,819
9599,0,1.850000,1.550000,0.062500,0.00,0.00,-0.000269,0.005000,0.000000,0.000000,0.000000,0.000000,0.000000,0.000000,0.000024,-0.000025,0.000003,0.000000,0.000000,0.000000,0.000000,819,819,819,819
9608,0,1.850000,1.550000,0.062500,0.00,0.00,-0.000347,0.005000,0.000000,0.000000,0.000000,0.000000,0.000000,0.000000,0.000024,-0.000020,0.000004,0.000000,0.000000,0.000000,0.000000,819,819,819,819
9618,0,1.850000,1.550000,0.062500,0.00,-0.00,-0.000107,0.005000,0.000000,0.000000,0.000000,0.000000,0.000000,0.000000,0.000024,-0.000018,0.000002,0.000000,0.000000,0.000000,0.000000,819,819,819,819
9628,0,1.850000,1.550000,0.062500,-0.00,-0.00,-0.000304,0.005000,0.000000,0.000000,0.000000,0.000000,0.000000,0.000000,0.000023,-0.000017,0.000003,0.000000,0.000000,0.000000,0.000000,819,819,819,819
9638,0,1.850000,1.550000,0.062500,-0.00,-0.00,-0.000275,0.005000,0.000000,0.000000,0.000000,0.000000,0.000000,0.000000,0.000023,-0.000016,0.000003,0.000000,0.000000,0.000000,0.000000,819,819,819,819
9648,0,1.850000,1.550000,0.062500,-0.00,-0.00,-0.000456,0.005000,0.000000,0.000000,0.000000,0.000000,0.000000,0.000000,0.000023,-0.000019,0.000005,0.000000,0.000000,0.000000,0.000000,819,819,819,819
9658,0,1.850000,1.550000,0.062500,-0.00,-0.00,-0.000517,0.005000,0.000000,0.000000,0.000000,0.000000,0.000000,0.000000,0.000023,-0.000017,0.000006,0.000000,0.000000,0.000000,0.000000,819,819,819,819
9668,0,1.850000,1.550000,0.062500,-0.00,-0.00,-0.000675,0.005000,0.000000,0.000000,0.000000,0.000000,0.000000,0.000000,0.000023,-0.000019,0.000007,0.000000,0.000000,0.000000,0.000000,819,819,819,819
9678,0,1.850000,1.550000,0.062500,-0.00,-0.00,-0.000611,0.005000,0.000000,0.000000,0.000000,0.000000,0.000000,0.000000,0.000023,-0.000018,0.000007,0.000000,0.000000,0.000000,0.000000,819,819,819,819
9688,0,1.850000,1.550000,0.062500,-0.00,-0.00,-0.000864,0.005000,0.000000,0.000000,0.000000,0.000000,0.000000,0.000000,0.000023,-0.000016,0.000009,0.000000,0.000000,0.000000,0.000000,819,819,819,819
9698,0,1.850000,1.550000,0.062500,-0.00,-0.00,-0.000989,0.005000,0.000000,0.000000,0.000000,0.000000,0.000000,0.000000,0.000022,-0.000012,0.000010,0.000000,0.000000,0.000000,0.000000,819,819,819,819
9708,0,1.850000,1.550000,0.062500,-0.00,-0.00,-0.000895,0.005000,0.000000,0.000000,0.000000,0.000000,0.000000,0.000000,0.000022,-0.000010,0.000009,0.000000,0.000000,0.000000,0.000000,819,819,819,819
9718,0,1.850000,1.550000,0.062500,-0.00,-0.00,-0.001121,0.004000,0.000000,0.000000,0.000000,0.000000,0.000000,0.000000,0.000022,-0.000011,0.000012,0.000000,0.000000,0.000000,0.000000,819,819,819,819
9728,0,1.850000,1.550000,0.062500,-0.00,-0.00,-0.000911,0.004000,0.000000,0.000000,0.000000,0.000000,0.000000,0.000000,0.000023,-0.000012,0.000010,0.000000,0.000000,0.000000,0.000000,819,819,819,819
9738,0,1.850000,1.550000,0.062500,-0.00,-0.00,-0.000721,0.004000,0.000000,0.000000,0.000000,0.000000,0.000000,0.000000,0.000022,-0.000010,0.000008,0.000000,0.000000,0.000000,0.000000,819,819,819,819
9748,0,1.850000,1.550000,0.062500,-0.00,-0.00,-0.000445,0.004000,0.000000,0.000000,0.000000,0.000000,0.000000,0.000000,0.000022,-0.000012,0.000005,0.000000,0.000000,0.000000,0.000000,819,819,819,819
9758,0,1.850000,1.550000,0.062500,-0.00,-0.00,-0.000299,0.005000,0.000000,0.000000,0.000000,0.000000,0.000000,0.000000,0.000022,-0.000009,0.000003,0.000000,0.000000,0.000000,0.000000,819,819,819,819
9768,0,1.850000,1.550000,0.062500,-0.00,-0.00,-0.000685,0.004000,0.000000,0.000000,0.000000,0.000000,0.000000,0.000000,0.000022,-0.000008,0.000007,0.000000,0.000000,0.000000,0.000000,819,819,819,819
9778,0,1.850000,1.550000,0.062500,-0.00,-0.00,-0.000931,0.004000,0.000000,0.000000,0.000000,0.000000,0.000000,0.000000,0.000022,-0.000010,0.000010,0.000000,0.000000,0.000000,0.000000,819,819,819,819
9788,0,1.850000,1.550000,0.062500,-0.00,-0.00,-0.001153,0.005000,0.000000,0.000000,0.000000,0.000000,0.000000,0.000000,0.000022,-0.000009,0.000012,0.000000,0.000000,0.000000,0.000000,819,819,819,819
9798,0,1.850000,1.550000,0.062500,-0.00,-0.00,-0.001251,0.005000,0.000000,0.000000,0.000000,0.000000,0.000000,0.000000,0.000022,-0.000011,0.000013,0.000000,0.000000,0.000000,0.000000,819,819,819,819
9808,0,1.850000,1.550000,0.062500,-0.00,-0.00,-0.001132,0.005000,0.000000,0.000000,0.000000,0.000000,0.000000,0.000000,0.000022,-0.000010,0.000012,0.000000,0.000000,0.000000,0.000000,819,819,819,819
9818,0,1.850000,1.550000,0.062500,-0.00,-0.00,-0.001128,0.005000,0.000000,0.000000,0.000000,0.000000,0.000000,0.000000,0.000023,-0.000009,0.000012,0.000000,0.000000,0.000000,0.000000,819,819,819,819
9828,0,1.850000,1.550000,0.062500,-0.00,-0.00,-0.001125,0.005000,0.000000,0.000000,0.000000,0.000000,0.000000,0.000000,0.000023,-0.000008,0.000012,0.000000,0.000000,0.000000,0.000000,819,819,819,819
9838,0,1.850000,1.550000,0.062500,-0.00,-0.00,-0.000914,0.005000,0.000000,0.000000,0.000000,0.000000,0.000000,0.000000,0.000023,-0.000007,0.000010,0.000000,0.000000,0.000000,0.000000,819,819,819,819
9848,0,1.850000,1.550000,0.062500,-0.00,-0.00,-0.000724,0.005000,0.000000,0.000000,0.000000,0.000000,0.000000,0.000000,0.000022,-0.000003,0.000008,0.000000,0.000000,0.000000,0.000000,819,819,819,819
9858,0,1.850000,1.550000,0.062500,-0.00,-0.00,-0.000759,0.005000,0.000000,0.000000,0.000000,0.000000,0.000000,0.000000,0.000022,-0.000003,0.000008,0.000000,0.000000,0.000000,0.000000,819,819,819,819
9868,0,1.850000,1.550000,0.062500,-0.00,-0.00,-0.000997,0.005000,0.000000,0.000000,0.000000,0.000000,0.000000,0.000000,0.000023,-0.000003,0.000011,0.000000,0.000000,0.000000,0.000000,819,819,819,819
9881,0,1.850000,1.550000,0.062500,-0.00,-0.00,-0.001006,0.005000,0.000000,0.000000,0.000000,0.000000,0.000000,0.000000,0.000024,-0.000003,0.000011,0.000000,0.000000,0.000000,0.000000,819,819,819,819
9891,0,1.850000,1.550000,0.062500,-0.00,-0.00,-0.001118,0.004000,0.000000,0.000000,0.000000,0.000000,0.000000,0.000000,0.000023,-0.000004,0.000012,0.000000,0.000000,0.000000,0.000000,819,819,819,819
9901,0,1.850000,1.550000,0.062500,-0.00,-0.00,-0.001426,0.004000,0.000000,0.000000,0.000000,0.000000,0.000000,0.000000,0.000023,-0.000007,0.000015,0.000000,0.000000,0.000000,0.000000,819,819,819,819
9911,0,1.850000,1.550000,0.062500,-0.00,-0.00,-0.001394,0.005000,0.000000,0.000000,0.000000,0.000000,0.000000,0.000000,0.000023,-0.000011,0.000015,0.000000,0.000000,0.000000,0.000000,819,819,819,819
9921,0,1.850000,1.550000,0.062500,-0.00,-0.00,-0.001573,0.005000,0.000000,0.000000,0.000000,0.000000,0.000000,0.000000,0.000024,-0.000011,0.000016,0.000000,0.000000,0.000000,0.000000,819,819,819,819
9930,0,1.850000,1.550000,0.062500,-0.00,-0.00,-0.001423,0.005000,0.000000,0.000000,0.000000,0.000000,0.000000,0.000000,0.000024,-0.000008,0.000015,0.000000,0.000000,0.000000,0.000000,819,819,819,819
9940,0,1.850000,1.550000,0.062500,-0.00,-0.00,-0.001288,0.005000,0.000000,0.000000,0.000000,0.000000,0.000000,0.000000,0.000024,-0.000010,0.000013,0.000000,0.000000,0.000000,0.000000,819,819,819,819
9950,0,1.850000,1.550000,0.062500,-0.00,-0.00,-0.000855,0.005000,0.000000,0.000000,0.000000,0.000000,0.000000,0.000000,0.000023,-0.000012,0.000009,0.000000,0.000000,0.000000,0.000000,819,819,819,819
9960,0,1.850000,1.550000,0.062500,-0.00,-0.00,-0.000566,0.005000,0.000000,0.000000,0.000000,0.000000,0.000000,0.000000,0.000024,-0.000012,0.000006,0.000000,0.000000,0.000000,0.000000,819,819,819,819
9969,0,1.850000,1.550000,0.062500,-0.00,-0.00,-0.000409,0.005000,0.000000,0.000000,0.000000,0.000000,0.000000,0.000000,0.000024,-0.000013,0.000005,0.000000,0.000000,0.000000,0.000000,819,819,819,819
9979,0,1.850000,1.550000,0.062500,-0.00,-0.00,-0.000577,0.004000,0.000000,0.000000,0.000000,0.000000,0.000000,0.000000,0.000024,-0.000010,0.000006,0.000000,0.000000,0.000000,0.000000,819,819,819,819
9989,0,1.850000,1.550000,0.062500,-0.00,-0.00,-0.000937,0.004000,0.000000,0.000000,0.000000,0.000000,0.000000,0.000000,0.000023,-0.000014,0.000010,0.000000,0.000000,0.000000,0.000000,819,819,819,819
9999,0,1.850000,1.550000,0.062500,-0.00,-0.00,-0.001366,0.005000,0.000000,0.000000,0.000000,0.000000,0.000000,0.000000,0.000023,-0.000015,0.000014,0.000000,0.000000,0.000000,0.000000,819,819,819,819
10009,0,1.850000,1.550000,0.062500,-0.00,-0.00,-0.001547,0.005000,0.000000,0.000000,0.000000,0.000000,0.000000,0.000000,0.000023,-0.000016,0.000016,0.000000,0.000000,0.000000,0.000000,819,819,819,819
10019,0,1.850000,1.550000,0.062500,-0.00,-0.00,-0.001297,0.005000,0.000000,0.000000,0.000000,0.000000,0.000000,0.000000,0.000023,-0.000018,0.000014,0.000000,0.000000,0.000000,0.000000,819,819,819,819
10029,0,1.850000,1.550000,0.062500,-0.00,-0.00,-0.001070,0.005000,0.000000,0.000000,0.000000,0.000000,0.000000,0.000000,0.000023,-0.000016,0.000011,0.000000,0.000000,0.000000,0.000000,819,819,819,819
10039,0,1.850000,1.550000,0.062500,-0.00,-0.00,-0.000968,0.005000,0.000000,0.000000,0.000000,0.000000,0.000000,0.000000,0.000023,-0.000018,0.000010,0.000000,0.000000,0.000000,0.000000,819,819,819,819
10049,0,1.850000,1.550000,0.062500,-0.00,-0.00,-0.000669,0.005000,0.000000,0.000000,0.000000,0.000000,0.000000,0.000000,0.000024,-0.000017,0.000007,0.000000,0.000000,0.000000,0.000000,819,819,819,819
10059,0,1.850000,1.550000,0.062500,-0.00,0.00,-0.000398,0.005000,0.000000,0.000000,0.000000,0.000000,0.000000,0.000000,0.000024,-0.000023,0.000005,0.000000,0.000000,0.000000,0.000000,819,819,819,819
10069,0,1.850000,1.550000,0.062500,-0.00,0.00,-0.000464,0.005000,0.000000,0.000000,0.000000,0.000000,0.000000,0.000000,0.000023,-0.000027,0.000005,0.000000,0.000000,0.000000,0.000000,819,819,819,819
10079,0,1.850000,1.550000,0.062500,-0.00,0.00,-0.000627,0.005000,0.000000,0.000000,0.000000,0.000000,0.000000,0.000000,0.000024,-0.000031,0.000007,0.000000,0.000000,0.000000,0.000000,819,819,819,819
10089,0,1.850000,1.550000,0.062500,-0.00,0.00,-0.000878,0.005000,0.000000,0.000000,0.000000,0.000000,0.000000,0.000000,0.000024,-0.000031,0.000009,0.000000,0.000000,0.000000,0.000000,819,819,819,819
10099,0,1.850000,1.550000,0.062500,-0.00,0.00,-0.000691,0.005000,0.000000,0.000000,0.000000,0.000000,0.000000,0.000000,0.000024,-0.000031,0.000008,0.000000,0.000000,0.000000,0.000000,819,819,819,819
