t,is_crashed,roll,pitch,yaw,p,q,r,throttle,p_cmd,q_cmd,r_cmd,roll_cmd,pitch_cmd,yaw_cmd,roll_pid_out,pitch_pid_out,yaw_pid_out,motor_fl,motor_bl,motor_fr,motor_br,pwm_fl,pwm_bl,pwm_fr,pwm_br
6973,0,0.005018,0.005890,1.256419,0.00,-0.00,-0.000005,0.004000,-0.000876,-0.000295,0.000000,0.000000,0.000000,0.000000,0.000090,-0.000000,0.000000,0.000000,0.000000,0.000000,0.000000,0,0,0,0
6985,0,0.008029,0.009425,2.261554,0.00,0.00,-0.000012,0.004000,-0.001301,-0.000398,0.000000,0.000000,0.000000,0.000000,0.000263,-0.000000,0.000000,0.000000,0.000000,0.000000,0.000000,819,819,819,819
6995,0,0.010437,0.012252,3.065662,0.00,0.00,-0.000009,0.004000,-0.001635,-0.000477,0.000000,0.000000,0.000000,0.000000,0.000408,-0.000000,0.000000,0.000000,0.000000,0.000000,0.000000,819,819,819,819
7005,0,0.012364,0.014514,-2.574237,0.00,0.00,0.000000,0.004000,-0.001913,-0.000548,0.000000,0.000000,0.000000,0.000000,0.000512,-0.000000,0.000000,0.000000,0.000000,0.000000,0.000000,819,819,819,819
7015,0,0.013905,0.016324,-2.059607,0.00,0.00,0.000006,0.004000,-0.002144,-0.000611,0.000000,0.000000,0.000000,0.000000,0.000584,-0.000000,0.000000,0.000000,0.000000,0.000000,0.000000,819,819,819,819
7025,0,0.015139,0.017771,-1.647904,0.00,0.00,0.000004,0.004000,-0.002338,-0.000668,0.000000,0.000000,0.000000,0.000000,0.000631,-0.000000,0.000000,0.000000,0.000000,0.000000,0.000000,819,819,819,819
7035,0,0.016125,0.018929,-1.318541,0.00,0.00,-0.000004,0.004000,-0.002502,-0.000719,0.000000,0.000000,0.000000,0.000000,0.000659,-0.000000,0.000000,0.000000,0.000000,0.000000,0.000000,819,819,819,819
7045,0,0.016914,0.019856,-1.055051,0.00,0.00,-0.000022,0.004000,-0.002639,-0.000765,0.000000,0.000000,0.000000,0.000000,0.000674,-0.000000,0.000000,0.000000,0.000000,0.000000,0.000000,819,819,819,819
7055,0,0.017546,0.020597,-0.844259,0.00,0.00,-0.000038,0.004000,-0.002755,-0.000807,0.000000,0.000000,0.000000,0.000000,0.000678,-0.000000,0.000000,0.000000,0.000000,0.000000,0.000000,819,819,819,819
7071,0,0.018051,0.021190,-0.675626,0.00,0.00,-0.000058,0.004000,-0.002862,-0.000849,0.000000,0.000000,0.000000,0.000000,0.000666,-0.000000,0.000000,0.000000,0.000000,0.000000,0.000000,819,819,819,819
7084,0,0.018455,0.021664,-0.540719,0.00,0.00,-0.000054,0.004000,-0.002949,-0.000885,0.000000,0.000000,0.000000,0.000000,0.000654,-0.000000,0.000000,0.000000,0.000000,0.000000,0.000000,819,819,819,819
7095,0,0.018778,0.022044,-0.432793,0.00,0.00,-0.000031,0.004000,-0.003021,-0.000916,0.000000,0.000000,0.000000,0.000000,0.000641,-0.000000,0.000000,0.000000,0.000000,0.000000,0.000000,819,819,819,819
7105,0,0.019037,0.022348,-0.346453,0.00,0.00,0.000001,0.004000,-0.003081,-0.000942,0.000000,0.000000,0.000000,0.000000,0.000627,-0.000000,0.000000,0.000000,0.000000,0.000000,0.000000,819,819,819,819
7115,0,0.019244,0.022590,-0.277381,0.00,0.00,0.000030,0.004000,-0.003133,-0.000966,0.000000,0.000000,0.000000,0.000000,0.000612,-0.000000,0.000000,0.000000,0.000000,0.000000,0.000000,819,819,819,819
7125,0,0.019409,0.022785,-0.222123,0.00,0.00,0.000042,0.004000,-0.003178,-0.000987,0.000000,0.000000,0.000000,0.000000,0.000596,-0.000000,0.000000,0.000000,0.000000,0.000000,0.000000,819,819,819,819
7135,0,0.019542,0.022940,-0.177917,0.00,0.00,0.000030,0.004000,-0.003217,-0.001006,0.000000,0.000000,0.000000,0.000000,0.000580,-0.000000,0.000000,0.000000,0.000000,0.000000,0.000000,819,819,819,819
7145,0,0.019648,0.023065,-0.142552,0.00,0.00,0.000011,0.004000,-0.003251,-0.001024,0.000000,0.000000,0.000000,0.000000,0.000564,-0.000000,0.000000,0.000000,0.000000,0.000000,0.000000,819,819,819,819
7155,0,0.019732,0.023164,-0.114260,0.00,0.00,-0.000015,0.004000,-0.003280,-0.001039,0.000000,0.000000,0.000000,0.000000,0.000548,-0.000000,0.000000,0.000000,0.000000,0.000000,0.000000,819,819,819,819
7165,0,0.019800,0.023244,-0.091626,0.00,0.00,-0.000030,0.004000,-0.003305,-0.001053,0.000000,0.000000,0.000000,0.000000,0.000533,-0.000000,0.000000,0.000000,0.000000,0.000000,0.000000,819,819,819,819
7175,0,0.019854,0.023307,-0.073519,0.00,0.00,-0.000016,0.004000,-0.003328,-0.001066,0.000000,0.000000,0.000000,0.000000,0.000519,-0.000000,0.000000,0.000000,0.000000,0.000000,0.000000,819,819,819,819
7185,0,0.019898,0.023358,-0.059034,0.00,0.00,0.000036,0.004000,-0.003348,-0.001077,0.000000,0.000000,0.000000,0.000000,0.000505,-0.000000,0.000000,0.000000,0.000000,0.000000,0.000000,819,819,819,819
7195,0,0.019932,0.023399,-0.047445,0.00,0.00,0.000108,0.004000,-0.003365,-0.001087,0.000000,0.000000,0.000000,0.000000,0.000493,-0.000000,0.000000,0.000000,0.000000,0.000000,0.000000,819,819,819,819
7205,0,0.019742,0.023432,-0.038174,0.00,0.00,0.000176,0.004000,-0.003351,-0.001095,0.000000,0.000000,0.000000,0.000000,0.000467,-0.000000,-0.000000,0.000000,0.000000,0.000000,0.000000,819,819,819,819
7215,0,0.019590,0.023458,-0.030758,0.00,0.00,0.000223,0.004000,-0.003340,-0.001104,0.000000,0.000000,0.000000,0.000000,0.000446,-0.000000,-0.000000,0.000000,0.000000,0.000000,0.000000,819,819,819,819
7225,0,0.019250,0.023478,-0.024824,0.00,0.00,0.000241,0.004000,-0.003302,-0.001112,0.000000,0.000000,0.000000,0.000000,0.000414,-0.000000,-0.000000,0.000000,0.000000,0.000000,0.000000,819,819,819,819
7235,0,0.018978,0.023495,-0.020078,0.00,0.00,0.000235,0.004000,-0.003271,-0.001119,0.000000,0.000000,0.000000,0.000000,0.000389,-0.000000,-0.000000,0.000000,0.000000,0.000000,0.000000,819,819,819,819
7246,0,0.018760,0.023509,-0.016280,0.00,0.00,0.000210,0.004000,-0.003245,-0.001125,0.000000,0.000000,0.000000,0.000000,0.000371,-0.000000,-0.000000,0.000000,0.000000,0.000000,0.000000,819,819,819,819
7256,0,0.018586,0.023519,-0.013243,0.00,0.00,0.000185,0.004000,-0.003225,-0.001130,0.000000,0.000000,0.000000,0.000000,0.000356,-0.000000,-0.000000,0.000000,0.000000,0.000000,0.000000,819,819,819,819
7265,0,0.018447,0.023528,-0.010812,0.00,0.00,0.000153,0.004000,-0.003209,-0.001134,0.000000,0.000000,0.000000,0.000000,0.000344,-0.000000,-0.000000,0.000000,0.000000,0.000000,0.000000,819,819,819,819
7276,0,0.018335,0.023535,-0.008868,0.00,0.00,0.000124,0.004000,-0.003194,-0.001138,0.000000,0.000000,0.000000,0.000000,0.000336,-0.000000,-0.000000,0.000000,0.000000,0.000000,0.000000,819,819,819,819
7286,0,0.018246,0.023540,-0.007313,0.00,0.00,0.000080,0.004000,-0.003183,-0.001142,0.000000,0.000000,0.000000,0.000000,0.000330,-0.000000,-0.000000,0.000000,0.000000,0.000000,0.000000,819,819,819,819
7295,0,0.018175,0.023544,-0.006069,-0.00,0.00,0.000021,0.004000,-0.003173,-0.001145,0.000000,0.000000,0.000000,0.000000,0.000325,-0.000000,-0.000000,0.000000,0.000000,0.000000,0.000000,819,819,819,819
7305,0,0.018336,0.023548,-0.005073,0.00,0.00,-0.000035,0.004000,-0.003195,-0.001148,0.000000,0.000000,0.000000,0.000000,0.000335,-0.000000,0.000000,0.000000,0.000000,0.000000,0.000000,819,819,819,819
7315,0,0.018465,0.023551,-0.004277,0.00,0.00,-0.000080,0.004000,-0.003213,-0.001151,0.000000,0.000000,0.000000,0.000000,0.000343,-0.000000,0.000000,0.000000,0.000000,0.000000,0.000000,819,819,819,819
7325,0,0.018568,0.023553,-0.003640,0.00,0.00,-0.000116,0.004000,-0.003228,-0.001154,0.000000,0.000000,0.000000,0.000000,0.000349,-0.000000,0.000000,0.000000,0.000000,0.000000,0.000000,819,819,819,819
7336,0,0.018650,0.023555,-0.003130,0.00,0.00,-0.000132,0.004000,-0.003240,-0.001157,0.000000,0.000000,0.000000,0.000000,0.000353,-0.000000,0.000000,0.000000,0.000000,0.000000,0.000000,819,819,819,819
7345,0,0.018935,0.023556,-0.002722,0.00,0.00,-0.000132,0.004000,-0.003279,-0.001160,0.000000,0.000000,0.000000,0.000000,0.000371,-0.000000,0.000000,0.000000,0.000000,0.000000,0.000000,819,819,819,819
7355,0,0.019162,0.023557,-0.002396,0.00,0.00,-0.000129,0.004000,-0.003312,-0.001163,0.000000,0.000000,0.000000,0.000000,0.000382,-0.000000,0.000000,0.000000,0.000000,0.000000,0.000000,819,819,819,819
7365,0,0.019344,0.023776,-0.002135,0.00,0.00,-0.000122,0.004000,-0.003340,-0.001170,0.000000,0.000000,0.000000,0.000000,0.000390,-0.000000,0.000000,0.000000,0.000000,0.000000,0.000000,819,819,819,819
7375,0,0.019489,0.023952,-0.001927,0.00,0.00,-0.000109,0.004000,-0.003363,-0.001176,0.000000,0.000000,0.000000,0.000000,0.000396,-0.000000,0.000000,0.000000,0.000000,0.000000,0.000000,819,819,819,819
7387,0,0.019606,0.024092,-0.001759,0.00,0.00,-0.000107,0.004000,-0.003383,-0.001182,0.000000,0.000000,0.000000,0.000000,0.000397,-0.000000,0.000000,0.000000,0.000000,0.000000,0.000000,819,819,819,819
7396,0,0.019699,0.024204,-0.001626,0.00,0.00,-0.000113,0.004000,-0.003399,-0.001186,0.000000,0.000000,0.000000,0.000000,0.000399,-0.000000,0.000000,0.000000,0.000000,0.000000,0.000000,819,819,819,819
7406,0,0.019773,0.024294,-0.001519,0.00,0.00,-0.000110,0.004000,-0.003413,-0.001190,0.000000,0.000000,0.000000,0.000000,0.000400,-0.000000,0.000000,0.000000,0.000000,0.000000,0.000000,819,819,819,819
7416,0,0.019833,0.024366,-0.001433,0.00,0.00,-0.000090,0.004000,-0.003425,-0.001194,0.000000,0.000000,0.000000,0.000000,0.000399,-0.000000,0.000000,0.000000,0.000000,0.000000,0.000000,819,819,819,819
7426,0,0.019881,0.024423,-0.001365,0.00,0.00,-0.000067,0.004000,-0.003435,-0.001198,0.000000,0.000000,0.000000,0.000000,0.000398,-0.000000,0.000000,0.000000,0.000000,0.000000,0.000000,819,819,819,819
7436,0,0.019919,0.024469,-0.001310,0.00,0.00,-0.000048,0.004000,-0.003444,-0.001202,0.000000,0.000000,0.000000,0.000000,0.000396,-0.000000,0.000000,0.000000,0.000000,0.000000,0.000000,819,819,819,819
7446,0,0.019949,0.024506,-0.001267,0.00,0.00,-0.000036,0.004000,-0.003452,-0.001205,0.000000,0.000000,0.000000,0.000000,0.000394,-0.000000,0.000000,0.000000,0.000000,0.000000,0.000000,819,819,819,819
7456,0,0.019974,0.024535,-0.001231,0.00,0.00,-0.000038,0.004000,-0.003458,-0.001209,0.000000,0.000000,0.000000,0.000000,0.000392,-0.000000,0.000000,0.000000,0.000000,0.000000,0.000000,819,819,819,819
7466,0,0.019993,0.024559,-0.001203,0.00,0.00,-0.000033,0.004000,-0.003464,-0.001211,0.000000,0.000000,0.000000,0.000000,0.000390,-0.000000,0.000000,0.000000,0.000000,0.000000,0.000000,819,819,819,819
7476,0,0.020009,0.024578,-0.001181,0.00,0.00,-0.000021,0.004000,-0.003468,-0.001213,0.000000,0.000000,0.000000,0.000000,0.000387,-0.000000,0.000000,0.000000,0.000000,0.000000,0.000000,819,819,819,819
7486,0,0.020021,0.024593,-0.001163,0.00,0.00,0.000007,0.004000,-0.003472,-0.001215,0.000000,0.000000,0.000000,0.000000,0.000385,-0.000000,-0.000000,0.000000,0.000000,0.000000,0.000000,819,819,819,819
7496,0,0.019813,0.024605,-0.001148,0.00,0.00,0.000051,0.004000,-0.003447,-0.001217,0.000000,0.000000,0.000000,0.000000,0.000369,-0.000000,-0.000000,0.000000,0.000000,0.000000,0.000000,819,819,819,819
7506,0,0.019647,0.024614,-0.001137,0.00,0.00,0.000086,0.004000,-0.003426,-0.001218,0.000000,0.000000,0.000000,0.000000,0.000357,-0.000000,-0.000000,0.000000,0.000000,0.000000,0.000000,819,819,819,819
7516,0,0.019513,0.024622,-0.001128,-0.00,0.00,0.000110,0.004000,-0.003408,-0.001220,0.000000,0.000000,0.000000,0.000000,0.000347,-0.000000,-0.000000,0.000000,0.000000,0.000000,0.000000,819,819,819,819
7526,0,0.019407,0.024628,-0.001121,-0.00,0.00,0.000118,0.004000,-0.003393,-0.001221,0.000000,0.000000,0.000000,0.000000,0.000341,-0.000000,-0.000000,0.000000,0.000000,0.000000,0.000000,819,819,819,819
7536,0,0.019322,0.024633,-0.001115,-0.00,0.00,0.000112,0.004000,-0.003381,-0.001222,0.000000,0.000000,0.000000,0.000000,0.000336,-0.000000,-0.000000,0.000000,0.000000,0.000000,0.000000,819,819,819,819
7546,0,0.019253,0.024637,-0.001110,-0.00,0.00,0.000109,0.004000,-0.003371,-0.001223,0.000000,0.000000,0.000000,0.000000,0.000333,-0.000000,-0.000000,0.000000,0.000000,0.000000,0.000000,819,819,819,819
7556,0,0.019199,0.024640,-0.001106,-0.00,0.00,0.000100,0.004000,-0.003363,-0.001223,0.000000,0.000000,0.000000,0.000000,0.000330,-0.000000,-0.000000,0.000000,0.000000,0.000000,0.000000,819,819,819,819
7566,0,0.019155,0.024643,-0.001103,-0.00,0.00,0.000100,0.004000,-0.003356,-0.001224,0.000000,0.000000,0.000000,0.000000,0.000329,-0.000000,-0.000000,0.000000,0.000000,0.000000,0.000000,819,819,819,819
7576,0,0.019120,0.024645,-0.001101,-0.00,0.00,0.000105,0.004000,-0.003350,-0.001224,0.000000,0.000000,0.000000,0.000000,0.000329,-0.000000,-0.000000,0.000000,0.000000,0.000000,0.000000,819,819,819,819
7586,0,0.019092,0.024646,-0.001099,-0.00,0.00,0.000109,0.004000,-0.003345,-0.001225,0.000000,0.000000,0.000000,0.000000,0.000328,-0.000000,-0.000000,0.000000,0.000000,0.000000,0.000000,819,819,819,819
7596,0,0.019070,0.024648,-0.001097,-0.00,0.00,0.000101,0.004000,-0.003340,-0.001226,0.000000,0.000000,0.000000,0.000000,0.000328,-0.000000,-0.000000,0.000000,0.000000,0.000000,0.000000,819,819,819,819
7606,0,0.019052,0.024649,-0.001096,-0.00,0.00,0.000088,0.004000,-0.003337,-0.001226,0.000000,0.000000,0.000000,0.000000,0.000329,-0.000000,-0.000000,0.000000,0.000000,0.000000,0.000000,819,819,819,819
7616,0,0.019038,0.024649,-0.001095,-0.00,0.00,0.000083,0.004000,-0.003334,-0.001225,0.000000,0.000000,0.000000,0.000000,0.000329,-0.000000,-0.000000,0.000000,0.000000,0.000000,0.000000,819,819,819,819
7626,0,0.019026,0.024432,-0.001095,-0.00,0.00,0.000062,0.004000,-0.003331,-0.001220,0.000000,0.000000,0.000000,0.000000,0.000329,-0.000000,-0.000000,0.000000,0.000000,0.000000,0.000000,819,819,819,819
7637,0,0.019017,0.024258,-0.001094,-0.00,-0.00,0.000027,0.004000,-0.003329,-0.001216,0.000000,0.000000,0.000000,0.000000,0.000330,-0.000000,-0.000000,0.000000,0.000000,0.000000,0.000000,819,819,819,819
7646,0,0.019010,0.024119,-0.001093,-0.00,-0.00,-0.000010,0.004000,-0.003327,-0.001212,0.000000,0.000000,0.000000,0.000000,0.000330,-0.000000,0.000000,0.000000,0.000000,0.000000,0.000000,819,819,819,819
7656,0,0.019004,0.024007,-0.001093,-0.00,-0.00,-0.000045,0.004000,-0.003325,-0.001209,0.000000,0.000000,0.000000,0.000000,0.000331,-0.000000,0.000000,0.000000,0.000000,0.000000,0.000000,819,819,819,819
7666,0,0.018999,0.023918,-0.001092,-0.00,-0.00,-0.000073,0.004000,-0.003324,-0.001206,0.000000,0.000000,0.000000,0.000000,0.000332,-0.000000,0.000000,0.000000,0.000000,0.000000,0.000000,819,819,819,819
7676,0,0.018995,0.023847,-0.001092,-0.00,-0.00,-0.000086,0.004000,-0.003323,-0.001202,0.000000,0.000000,0.000000,0.000000,0.000332,-0.000000,0.000000,0.000000,0.000000,0.000000,0.000000,819,819,819,819
7687,0,0.019211,0.023790,-0.001092,0.00,-0.00,-0.000091,0.004000,-0.003352,-0.001199,0.000000,0.000000,0.000000,0.000000,0.000346,-0.000000,0.000000,0.000000,0.000000,0.000000,0.000000,819,819,819,819
7701,0,0.019383,0.023744,-0.001092,0.00,-0.00,-0.000080,0.004000,-0.003377,-0.001196,0.000000,0.000000,0.000000,0.000000,0.000355,-0.000000,0.000000,0.000000,0.000000,0.000000,0.000000,819,819,819,819
7715,0,0.019520,0.023708,-0.001092,0.00,-0.00,-0.000067,0.004000,-0.003398,-0.001194,0.000000,0.000000,0.000000,0.000000,0.000362,-0.000000,0.000000,0.000000,0.000000,0.000000,0.000000,819,819,819,819
7726,0,0.019631,0.023679,-0.001092,0.00,-0.00,-0.000043,0.004000,-0.003414,-0.001192,0.000000,0.000000,0.000000,0.000000,0.000367,-0.000000,0.000000,0.000000,0.000000,0.000000,0.000000,819,819,819,819
7736,0,0.019501,0.023655,-0.001092,0.00,-0.00,-0.000026,0.004000,-0.003397,-0.001191,0.000000,0.000000,0.000000,0.000000,0.000358,-0.000000,0.000000,0.000000,0.000000,0.000000,0.000000,819,819,819,819
7746,0,0.019397,0.023637,-0.001092,0.00,-0.00,-0.000014,0.004000,-0.003384,-0.001189,0.000000,0.000000,0.000000,0.000000,0.000350,-0.000000,0.000000,0.000000,0.000000,0.000000,0.000000,819,819,819,819
7757,0,0.019313,0.023622,-0.001092,-0.00,-0.00,-0.000004,0.004000,-0.003372,-0.001188,0.000000,0.000000,0.000000,0.000000,0.000345,-0.000000,0.000000,0.000000,0.000000,0.000000,0.000000,819,819,819,819
7767,0,0.019247,0.023610,-0.001092,-0.00,-0.00,0.000013,0.004000,-0.003363,-0.001187,0.000000,0.000000,0.000000,0.000000,0.000341,-0.000000,-0.000000,0.000000,0.000000,0.000000,0.000000,819,819,819,819
7776,0,0.019194,0.023600,-0.001092,-0.00,-0.00,0.000028,0.004000,-0.003356,-0.001186,0.000000,0.000000,0.000000,0.000000,0.000337,-0.000000,-0.000000,0.000000,0.000000,0.000000,0.000000,819,819,819,819
7787,0,0.019151,0.023593,-0.001092,-0.00,-0.00,0.000043,0.004000,-0.003350,-0.001185,0.000000,0.000000,0.000000,0.000000,0.000335,-0.000000,-0.000000,0.000000,0.000000,0.000000,0.000000,819,819,819,819
7796,0,0.019117,0.023586,-0.001092,-0.00,-0.00,0.000052,0.004000,-0.003344,-0.001184,0.000000,0.000000,0.000000,0.000000,0.000334,-0.000000,-0.000000,0.000000,0.000000,0.000000,0.000000,819,819,819,819
7809,0,0.019090,0.023582,-0.001092,-0.00,-0.00,0.000054,0.004000,-0.003339,-0.001183,0.000000,0.000000,0.000000,0.000000,0.000334,-0.000000,-0.000000,0.000000,0.000000,0.000000,0.000000,819,819,819,819
7818,0,0.019068,0.023578,-0.001092,-0.00,-0.00,0.000045,0.004000,-0.003336,-0.001183,0.000000,0.000000,0.000000,0.000000,0.000333,-0.000000,-0.000000,0.000000,0.000000,0.000000,0.000000,819,819,819,819
7828,0,0.019050,0.023574,-0.001092,-0.00,-0.00,0.000036,0.005000,-0.003333,-0.001182,0.000000,0.000000,0.000000,0.000000,0.000333,-0.000000,-0.000000,0.000000,0.000000,0.000000,0.000000,819,819,819,819
7837,0,0.019036,0.023572,-0.001092,-0.00,-0.00,0.000034,0.005000,-0.003330,-0.001181,0.000000,0.000000,0.000000,0.000000,0.000333,-0.000000,-0.000000,0.000000,0.000000,0.000000,0.000000,819,819,819,819
7847,0,0.019025,0.023570,-0.001092,-0.00,-0.00,0.000033,0.005000,-0.003327,-0.001181,0.000000,0.000000,0.000000,0.000000,0.000334,-0.000000,-0.000000,0.000000,0.000000,0.000000,0.000000,819,819,819,819
7857,0,0.019016,0.023568,-0.001092,-0.00,-0.00,0.000037,0.005000,-0.003326,-0.001180,0.000000,0.000000,0.000000,0.000000,0.000334,-0.000000,-0.000000,0.000000,0.000000,0.000000,0.000000,819,819,819,819
7867,0,0.019009,0.023567,-0.001092,-0.00,-0.00,0.000048,0.005000,-0.003324,-0.001180,0.000000,0.000000,0.000000,0.000000,0.000334,-0.000000,-0.000000,0.000000,0.000000,0.000000,0.000000,819,819,819,819
7877,0,0.019003,0.023566,-0.001092,-0.00,-0.00,0.000049,0.005000,-0.003323,-0.001179,0.000000,0.000000,0.000000,0.000000,0.000334,-0.000000,-0.000000,0.000000,0.000000,0.000000,0.000000,819,819,819,819
7887,0,0.018999,0.023565,-0.001092,-0.00,-0.00,0.000042,0.005000,-0.003321,-0.001179,0.000000,0.000000,0.000000,0.000000,0.000335,-0.000000,-0.000000,0.000000,0.000000,0.000000,0.000000,819,819,819,819
7897,0,0.018995,0.023565,-0.001092,-0.00,-0.00,0.000027,0.005000,-0.003320,-0.001179,0.000000,0.000000,0.000000,0.000000,0.000335,-0.000000,-0.000000,0.000000,0.000000,0.000000,0.000000,819,819,819,819
7907,0,0.018992,0.023564,-0.001092,-0.00,-0.00,0.000005,0.005000,-0.003319,-0.001178,0.000000,0.000000,0.000000,0.000000,0.000336,-0.000000,-0.000000,0.000000,0.000000,0.000000,0.000000,819,819,819,819
7917,0,0.018990,0.023564,-0.001092,-0.00,0.00,-0.000008,0.005000,-0.003318,-0.001178,0.000000,0.000000,0.000000,0.000000,0.000336,-0.000000,0.000000,0.000000,0.000000,0.000000,0.000000,819,819,819,819
7927,0,0.018988,0.023563,-0.001092,-0.00,0.00,-0.000013,0.005000,-0.003318,-0.001178,0.000000,0.000000,0.000000,0.000000,0.000337,-0.000000,0.000000,0.000000,0.000000,0.000000,0.000000,819,819,819,819
7937,0,0.018986,0.023563,-0.001092,-0.00,0.00,-0.000012,0.005000,-0.003317,-0.001178,0.000000,0.000000,0.000000,0.000000,0.000337,-0.000000,0.000000,0.000000,0.000000,0.000000,0.000000,819,819,819,819
7947,0,0.018985,0.023563,-0.001092,-0.00,0.00,-0.000007,0.005000,-0.003317,-0.001178,0.000000,0.000000,0.000000,0.000000,0.000338,-0.000000,0.000000,0.000000,0.000000,0.000000,0.000000,819,819,819,819
7957,0,0.018984,0.023563,-0.001092,-0.00,0.00,0.000000,0.005000,-0.003316,-0.001178,0.000000,0.000000,0.000000,0.000000,0.000338,-0.000000,-0.000000,0.000000,0.000000,0.000000,0.000000,819,819,819,819
7967,0,0.018984,0.023563,-0.001092,-0.00,0.00,0.000008,0.005000,-0.003316,-0.001178,0.000000,0.000000,0.000000,0.000000,0.000338,-0.000000,-0.000000,0.000000,0.000000,0.000000,0.000000,819,819,819,819
7977,0,0.018983,0.023562,-0.001092,-0.00,0.00,0.000005,0.005000,-0.003315,-0.001178,0.000000,0.000000,0.000000,0.000000,0.000338,-0.000000,-0.000000,0.000000,0.000000,0.000000,0.000000,819,819,819,819
7987,0,0.018982,0.023562,-0.001092,-0.00,0.00,-0.000004,0.005000,-0.003315,-0.001178,0.000000,0.000000,0.000000,0.000000,0.000339,-0.000000,0.000000,0.000000,0.000000,0.000000,0.000000,819,819,819,819
7997,0,0.018982,0.023562,-0.001092,-0.00,0.00,-0.000009,0.005000,-0.003315,-0.001177,0.000000,0.000000,0.000000,0.000000,0.000339,-0.000000,0.000000,0.000000,0.000000,0.000000,0.000000,819,819,819,819
8012,0,0.018982,0.023562,-0.001092,-0.00,0.00,-0.000012,0.005000,-0.003315,-0.001177,0.000000,0.000000,0.000000,0.000000,0.000339,-0.000000,0.000000,0.000000,0.000000,0.000000,0.000000,819,819,819,819
8026,0,0.018981,0.023562,-0.001092,-0.00,0.00,-0.000009,0.006000,-0.003314,-0.001177,0.000000,0.000000,0.000000,0.000000,0.000339,-0.000000,0.000000,0.000000,0.000000,0.000000,0.000000,819,819,819,819
8037,0,0.018981,0.023562,-0.001092,-0.00,0.00,-0.000000,0.006000,-0.003314,-0.001177,0.000000,0.000000,0.000000,0.000000,0.000339,-0.000000,0.000000,0.000000,0.000000,0.000000,0.000000,819,819,819,819
8047,0,0.018981,0.023562,-0.001092,-0.00,0.00,-0.000000,0.006000,-0.003314,-0.001177,0.000000,0.000000,0.000000,0.000000,0.000340,-0.000000,0.000000,0.000000,0.000000,0.000000,0.000000,819,819,819,819
8057,0,0.018981,0.023562,-0.001092,-0.00,0.00,-0.000000,0.006000,-0.003314,-0.001177,0.000000,0.000000,0.000000,0.000000,0.000340,-0.000000,0.000000,0.000000,0.000000,0.000000,0.000000,819,819,819,819
8067,0,0.018981,0.023562,-0.001092,-0.00,0.00,0.000001,0.006000,-0.003314,-0.001177,0.000000,0.000000,0.000000,0.000000,0.000339,-0.000000,-0.000000,0.000000,0.000000,0.000000,0.000000,819,819,819,819
8077,0,0.018981,0.023562,-0.001092,-0.00,0.00,0.000010,0.006000,-0.003314,-0.001178,0.000000,0.000000,0.000000,0.000000,0.000339,-0.000000,-0.000000,0.000000,0.000000,0.000000,0.000000,819,819,819,819
8088,0,0.018981,0.023562,-0.001092,-0.00,0.00,0.000029,0.006000,-0.003314,-0.001178,0.000000,0.000000,0.000000,0.000000,0.000340,-0.000000,-0.000000,0.000000,0.000000,0.000000,0.000000,819,819,819,819
8097,0,0.018981,0.023562,-0.001092,-0.00,0.00,0.000039,0.006000,-0.003314,-0.001178,0.000000,0.000000,0.000000,0.000000,0.000340,-0.000000,-0.000000,0.000000,0.000000,0.000000,0.000000,819,819,819,819
8107,0,0.018981,0.023562,-0.001092,-0.00,0.00,0.000041,0.007000,-0.003314,-0.001177,0.000000,0.000000,0.000000,0.000000,0.000339,-0.000000,-0.000000,0.000000,0.000000,0.000000,0.000000,819,819,819,819
8118,0,0.018981,0.023562,-0.001092,-0.00,0.00,0.000044,0.007000,-0.003314,-0.001177,0.000000,0.000000,0.000000,0.000000,0.000339,-0.000000,-0.000000,0.000000,0.000000,0.000000,0.000000,819,819,819,819
8128,0,0.018981,0.023562,-0.001092,-0.00,0.00,0.000043,0.007000,-0.003314,-0.001177,0.000000,0.000000,0.000000,0.000000,0.000340,-0.000000,-0.000000,0.000000,0.000000,0.000000,0.000000,819,819,819,819
8138,0,0.018981,0.023562,-0.001092,-0.00,0.00,0.000041,0.007000,-0.003314,-0.001177,0.000000,0.000000,0.000000,0.000000,0.000340,-0.000000,-0.000000,0.000000,0.000000,0.000000,0.000000,819,819,819,819
8148,0,0.018981,0.023562,-0.001092,-0.00,0.00,0.000039,0.007000,-0.003314,-0.001177,0.000000,0.000000,0.000000,0.000000,0.000340,-0.000000,-0.000000,0.000000,0.000000,0.000000,0.000000,819,819,819,819
8158,0,0.018981,0.023562,-0.001092,-0.00,0.00,0.000041,0.007000,-0.003314,-0.001178,0.000000,0.000000,0.000000,0.000000,0.000340,-0.000000,-0.000000,0.000000,0.000000,0.000000,0.000000,819,819,819,819
8168,0,0.018981,0.023562,-0.001092,-0.00,0.00,0.000041,0.007000,-0.003314,-0.001178,0.000000,0.000000,0.000000,0.000000,0.000340,-0.000000,-0.000000,0.000000,0.000000,0.000000,0.000000,819,819,819,819
8178,0,0.018980,0.023562,-0.001092,-0.00,0.00,0.000033,0.007000,-0.003313,-0.001178,0.000000,0.000000,0.000000,0.000000,0.000340,-0.000000,-0.000000,0.000000,0.000000,0.000000,0.000000,819,819,819,819
8188,0,0.018980,0.023562,-0.001092,-0.00,-0.00,0.000026,0.007000,-0.003313,-0.001178,0.000000,0.000000,0.000000,0.000000,0.000341,-0.000000,-0.000000,0.000000,0.000000,0.000000,0.000000,819,819,819,819
8198,0,0.018980,0.023562,-0.001092,-0.00,0.00,0.000013,0.039000,-0.003313,-0.001178,0.000000,0.000000,0.000000,0.000000,0.000341,-0.000000,-0.000000,0.038659,0.038659,0.039341,0.039341,850,871,851,871
8208,0,0.018980,0.023562,-0.001092,0.00,0.00,0.000003,0.039000,-0.003313,-0.001177,0.000000,0.000000,0.000000,0.000000,0.000341,-0.000000,-0.000000,0.038659,0.038659,0.039341,0.039341,850,871,851,871
8218,0,0.018980,0.023562,-0.001092,0.00,0.00,-0.000005,0.039000,-0.003312,-0.001177,0.000000,0.000000,0.000000,0.000000,0.000341,-0.000000,0.000000,0.038659,0.038659,0.039341,0.039341,850,871,851,871
8228,0,0.018980,0.023562,-0.001092,0.00,0.00,-0.000012,0.082000,-0.003313,-0.001177,0.000000,0.000000,0.000000,0.000000,0.000341,-0.000000,0.000000,0.081659,0.081659,0.082341,0.082341,886,906,886,907
8238,0,0.018980,0.023562,-0.001092,-0.00,0.00,-0.000018,0.082000,-0.003313,-0.001177,0.000000,0.000000,0.000000,0.000000,0.000341,-0.000000,0.000000,0.081659,0.081659,0.082341,0.082341,886,906,886,907
8248,0,0.018980,0.023562,-0.001092,-0.00,0.00,-0.000023,0.082000,-0.003313,-0.001177,0.000000,0.000000,0.000000,0.000000,0.000341,-0.000000,0.000000,0.081659,0.081659,0.082341,0.082341,886,906,886,907
8258,0,0.018980,0.023562,-0.001092,0.00,0.00,-0.000026,0.113000,-0.003313,-0.001177,0.000000,0.000000,0.000000,0.000000,0.000341,-0.000000,0.000000,0.112659,0.112659,0.113341,0.113341,911,931,911,932
8268,0,0.018980,0.023562,-0.001092,0.00,0.00,-0.000020,0.118000,-0.003313,-0.001177,0.000000,0.000000,0.000000,0.000000,0.000341,-0.000000,0.000000,0.117659,0.117659,0.118341,0.118341,915,936,916,936
8278,0,0.018980,0.023562,-0.001092,-0.00,0.00,0.000005,0.118000,-0.003313,-0.001176,0.000000,0.000000,0.000000,0.000000,0.000341,-0.000000,-0.000000,0.117659,0.117659,0.118341,0.118341,915,936,916,936
8288,0,0.018980,0.023562,-0.001092,-0.00,0.00,-0.000003,0.122000,-0.003313,-0.001176,0.000000,0.000000,0.000000,0.000000,0.000341,-0.000000,0.000000,0.121659,0.121659,0.122341,0.122341,918,939,919,939
8298,0,0.018980,0.023562,-0.001092,-0.00,0.00,0.000001,0.127000,-0.003313,-0.001176,0.000000,0.000000,0.000000,0.000000,0.000341,-0.000000,-0.000000,0.126659,0.126659,0.127341,0.127341,922,943,923,943
8308,0,0.018980,0.023562,-0.001092,-0.00,0.00,0.000026,0.127000,-0.003314,-0.001176,0.000000,0.000000,0.000000,0.000000,0.000340,-0.000000,-0.000000,0.126660,0.126660,0.127340,0.127340,922,943,923,943
8318,0,0.018980,0.023562,-0.001092,-0.00,0.00,0.000049,0.127000,-0.003314,-0.001176,0.000000,0.000000,0.000000,0.000000,0.000339,-0.000000,-0.000000,0.126661,0.126661,0.127339,0.127339,922,943,923,943
8333,0,0.018980,0.023562,-0.001092,-0.00,0.00,0.000055,0.129000,-0.003314,-0.001176,0.000000,0.000000,0.000000,0.000000,0.000340,-0.000000,-0.000000,0.128660,0.128660,0.129340,0.129340,924,945,925,945
8347,0,0.018980,0.023562,-0.001092,-0.00,0.00,0.000041,0.129000,-0.003313,-0.001176,0.000000,0.000000,0.000000,0.000000,0.000340,-0.000000,-0.000000,0.128660,0.128660,0.129340,0.129340,924,945,925,945
8358,0,0.018980,0.023562,-0.001092,-0.00,0.00,0.000010,0.129000,-0.003313,-0.001176,0.000000,0.000000,0.000000,0.000000,0.000340,-0.000000,-0.000000,0.128660,0.128660,0.129340,0.129340,924,945,925,945
8369,0,0.018980,0.023562,-0.001092,-0.00,0.00,-0.000025,0.129000,-0.003313,-0.001176,0.000000,0.000000,0.000000,0.000000,0.000341,-0.000000,0.000000,0.128659,0.128659,0.129341,0.129341,924,945,925,945
8379,0,0.019199,0.023562,-0.001092,0.00,0.00,-0.000055,0.129000,-0.003341,-0.001175,0.000000,0.000000,0.000000,0.000000,0.000357,-0.000000,0.000000,0.128643,0.128643,0.129357,0.129357,924,945,925,945
8389,0,0.019373,0.023562,-0.001092,0.00,0.00,-0.000086,0.129000,-0.003364,-0.001175,0.000000,0.000000,0.000000,0.000000,0.000369,-0.000000,0.000000,0.128631,0.128631,0.129369,0.129369,924,944,925,945
8399,0,0.019513,0.023562,-0.001092,0.00,0.00,-0.000109,0.129000,-0.003383,-0.001175,0.000000,0.000000,0.000000,0.000000,0.000378,-0.000000,0.000000,0.128622,0.128622,0.129377,0.129377,924,944,925,945
8409,0,0.019624,0.023562,-0.001092,0.00,0.00,-0.000086,0.129000,-0.003399,-0.001174,0.000000,0.000000,0.000000,0.000000,0.000383,-0.000000,0.000000,0.128617,0.128617,0.129383,0.129383,924,944,925,945
8418,0,0.019714,0.023562,-0.001092,0.00,0.00,0.000034,0.129000,-0.003408,-0.001173,0.000000,0.000000,0.000000,0.000000,0.000392,-0.000000,-0.000000,0.128608,0.128608,0.129392,0.129392,924,944,925,945
8428,0,0.019567,0.023562,-0.001310,0.00,0.00,0.000203,0.129000,-0.003381,-0.001171,0.000000,0.000000,0.000000,0.000000,0.000391,-0.000000,-0.000000,0.128609,0.128609,0.129391,0.129391,924,944,925,945
8439,0,0.019232,0.023562,-0.001703,0.00,0.00,0.000218,0.129000,-0.003330,-0.001169,0.000000,0.000000,0.000000,0.000000,0.000377,-0.000000,-0.000000,0.128623,0.128623,0.129377,0.129377,924,944,925,945
8448,0,0.018963,0.023562,-0.002017,0.00,0.00,-0.000014,0.129000,-0.003296,-0.001168,0.000000,0.000000,0.000000,0.000000,0.000356,-0.000000,0.000000,0.128644,0.128644,0.129356,0.129356,924,945,925,945
8458,0,0.018967,0.023344,-0.002268,0.00,0.00,-0.000273,0.129000,-0.003302,-0.001163,0.000000,0.000000,0.000000,0.000000,0.000351,-0.000000,0.000000,0.128649,0.128649,0.129351,0.129351,924,945,925,945
8468,0,0.019406,0.023169,-0.002469,0.00,-0.00,-0.000356,0.128000,-0.003370,-0.001160,0.000000,0.000000,0.000000,0.000000,0.000369,-0.000000,0.000000,0.127631,0.127631,0.128369,0.128369,923,944,924,944
8479,0,0.019757,0.023248,-0.002411,0.00,-0.00,-0.000268,0.128000,-0.003431,-0.001163,0.000000,0.000000,0.000000,0.000000,0.000375,-0.000000,0.000000,0.127625,0.127625,0.128375,0.128375,923,944,924,944
8489,0,0.020038,0.023311,-0.002147,0.00,0.00,-0.000136,0.129000,-0.003483,-0.001165,0.000000,0.000000,0.000000,0.000000,0.000377,-0.000000,0.000000,0.128623,0.128623,0.129377,0.129377,924,944,925,945
8499,0,0.020045,0.023361,-0.001936,0.00,0.00,-0.000069,0.129000,-0.003498,-0.001165,0.000000,0.000000,0.000000,0.000000,0.000360,-0.000000,0.000000,0.128640,0.128640,0.129360,0.129360,924,945,925,945
8509,0,0.020050,0.023401,-1.257968,-0.00,0.00,-0.000082,0.129000,-0.003511,-0.001167,0.000000,0.000000,0.000000,0.000000,0.000347,-0.000000,0.000000,0.128653,0.128653,0.129347,0.129347,924,945,925,945
8519,0,0.020272,0.023433,-2.262575,-0.00,0.00,-0.000139,0.129000,-0.003548,-0.001169,0.000000,0.000000,0.000000,0.000000,0.000353,-0.000000,0.000000,0.128647,0.128647,0.129353,0.129353,924,945,925,945
8529,0,0.020450,0.023459,-3.066261,-0.00,0.00,-0.000177,0.129000,-0.003576,-0.001170,0.000000,0.000000,0.000000,0.000000,0.000360,-0.000000,0.000000,0.128640,0.128640,0.129360,0.129360,924,945,925,945
8539,0,0.020593,0.023480,2.573976,-0.00,0.00,-0.000221,0.128000,-0.003596,-0.001169,0.000000,0.000000,0.000000,0.000000,0.000368,-0.000000,0.000000,0.127632,0.127632,0.128368,0.128368,923,944,924,944
8549,0,0.020707,0.023278,2.059617,0.00,0.00,-0.000215,0.128000,-0.003611,-0.001162,0.000000,0.000000,0.000000,0.000000,0.000375,-0.000000,0.000000,0.127625,0.127625,0.128375,0.128375,923,944,924,944
8559,0,0.020798,0.023117,1.648130,0.00,-0.00,-0.000144,0.128000,-0.003623,-0.001156,0.000000,0.000000,0.000000,0.000000,0.000381,-0.000000,0.000000,0.127619,0.127619,0.128381,0.128381,923,944,924,944
8569,0,0.020871,0.022987,1.318941,0.00,-0.00,-0.000056,0.128000,-0.003634,-0.001153,0.000000,0.000000,0.000000,0.000000,0.000385,-0.000000,0.000000,0.127615,0.127615,0.128385,0.128385,923,944,924,944
8579,0,0.020711,0.022884,1.055589,-0.00,-0.00,0.000058,0.128000,-0.003615,-0.001151,0.000000,0.000000,0.000000,0.000000,0.000372,-0.000000,0.000000,0.127628,0.127628,0.128372,0.128372,923,944,924,944
8589,0,0.020583,0.022802,0.844908,-0.00,-0.00,0.000116,0.129000,-0.003599,-0.001149,0.000000,0.000000,0.000000,0.000000,0.000363,-0.000000,0.000000,0.128637,0.128637,0.129363,0.129363,924,945,925,945
8599,0,0.020481,0.022735,0.676362,-0.00,-0.00,0.000146,0.129000,-0.003585,-0.001146,0.000000,0.000000,0.000000,0.000000,0.000356,-0.000000,-0.000000,0.128644,0.128644,0.129356,0.129356,924,945,925,945
8609,0,0.020399,0.022683,0.541526,-0.00,-0.00,0.000109,0.129000,-0.003573,-0.001144,0.000000,0.000000,0.000000,0.000000,0.000351,-0.000000,-0.000000,0.128649,0.128649,0.129351,0.129351,924,945,925,945
8619,0,0.020333,0.022640,0.433657,-0.00,-0.00,0.000091,0.129000,-0.003564,-0.001140,0.000000,0.000000,0.000000,0.000000,0.000348,-0.000000,-0.000000,0.128652,0.128652,0.129348,0.129348,924,945,925,945
8629,0,0.020281,0.022606,0.347362,-0.00,-0.00,0.000093,0.129000,-0.003556,-0.001138,0.000000,0.000000,0.000000,0.000000,0.000345,-0.000000,-0.000000,0.128655,0.128655,0.129345,0.129345,924,945,925,945
8648,0,0.020021,0.022579,0.278326,-0.00,-0.00,0.000117,0.129000,-0.003515,-0.001137,0.000000,0.000000,0.000000,0.000000,0.000335,-0.000000,-0.000000,0.128665,0.128665,0.129335,0.129335,924,945,925,945
8661,0,0.019813,0.022558,0.223097,-0.00,-0.00,0.000171,0.129000,-0.003484,-0.001136,0.000000,0.000000,0.000000,0.000000,0.000325,-0.000000,-0.000000,0.128675,0.128675,0.129325,0.129325,924,945,925,945
8670,0,0.019646,0.022540,0.178914,-0.00,-0.00,0.000233,0.129000,-0.003461,-0.001135,0.000000,0.000000,0.000000,0.000000,0.000316,-0.000000,-0.000000,0.128684,0.128684,0.129316,0.129316,924,945,925,945
8680,0,0.019513,0.022527,0.143568,-0.00,-0.00,0.000243,0.128000,-0.003440,-0.001133,0.000000,0.000000,0.000000,0.000000,0.000311,-0.000000,-0.000000,0.127689,0.127689,0.128311,0.128311,923,944,924,944
8689,0,0.019407,0.022515,0.115290,-0.00,-0.00,0.000225,0.128000,-0.003423,-0.001131,0.000000,0.000000,0.000000,0.000000,0.000306,-0.000000,-0.000000,0.127694,0.127694,0.128306,0.128306,923,944,924,944
8699,0,0.019103,0.022507,0.092669,-0.00,-0.00,0.000226,0.128000,-0.003379,-0.001129,0.000000,0.000000,0.000000,0.000000,0.000290,-0.000000,-0.000000,0.127710,0.127710,0.128290,0.128290,923,944,924,944
8709,0,0.018860,0.022500,0.074571,-0.00,-0.00,0.000190,0.128000,-0.003344,-0.001129,0.000000,0.000000,0.000000,0.000000,0.000278,-0.000000,-0.000000,0.127722,0.127722,0.128278,0.128278,923,944,924,944
8719,0,0.018666,0.022494,0.060093,-0.00,-0.00,0.000174,0.128000,-0.003313,-0.001129,0.000000,0.000000,0.000000,0.000000,0.000271,-0.000000,-0.000000,0.127729,0.127729,0.128271,0.128271,923,944,924,944
8729,0,0.018511,0.022489,0.048511,-0.00,-0.00,0.000191,0.129000,-0.003287,-0.001128,0.000000,0.000000,0.000000,0.000000,0.000266,-0.000000,-0.000000,0.128734,0.128734,0.129266,0.129266,924,945,925,945
8739,0,0.018387,0.022486,0.039245,-0.00,-0.00,0.000144,0.129000,-0.003266,-0.001129,0.000000,0.000000,0.000000,0.000000,0.000264,-0.000000,-0.000000,0.128736,0.128736,0.129264,0.129264,924,945,925,945
8749,0,0.018287,0.022483,0.031832,-0.00,-0.00,0.000078,0.129000,-0.003248,-0.001128,0.000000,0.000000,0.000000,0.000000,0.000263,-0.000000,-0.000000,0.128737,0.128737,0.129263,0.129263,924,945,925,945
8759,0,0.018426,0.022480,0.025902,-0.00,-0.00,0.000080,0.128000,-0.003262,-0.001128,0.000000,0.000000,0.000000,0.000000,0.000277,-0.000000,-0.000000,0.127723,0.127723,0.128277,0.128277,923,944,924,944
8769,0,0.018537,0.022479,0.021158,-0.00,-0.00,0.000078,0.129000,-0.003273,-0.001127,0.000000,0.000000,0.000000,0.000000,0.000289,-0.000000,-0.000000,0.128711,0.128711,0.129289,0.129289,924,945,925,945
8779,0,0.018626,0.022477,0.017363,-0.00,-0.00,0.000083,0.129000,-0.003282,-0.001126,0.000000,0.000000,0.000000,0.000000,0.000298,-0.000000,-0.000000,0.128702,0.128702,0.129298,0.129298,924,945,925,945
8790,0,0.018478,0.022476,0.014327,-0.00,-0.00,0.000109,0.128000,-0.003259,-0.001125,0.000000,0.000000,0.000000,0.000000,0.000292,-0.000000,-0.000000,0.127708,0.127708,0.128292,0.128292,923,944,924,944
8800,0,0.018579,0.022475,0.011898,-0.00,-0.00,0.000077,0.129000,-0.003270,-0.001125,0.000000,0.000000,0.000000,0.000000,0.000302,-0.000000,-0.000000,0.128698,0.128698,0.129302,0.129302,924,945,925,945
8810,0,0.018441,0.022474,0.009954,-0.00,-0.00,0.000104,0.129000,-0.003248,-0.001125,0.000000,0.000000,0.000000,0.000000,0.000297,-0.000000,-0.000000,0.128703,0.128703,0.129297,0.129297,924,945,925,945
8819,0,0.018331,0.022474,0.008400,-0.00,-0.00,0.000174,0.129000,-0.003231,-0.001125,0.000000,0.000000,0.000000,0.000000,0.000292,-0.000000,-0.000000,0.128708,0.128708,0.129292,0.129292,924,945,925,945
8829,0,0.018242,0.022473,0.007156,-0.00,-0.00,0.000181,0.129000,-0.003216,-0.001126,0.000000,0.000000,0.000000,0.000000,0.000290,-0.000000,-0.000000,0.128710,0.128710,0.129290,0.129290,924,945,925,945
8840,0,0.018172,0.022473,0.006161,-0.00,-0.00,0.000167,0.129000,-0.003205,-0.001125,0.000000,0.000000,0.000000,0.000000,0.000288,-0.000000,-0.000000,0.128712,0.128712,0.129288,0.129288,924,945,925,945
8850,0,0.018115,0.022472,0.005365,-0.00,-0.00,0.000123,0.129000,-0.003194,-0.001126,0.000000,0.000000,0.000000,0.000000,0.000288,-0.000000,-0.000000,0.128712,0.128712,0.129288,0.129288,924,945,925,945
8859,0,0.018070,0.022472,0.004729,-0.00,-0.00,0.000048,0.129000,-0.003185,-0.001125,0.000000,0.000000,0.000000,0.000000,0.000289,-0.000000,-0.000000,0.128711,0.128711,0.129289,0.129289,924,945,925,945
8869,0,0.018034,0.022472,0.004219,-0.00,-0.00,0.000059,0.129000,-0.003177,-0.001125,0.000000,0.000000,0.000000,0.000000,0.000290,-0.000000,-0.000000,0.128710,0.128710,0.129290,0.129290,924,945,925,945
8880,0,0.018005,0.022472,0.003812,-0.00,-0.00,0.000050,0.129000,-0.003171,-0.001124,0.000000,0.000000,0.000000,0.000000,0.000291,-0.000000,-0.000000,0.128709,0.128709,0.129291,0.129291,924,945,925,945
8890,0,0.017982,0.022472,0.003486,-0.00,-0.00,0.000007,0.129000,-0.003165,-0.001124,0.000000,0.000000,0.000000,0.000000,0.000292,-0.000000,-0.000000,0.128708,0.128708,0.129292,0.129292,924,945,925,945
8900,0,0.018182,0.022472,0.003225,-0.00,0.00,0.000007,0.129000,-0.003189,-0.001123,0.000000,0.000000,0.000000,0.000000,0.000309,-0.000000,-0.000000,0.128691,0.128691,0.129309,0.129309,924,945,925,945
8910,0,0.018342,0.022471,0.003016,-0.00,0.00,-0.000019,0.129000,-0.003209,-0.001123,0.000000,0.000000,0.000000,0.000000,0.000321,-0.000000,0.000000,0.128679,0.128679,0.129321,0.129321,924,945,925,945
8920,0,0.018469,0.022471,0.002849,-0.00,0.00,0.000002,0.129000,-0.003225,-0.001122,0.000000,0.000000,0.000000,0.000000,0.000331,-0.000000,-0.000000,0.128669,0.128669,0.129331,0.129331,924,945,925,945
8930,0,0.018353,0.022471,0.002716,-0.00,0.00,0.000093,0.129000,-0.003211,-0.001123,0.000000,0.000000,0.000000,0.000000,0.000321,-0.000000,-0.000000,0.128679,0.128679,0.129321,0.129321,924,945,925,945
8940,0,0.018261,0.022471,0.002609,-0.00,-0.00,0.000125,0.129000,-0.003198,-0.001124,0.000000,0.000000,0.000000,0.000000,0.000316,-0.000000,-0.000000,0.128684,0.128684,0.129316,0.129316,924,945,925,945
8950,0,0.018186,0.022471,0.002524,-0.00,-0.00,0.000101,0.129000,-0.003186,-0.001124,0.000000,0.000000,0.000000,0.000000,0.000313,-0.000000,-0.000000,0.128687,0.128687,0.129313,0.129313,924,945,925,945
8966,0,0.018127,0.022471,0.002455,-0.00,-0.00,0.000100,0.129000,-0.003176,-0.001124,0.000000,0.000000,0.000000,0.000000,0.000312,-0.000000,-0.000000,0.128688,0.128688,0.129312,0.129312,924,945,925,945
8979,0,0.018080,0.022471,0.002400,-0.00,0.00,0.000084,0.129000,-0.003168,-0.001122,0.000000,0.000000,0.000000,0.000000,0.000310,-0.000000,-0.000000,0.128690,0.128690,0.129310,0.129310,924,945,925,945
8990,0,0.018042,0.022471,0.002357,-0.00,0.00,0.000164,0.129000,-0.003162,-0.001122,0.000000,0.000000,0.000000,0.000000,0.000309,-0.000000,-0.000000,0.128691,0.128691,0.129309,0.129309,924,945,925,945
9000,0,0.017793,0.022471,0.002322,-0.00,0.00,0.000123,0.129000,-0.003125,-0.001122,0.000000,0.000000,0.000000,0.000000,0.000297,-0.000000,-0.000000,0.128703,0.128703,0.129297,0.129297,924,945,925,945
9010,0,0.017594,0.022471,0.002294,-0.00,0.00,0.000148,0.129000,-0.003095,-0.001122,0.000000,0.000000,0.000000,0.000000,0.000289,-0.000000,-0.000000,0.128711,0.128711,0.129289,0.129289,924,945,925,945
9020,0,0.017435,0.022471,0.002271,-0.00,0.00,0.000119,0.129000,-0.003073,-0.001121,0.000000,0.000000,0.000000,0.000000,0.000278,-0.000000,-0.000000,0.128722,0.128722,0.129278,0.129278,924,945,925,945
9030,0,0.017308,0.022471,0.002472,-0.00,0.00,0.000139,0.129000,-0.003056,-0.001120,0.000000,0.000000,0.000000,0.000000,0.000271,-0.000000,-0.000000,0.128729,0.128729,0.129271,0.129271,924,945,925,945
9040,0,0.017206,0.022471,0.002632,-0.00,0.00,0.000120,0.129000,-0.003041,-0.001121,0.000000,0.000000,0.000000,0.000000,0.000265,-0.000000,-0.000000,0.128735,0.128735,0.129265,0.129265,924,945,925,945
9050,0,0.017125,0.022471,0.002760,-0.00,0.00,0.000025,0.129000,-0.003024,-0.001122,0.000000,0.000000,0.000000,0.000000,0.000266,-0.000000,-0.000000,0.128734,0.128734,0.129266,0.129266,924,945,925,945
9060,0,0.017059,0.022471,0.002862,-0.00,0.00,-0.000026,0.129000,-0.003010,-0.001122,0.000000,0.000000,0.000000,0.000000,0.000268,-0.000000,0.000000,0.128732,0.128732,0.129268,0.129268,924,945,925,945
9070,0,0.017225,0.022471,0.002726,-0.00,0.00,-0.000027,0.129000,-0.003029,-0.001122,0.000000,0.000000,0.000000,0.000000,0.000284,-0.000000,0.000000,0.128716,0.128716,0.129284,0.129284,924,945,925,945
9080,0,0.017140,0.022471,0.002617,-0.00,0.00,0.000023,0.129000,-0.003016,-0.001121,0.000000,0.000000,0.000000,0.000000,0.000280,-0.000000,-0.000000,0.128720,0.128720,0.129280,0.129280,924,945,925,945
9090,0,0.017072,0.022471,0.002530,-0.00,0.00,0.000035,0.130000,-0.003007,-0.001119,0.000000,0.000000,0.000000,0.000000,0.000276,-0.000000,-0.000000,0.129724,0.129724,0.130276,0.130276,925,945,925,946
9100,0,0.017017,0.022253,0.002679,-0.00,-0.00,0.000037,0.130000,-0.002997,-0.001115,0.000000,0.000000,0.000000,0.000000,0.000274,-0.000000,-0.000000,0.129726,0.129726,0.130274,0.130274,925,945,925,946
9110,0,0.016974,0.022078,0.002797,-0.00,-0.00,-0.000004,0.130000,-0.002989,-0.001112,0.000000,0.000000,0.000000,0.000000,0.000274,-0.000000,0.000000,0.129726,0.129726,0.130274,0.130274,925,945,925,946
9120,0,0.016939,0.021939,0.002892,-0.00,-0.00,0.000019,0.130000,-0.002979,-0.001108,0.000000,0.000000,0.000000,0.000000,0.000278,-0.000000,-0.000000,0.129722,0.129722,0.130278,0.130278,925,945,925,946
9130,0,0.016911,0.021827,0.002968,-0.00,-0.00,0.000021,0.130000,-0.002972,-0.001103,0.000000,0.000000,0.000000,0.000000,0.000280,-0.000000,-0.000000,0.129720,0.129720,0.130280,0.130280,925,945,925,946
9141,0,0.016888,0.021738,0.003029,-0.00,-0.00,0.000055,0.130000,-0.002967,-0.001099,0.000000,0.000000,0.000000,0.000000,0.000281,-0.000000,-0.000000,0.129719,0.129719,0.130281,0.130281,925,945,925,946
9151,0,0.016870,0.021666,0.003078,-0.00,-0.00,0.000079,0.131000,-0.002965,-0.001096,0.000000,0.000000,0.000000,0.000000,0.000279,-0.000000,-0.000000,0.130721,0.130721,0.131279,0.131279,926,946,926,947
9160,0,0.016856,0.021827,0.003117,-0.00,-0.00,0.000034,0.132000,-0.002963,-0.001099,0.000000,0.000000,0.000000,0.000000,0.000279,-0.000000,-0.000000,0.131721,0.131721,0.132279,0.132279,927,947,927,947
9170,0,0.017063,0.021956,0.003148,-0.00,-0.00,-0.000026,0.132000,-0.002989,-0.001102,0.000000,0.000000,0.000000,0.000000,0.000295,-0.000000,0.000000,0.131705,0.131705,0.132295,0.132295,927,947,927,947
9180,0,0.017228,0.022059,0.003173,-0.00,-0.00,-0.000077,0.132000,-0.003010,-0.001104,0.000000,0.000000,0.000000,0.000000,0.000307,-0.000000,0.000000,0.131693,0.131693,0.132307,0.132307,927,947,927,948
9191,0,0.017360,0.022141,0.003193,0.00,0.00,-0.000103,0.138000,-0.003026,-0.001106,0.000000,0.000000,0.000000,0.000000,0.000317,-0.000000,0.000000,0.137683,0.137683,0.138317,0.138317,931,952,932,952
9201,0,0.017466,0.022207,0.003209,0.00,0.00,-0.000069,0.139000,-0.003041,-0.001107,0.000000,0.000000,0.000000,0.000000,0.000324,-0.000000,0.000000,0.138676,0.138676,0.139324,0.139324,932,953,933,953
9211,0,0.017551,0.022260,0.003221,0.00,0.00,-0.000025,0.139000,-0.003053,-0.001110,0.000000,0.000000,0.000000,0.000000,0.000328,-0.000000,0.000000,0.138672,0.138672,0.139328,0.139328,932,953,933,953
9221,0,0.017619,0.022302,0.003232,0.00,0.00,-0.000021,0.142000,-0.003064,-0.001111,0.000000,0.000000,0.000000,0.000000,0.000330,-0.000000,0.000000,0.141670,0.141670,0.142330,0.142330,935,955,935,956
9231,0,0.017455,0.022336,0.003240,0.00,0.00,0.000075,0.142000,-0.003045,-0.001112,0.000000,0.000000,0.000000,0.000000,0.000316,-0.000000,-0.000000,0.141684,0.141684,0.142316,0.142316,935,955,935,956
9241,0,0.017324,0.022363,0.003246,-0.00,0.00,0.000090,0.142000,-0.003027,-0.001113,0.000000,0.000000,0.000000,0.000000,0.000308,-0.000000,-0.000000,0.141692,0.141692,0.142308,0.142308,935,955,935,956
9251,0,0.017219,0.022385,0.003252,-0.00,0.00,0.000141,0.144000,-0.003012,-0.001114,0.000000,0.000000,0.000000,0.000000,0.000302,-0.000000,-0.000000,0.143698,0.143698,0.144302,0.144302,936,957,937,957
9261,0,0.017135,0.022402,0.003256,-0.00,0.00,0.000186,0.145000,-0.003000,-0.001115,0.000000,0.000000,0.000000,0.000000,0.000297,-0.000000,-0.000000,0.144703,0.144703,0.145297,0.145297,937,958,938,958
9271,0,0.017067,0.022416,0.003259,-0.00,0.00,0.000124,0.145000,-0.002989,-0.001116,0.000000,0.000000,0.000000,0.000000,0.000296,-0.000000,-0.000000,0.144704,0.144704,0.145296,0.145296,937,958,938,958
9287,0,0.016796,0.022427,0.003262,-0.00,0.00,0.000169,0.145000,-0.002948,-0.001116,0.000000,0.000000,0.000000,0.000000,0.000283,-0.000000,-0.000000,0.144717,0.144717,0.145283,0.145283,937,958,938,958
9300,0,0.016578,0.022436,0.003264,-0.00,0.00,0.000294,0.145000,-0.002915,-0.001119,0.000000,0.000000,0.000000,0.000000,0.000274,-0.000000,-0.000000,0.144726,0.144726,0.145274,0.145274,937,958,938,958
9311,0,0.016186,0.022443,0.003266,-0.00,-0.00,0.000396,0.145000,-0.002858,-0.001122,0.000000,0.000000,0.000000,0.000000,0.000253,-0.000000,-0.000000,0.144747,0.144747,0.145253,0.145253,937,958,938,958
9321,0,0.015654,0.022448,0.003267,-0.00,-0.00,0.000400,0.154000,-0.002782,-0.001124,0.000000,0.000000,0.000000,0.000000,0.000224,-0.000000,-0.000000,0.153776,0.153776,0.154224,0.154224,945,965,945,965
9331,0,0.015228,0.022453,0.003268,-0.00,0.00,0.000373,0.155000,-0.002720,-0.001123,0.000000,0.000000,0.000000,0.000000,0.000201,-0.000000,-0.000000,0.154799,0.154799,0.155201,0.155201,945,966,946,966
9341,0,0.015106,0.022457,0.003269,-0.00,0.00,0.000245,0.155000,-0.002699,-0.001120,0.000000,0.000000,0.000000,0.000000,0.000199,-0.000000,-0.000000,0.154801,0.154801,0.155199,0.155199,945,966,946,966
9351,0,0.015008,0.022460,0.003270,-0.00,0.00,0.000186,0.156000,-0.002681,-0.001118,0.000000,0.000000,0.000000,0.000000,0.000198,-0.000000,-0.000000,0.155802,0.155802,0.156198,0.156198,946,967,947,967
9361,0,0.014930,0.022462,0.003270,-0.00,0.00,0.000114,0.156000,-0.002665,-0.001118,0.000000,0.000000,0.000000,0.000000,0.000200,-0.000000,-0.000000,0.155800,0.155800,0.156200,0.156200,946,967,947,967
9371,0,0.014868,0.022464,0.003271,-0.00,0.00,0.000110,0.156000,-0.002650,-0.001118,0.000000,0.000000,0.000000,0.000000,0.000203,-0.000000,-0.000000,0.155797,0.155797,0.156203,0.156203,946,967,947,967
9381,0,0.014817,0.022465,0.003271,-0.00,0.00,0.000181,0.156000,-0.002637,-0.001119,0.000000,0.000000,0.000000,0.000000,0.000208,-0.000000,-0.000000,0.155792,0.155792,0.156208,0.156208,946,967,947,967
9391,0,0.014777,0.022466,0.003271,-0.00,0.00,0.000253,0.158000,-0.002627,-0.001118,0.000000,0.000000,0.000000,0.000000,0.000211,-0.000000,-0.000000,0.157789,0.157789,0.158211,0.158211,948,968,948,969
9401,0,0.014527,0.022467,0.003272,-0.00,0.00,0.000395,0.158000,-0.002589,-0.001119,0.000000,0.000000,0.000000,0.000000,0.000200,-0.000000,-0.000000,0.157800,0.157800,0.158200,0.158200,948,968,948,969
9411,0,0.013891,0.022468,0.003272,-0.00,0.00,0.000603,0.158000,-0.002498,-0.001119,0.000000,0.000000,0.000000,0.000000,0.000164,-0.000000,-0.000000,0.157836,0.157836,0.158164,0.158164,948,968,948,969
9421,0,0.013381,0.022469,0.003272,-0.00,0.00,0.000801,0.160000,-0.002423,-0.001120,0.000000,0.000000,0.000000,0.000000,0.000139,-0.000000,-0.000000,0.159861,0.159861,0.160139,0.160139,950,970,950,970
9431,0,0.012320,0.022469,0.003272,-0.00,0.00,0.001020,0.162000,-0.002269,-0.001121,0.000000,0.000000,0.000000,0.000000,0.000083,-0.000000,-0.000000,0.161917,0.161917,0.162083,0.162083,951,972,951,972
9441,0,0.011252,0.022470,0.003272,-0.00,0.00,0.001241,0.162000,-0.002112,-0.001120,0.000000,0.000000,0.000000,0.000000,0.000030,-0.000000,-0.000000,0.161970,0.161970,0.162030,0.162030,951,972,951,972
9451,0,0.009961,0.022470,0.003272,-0.00,0.00,0.001465,0.164000,-0.001923,-0.001120,0.000000,0.000000,0.000000,0.000000,-0.000036,-0.000000,-0.000000,0.164036,0.164036,0.163964,0.163964,953,973,953,973
9461,0,0.008929,0.022470,0.003272,-0.00,0.00,0.001731,0.164000,-0.001767,-0.001121,0.000000,0.000000,0.000000,0.000000,-0.000082,-0.000000,-0.000000,0.164082,0.164082,0.163918,0.163918,953,974,953,973
9471,0,0.007667,0.022470,0.003272,-0.00,0.00,0.001937,0.164000,-0.001575,-0.001123,0.000000,0.000000,0.000000,0.000000,-0.000139,-0.000000,-0.000000,0.164139,0.164139,0.163861,0.163861,953,974,953,973
9484,0,0.005784,0.022470,0.003272,-0.00,0.00,0.002104,0.164000,-0.001282,-0.001121,0.000000,0.000000,0.000000,0.000000,-0.000214,-0.000000,-0.000000,0.164214,0.164214,0.163786,0.163786,953,974,953,973
9493,0,0.003842,0.022252,0.003272,-0.00,-0.00,0.002246,0.164000,-0.001004,-0.001114,0.000000,0.000000,0.000000,0.000000,-0.000320,-0.000000,-0.000000,0.164320,0.164320,0.163680,0.163680,953,974,953,973
9503,0,0.002070,0.022078,0.003272,-0.00,-0.00,0.002458,0.164000,-0.000735,-0.001107,0.000000,0.000000,0.000000,0.000000,-0.000398,-0.000000,-0.000000,0.164398,0.164398,0.163602,0.163602,953,974,953,973
9512,0,-0.000002,0.021938,0.003272,-0.00,-0.00,0.002620,0.174000,-0.000428,-0.001104,0.000000,0.000000,0.000000,0.000000,-0.000500,-0.000000,-0.000000,0.174500,0.174500,0.173500,0.173500,962,982,961,981
9522,0,-0.002096,0.021827,0.003272,-0.00,-0.00,0.002827,0.174000,-0.000105,-0.001101,0.000000,0.000000,0.000000,0.000000,-0.000587,-0.000000,-0.000000,0.174587,0.174587,0.173413,0.173413,962,982,961,981
9532,0,-0.004426,0.021738,0.003272,-0.00,-0.00,0.003081,0.175000,0.000254,-0.001099,0.000000,0.000000,0.000000,0.000000,-0.000684,-0.000000,-0.000000,0.175684,0.175684,0.174316,0.174316,963,983,961,982
9542,0,-0.006726,0.021666,0.003272,-0.00,-0.00,0.003239,0.175000,0.000615,-0.001099,0.000000,0.000000,0.000000,0.000000,-0.000772,-0.000000,-0.000000,0.175772,0.175772,0.174228,0.174228,963,983,961,982
9551,0,-0.009002,0.021609,0.003491,-0.00,-0.00,0.003351,0.176000,0.000965,-0.001096,0.000000,0.000000,0.000000,0.000000,-0.000869,-0.000000,-0.000000,0.176869,0.176869,0.175131,0.175131,964,984,962,983
9562,0,-0.011260,0.021345,0.003665,-0.00,-0.00,0.003344,0.176000,0.001333,-0.001078,0.000000,0.000000,0.000000,0.000000,-0.000940,-0.000000,-0.000000,0.176940,0.176940,0.175060,0.175060,964,984,962,983
9572,0,-0.013502,0.020916,0.003805,-0.00,-0.00,0.003303,0.176000,0.001690,-0.001052,0.000000,0.000000,0.000000,0.000000,-0.001020,-0.000000,-0.000000,0.177020,0.177020,0.174980,0.174980,964,984,962,982
9582,0,-0.015514,0.020136,0.004135,-0.00,-0.00,0.003260,0.176000,0.002016,-0.001018,0.000000,0.000000,0.000000,0.000000,-0.001085,-0.000000,-0.000000,0.177085,0.177085,0.174915,0.174915,964,984,962,982
9595,0,-0.017342,0.019512,0.004617,-0.00,-0.00,0.003059,0.176000,0.002332,-0.000991,0.000000,0.000000,0.000000,0.000000,-0.001122,-0.000000,-0.000000,0.177122,0.177122,0.174878,0.174878,964,984,962,982
9607,0,-0.018804,0.018795,0.005439,-0.00,-0.00,0.002788,0.176000,0.002584,-0.000961,0.000000,0.000000,0.000000,0.000000,-0.001152,-0.000000,-0.000000,0.177152,0.177152,0.174848,0.174848,964,984,962,982
9618,0,-0.019756,0.018003,0.006533,-0.00,-0.00,0.002462,0.176000,0.002757,-0.000926,0.000000,0.000000,0.000000,0.000000,-0.001161,-0.000000,-0.000000,0.177161,0.177161,0.174839,0.174839,964,984,962,982
9631,0,-0.020517,0.016933,0.007844,-0.00,-0.00,0.002167,0.176000,0.002905,-0.000877,0.000000,0.000000,0.000000,0.000000,-0.001157,-0.000000,-0.000000,0.177157,0.177157,0.174843,0.174843,964,984,962,982
9641,0,-0.020908,0.015859,0.009330,-0.00,-0.00,0.001896,0.176000,0.002985,-0.000830,0.000000,0.000000,0.000000,0.000000,-0.001149,-0.000000,-0.000000,0.177149,0.177149,0.174851,0.174851,964,984,962,982
9651,0,-0.021220,0.014564,0.011173,-0.00,-0.00,0.001656,0.176000,0.003050,-0.000775,0.000000,0.000000,0.000000,0.000000,-0.001143,0.000000,-0.000000,0.177143,0.177143,0.174857,0.174857,964,984,962,982
9661,0,-0.021252,0.013091,0.013301,-0.00,-0.00,0.001321,0.177000,0.003075,-0.000712,0.000000,0.000000,0.000000,0.000000,-0.001120,0.000000,-0.000000,0.178120,0.178120,0.175880,0.175880,965,985,963,983
9672,0,-0.021060,0.011476,0.015659,-0.00,-0.00,0.001013,0.177000,0.003062,-0.000640,0.000000,0.000000,0.000000,0.000000,-0.001094,0.000000,-0.000000,0.178094,0.178094,0.175906,0.175906,965,985,963,983
9682,0,-0.020688,0.009748,0.018199,-0.00,-0.00,0.000729,0.177000,0.003018,-0.000572,0.000000,0.000000,0.000000,0.000000,-0.001062,0.000000,-0.000000,0.178062,0.178062,0.175938,0.175938,965,985,963,983
9692,0,-0.020172,0.007929,0.021105,-0.00,-0.00,0.000443,0.178000,0.002950,-0.000501,0.000000,0.000000,0.000000,0.000000,-0.001027,0.000000,-0.000000,0.179027,0.179027,0.176973,0.176973,965,986,964,984
9702,0,-0.019541,0.006038,0.024301,-0.00,-0.00,0.000145,0.178000,0.002860,-0.000422,0.000000,0.000000,0.000000,0.000000,-0.000992,0.000000,-0.000000,0.178992,0.178992,0.177008,0.177008,965,986,964,984
9712,0,-0.018818,0.004089,0.027731,-0.00,-0.00,-0.000207,0.178000,0.002754,-0.000338,0.000000,0.000000,0.000000,0.000000,-0.000956,0.000000,0.000000,0.178956,0.178956,0.177044,0.177044,965,986,964,984
9722,0,-0.017803,0.002093,0.031348,-0.00,-0.00,-0.000570,0.181000,0.002602,-0.000257,0.000000,0.000000,0.000000,0.000000,-0.000908,0.000000,0.000000,0.181908,0.181908,0.180092,0.180092,968,988,966,987
9732,0,-0.016555,0.000060,0.035332,-0.00,-0.00,-0.000956,0.182000,0.002412,-0.000179,0.000000,0.000000,0.000000,0.000000,-0.000853,0.000000,0.000000,0.182853,0.182853,0.181147,0.181147,968,989,967,988
9742,0,-0.014902,-0.001785,0.039610,-0.00,-0.00,-0.001404,0.182000,0.002161,-0.000109,0.000000,0.000000,0.000000,0.000000,-0.000779,0.000000,0.000000,0.182779,0.182779,0.181221,0.181221,968,989,967,988
9752,0,-0.013143,-0.003260,0.044124,-0.00,-0.00,-0.001820,0.184000,0.001891,-0.000047,0.000000,0.000000,0.000000,0.000000,-0.000705,0.000000,0.000000,0.184705,0.184705,0.183295,0.183295,970,990,969,989
9762,0,-0.010646,-0.004877,0.049916,-0.00,-0.00,-0.002176,0.184000,0.001517,0.000020,0.000000,0.000000,0.000000,0.000000,-0.000588,0.000000,0.000000,0.184588,0.184588,0.183412,0.183412,970,990,969,989
9772,0,-0.008647,-0.006171,0.054550,-0.00,-0.00,-0.002548,0.184000,0.001202,0.000078,0.000000,0.000000,0.000000,0.000000,-0.000513,0.000000,0.000000,0.184513,0.184513,0.183487,0.183487,970,990,969,989
9782,0,-0.006394,-0.007205,0.059566,-0.00,-0.00,-0.002991,0.185000,0.000847,0.000130,0.000000,0.000000,0.000000,0.000000,-0.000428,0.000000,0.000000,0.185428,0.185428,0.184572,0.184572,971,991,970,990
9792,0,-0.002847,-0.008033,0.065979,-0.00,-0.00,-0.003443,0.185000,0.000311,0.000172,0.000000,0.000000,0.000000,0.000000,-0.000267,0.000000,0.000000,0.185267,0.185267,0.184733,0.184733,970,991,970,990
9802,0,0.000646,-0.008696,0.072418,-0.00,-0.00,-0.003763,0.185000,-0.000226,0.000211,0.000000,0.000000,0.000000,0.000000,-0.000120,0.000000,0.000000,0.185120,0.185120,0.184880,0.184880,970,991,970,991
9812,0,0.003440,-0.009225,0.077569,-0.00,-0.00,-0.003972,0.185000,-0.000679,0.000250,0.000000,0.000000,0.000000,0.000000,-0.000029,0.000000,0.000000,0.185029,0.185029,0.184971,0.184971,970,991,970,991
9822,0,0.006330,-0.009867,0.083000,-0.00,-0.00,-0.004202,0.187000,-0.001149,0.000286,0.000000,0.000000,0.000000,0.000000,0.000063,0.000000,0.000000,0.186937,0.186937,0.187063,0.187063,972,992,972,992
9832,0,0.010169,-0.010163,0.089962,0.00,-0.00,-0.004494,0.187000,-0.001753,0.000306,0.000000,0.000000,0.000000,0.000000,0.000209,0.000000,0.000000,0.186791,0.186791,0.187209,0.187209,972,992,972,992
9842,0,0.013241,-0.010399,0.095531,0.00,-0.00,-0.004803,0.187000,-0.002262,0.000318,0.000000,0.000000,0.000000,0.000000,0.000295,0.000000,0.000000,0.186705,0.186705,0.187295,0.187295,972,992,972,993
9852,0,0.017443,-0.010152,0.102823,0.00,-0.00,-0.005042,0.188000,-0.002927,0.000318,0.000000,0.000000,0.000000,0.000000,0.000451,0.000000,0.000000,0.187549,0.187549,0.188451,0.188451,972,993,973,993
9862,0,0.021677,-0.009518,0.109966,0.00,-0.00,-0.005366,0.188000,-0.003599,0.000307,0.000000,0.000000,0.000000,0.000000,0.000605,0.000000,0.000000,0.187395,0.187395,0.188605,0.188605,972,993,973,994
9872,0,0.025065,-0.009011,0.115680,0.00,-0.00,-0.005795,0.188000,-0.004165,0.000295,0.000000,0.000000,0.000000,0.000000,0.000695,0.000000,0.000000,0.187305,0.187305,0.188695,0.188695,972,993,973,994
9882,0,0.028866,-0.008387,0.121560,0.00,-0.00,-0.006224,0.188000,-0.004794,0.000276,0.000000,0.000000,0.000000,0.000000,0.000803,0.000000,0.000000,0.187197,0.187197,0.188803,0.188803,972,992,973,994
9892,0,0.032997,-0.007669,0.127573,0.00,-0.00,-0.006709,0.189000,-0.005473,0.000249,0.000000,0.000000,0.000000,0.000000,0.000925,0.000000,0.000000,0.188074,0.188074,0.189925,0.189925,973,993,974,995
9902,0,0.037612,-0.006659,0.133911,0.00,-0.00,-0.007141,0.189000,-0.006224,0.000212,0.000000,0.000000,0.000000,0.000000,0.001072,0.000000,0.000000,0.187928,0.187928,0.190072,0.190072,973,993,974,995
9917,0,0.043703,-0.004760,0.142035,0.00,-0.00,-0.007488,0.189000,-0.007258,0.000130,0.000000,0.000000,0.000000,0.000000,0.001214,0.000000,0.000000,0.187786,0.187786,0.190214,0.190214,972,993,974,995
9930,0,0.049667,-0.002586,0.149844,0.00,-0.00,-0.007630,0.189000,-0.008251,0.000044,0.000000,0.000000,0.000000,0.000000,0.001376,0.000000,0.000000,0.187624,0.187624,0.190376,0.190376,972,993,975,995
9943,0,0.055310,-0.000411,0.157618,0.00,-0.00,-0.007493,0.190000,-0.009203,-0.000039,0.000000,0.000000,0.000000,0.000000,0.001515,0.000000,0.000000,0.188485,0.188485,0.191515,0.191515,973,994,976,996
9952,0,0.060480,0.001984,0.165364,0.00,-0.00,-0.007271,0.190000,-0.010019,-0.000114,0.000000,0.000000,0.000000,0.000000,0.001709,0.000000,0.000000,0.188291,0.188291,0.191709,0.191709,973,993,976,996
9962,0,0.065924,0.004990,0.174397,0.00,0.00,-0.006997,0.190000,-0.010905,-0.000220,0.000000,0.000000,0.000000,0.000000,0.001882,-0.000000,0.000000,0.188118,0.188118,0.191882,0.191882,973,993,976,996
9972,0,0.070498,0.008050,0.183151,0.00,0.00,-0.006627,0.190000,-0.011682,-0.000333,0.000000,0.000000,0.000000,0.000000,0.001988,-0.000000,0.000000,0.188012,0.188012,0.191988,0.191988,973,993,976,996
9982,0,0.074157,0.010498,0.190154,0.00,0.00,-0.006167,0.190000,-0.012339,-0.000429,0.000000,0.000000,0.000000,0.000000,0.002031,-0.000000,0.000000,0.187969,0.187969,0.192031,0.192031,973,993,976,996
9993,0,0.077521,0.012893,0.197284,0.00,0.00,-0.005627,0.190000,-0.012963,-0.000522,0.000000,0.000000,0.000000,0.000000,0.002048,-0.000000,0.000000,0.187952,0.187952,0.192048,0.192048,973,993,976,996
10003,0,0.080212,0.015027,0.204515,0.00,0.00,-0.004978,0.190000,-0.013481,-0.000609,0.000000,0.000000,0.000000,0.000000,0.002040,-0.000000,0.000000,0.187960,0.187960,0.192040,0.192040,973,993,976,996
10013,0,0.082365,0.017170,0.211826,0.00,0.00,-0.004359,0.190000,-0.013923,-0.000703,0.000000,0.000000,0.000000,0.000000,0.002000,-0.000000,0.000000,0.188000,0.188000,0.192000,0.192000,973,993,976,996
10023,0,0.083869,0.019321,0.218985,0.00,0.00,-0.003724,0.190000,-0.014272,-0.000797,0.000000,0.000000,0.000000,0.000000,0.001925,-0.000000,0.000000,0.188075,0.188075,0.191925,0.191925,973,993,976,996
