t,is_crashed,roll,pitch,yaw,throttle,roll_pid_out,pitch_pid_out,yaw_pid_out,motor_fl,motor_bl,motor_fr,motor_br,pwm_fl,pwm_bl,pwm_fr,pwm_br
8004,0,0.04,0.04,-0.00,0.00,-0.00,-0.00,0.00,0.00,0.00,0.00,0.00,819,819,819,819
8013,0,0.04,0.04,-0.00,0.00,-0.20,-0.20,0.00,0.00,0.00,0.00,0.00,819,819,819,819
8020,0,0.04,0.04,-0.00,0.00,-0.20,-0.20,0.00,0.00,0.00,0.00,0.00,819,819,819,819
8026,0,0.04,0.04,-0.00,0.00,-0.20,-0.20,0.00,0.00,0.00,0.00,0.00,819,819,819,819
8033,0,0.04,0.04,-0.00,0.00,-0.20,-0.20,0.00,0.00,0.00,0.00,0.00,819,819,819,819
8039,0,0.04,0.04,-0.00,0.00,-0.20,-0.20,0.00,0.00,0.00,0.00,0.00,819,819,819,819
8046,0,0.04,0.05,-0.00,0.00,-0.20,-0.20,0.00,0.00,0.00,0.00,0.00,819,819,819,819
8052,0,0.04,0.05,-0.00,0.00,-0.20,-0.20,0.00,0.00,0.00,0.00,0.00,819,819,819,819
8060,0,0.04,0.05,-0.00,0.00,-0.20,-0.20,0.00,0.00,0.00,0.00,0.00,819,819,819,819
8066,0,0.04,0.05,-0.00,0.00,-0.20,-0.20,0.00,0.00,0.00,0.00,0.00,819,819,819,819
8073,0,0.04,0.05,-0.00,0.00,-0.20,-0.20,0.00,0.00,0.00,0.00,0.00,819,819,819,819
8080,0,0.04,0.05,-0.00,0.00,-0.20,-0.20,0.00,0.00,0.00,0.00,0.00,819,819,819,819
8087,0,0.04,0.04,-0.00,0.00,-0.20,-0.20,0.00,0.00,0.00,0.00,0.00,819,819,819,819
8093,0,0.04,0.04,-0.00,0.00,-0.20,-0.20,0.00,0.00,0.00,0.00,0.00,819,819,819,819
8100,0,0.04,0.04,-0.00,0.00,-0.20,-0.20,0.00,0.00,0.00,0.00,0.00,819,819,819,819
8106,0,0.04,0.04,-0.00,0.00,-0.20,-0.20,0.00,0.00,0.00,0.00,0.00,819,819,819,819
8117,0,0.04,0.04,-0.00,0.00,-0.18,-0.20,0.00,0.00,0.00,0.00,0.00,819,819,819,819
8125,0,0.04,0.04,-0.00,0.00,-0.20,-0.20,0.00,0.00,0.00,0.00,0.00,819,819,819,819
8132,0,0.04,0.04,-0.00,0.00,-0.20,-0.20,0.00,0.00,0.00,0.00,0.00,819,819,819,819
8139,0,0.04,0.04,-0.00,0.00,-0.20,-0.20,0.00,0.00,0.00,0.00,0.00,819,819,819,819
8145,0,0.04,0.04,-0.00,0.00,-0.20,-0.20,0.00,0.00,0.00,0.00,0.00,819,819,819,819
8152,0,0.04,0.04,-0.00,0.00,-0.20,-0.20,0.00,0.00,0.00,0.00,0.00,819,819,819,819
8159,0,0.04,0.04,-0.00,0.00,-0.20,-0.20,0.00,0.00,0.00,0.00,0.00,819,819,819,819
8166,0,0.04,0.04,-0.00,0.00,-0.20,-0.20,0.00,0.00,0.00,0.00,0.00,819,819,819,819
8173,0,0.04,0.04,-0.00,0.00,-0.20,-0.20,0.00,0.00,0.00,0.00,0.00,819,819,819,819
8180,0,0.04,0.04,-0.00,0.00,-0.20,-0.20,0.00,0.00,0.00,0.00,0.00,819,819,819,819
8187,0,0.04,0.04,-0.00,0.00,-0.20,-0.20,0.00,0.00,0.00,0.00,0.00,819,819,819,819
8193,0,0.04,0.04,-0.00,0.00,-0.20,-0.20,0.00,0.00,0.00,0.00,0.00,819,819,819,819
8200,0,0.04,0.04,-0.00,0.00,-0.20,-0.20,0.00,0.00,0.00,0.00,0.00,819,819,819,819
8206,0,0.04,0.04,-0.00,0.00,-0.20,-0.20,0.00,0.00,0.00,0.00,0.00,819,819,819,819
8213,0,0.04,0.04,-0.00,0.00,-0.20,-0.20,0.00,0.00,0.00,0.00,0.00,819,819,819,819
8221,0,0.04,0.04,-0.00,0.00,-0.20,-0.20,0.00,0.00,0.00,0.00,0.00,819,819,819,819
8228,0,0.04,0.04,-0.00,0.00,-0.20,-0.20,0.00,0.00,0.00,0.00,0.00,819,819,819,819
8235,0,0.04,0.04,-0.00,0.00,-0.20,-0.20,0.00,0.00,0.00,0.00,0.00,819,819,819,819
8241,0,0.04,0.04,-0.00,0.00,-0.20,-0.20,0.00,0.00,0.00,0.00,0.00,819,819,819,819
8248,0,0.04,0.04,-0.00,0.00,-0.20,-0.20,0.00,0.00,0.00,0.00,0.00,819,819,819,819
8254,0,0.04,0.04,-0.00,0.00,-0.20,-0.20,0.00,0.00,0.00,0.00,0.00,819,819,819,819
8261,0,0.04,0.04,-0.00,0.00,-0.20,-0.20,0.00,0.00,0.00,0.00,0.00,819,819,819,819
8269,0,0.04,0.04,-0.00,0.00,-0.20,-0.20,0.00,0.00,0.00,0.00,0.00,819,819,819,819
8275,0,0.04,0.04,-0.00,0.00,-0.20,-0.20,0.00,0.00,0.00,0.00,0.00,819,819,819,819
8283,0,0.04,0.04,-0.00,0.00,-0.20,-0.20,0.00,0.00,0.00,0.00,0.00,819,819,819,819
8289,0,0.04,0.04,-0.00,0.00,-0.20,-0.20,0.00,0.00,0.00,0.00,0.00,819,819,819,819
8295,0,0.04,0.04,-0.00,0.00,-0.20,-0.20,0.00,0.00,0.00,0.00,0.00,819,819,819,819
8302,0,0.04,0.04,-0.00,0.00,-0.20,-0.20,0.00,0.00,0.00,0.00,0.00,819,819,819,819
8309,0,0.04,0.04,-0.00,0.00,-0.20,-0.20,0.00,0.00,0.00,0.00,0.00,819,819,819,819
8315,0,0.04,0.04,-0.00,0.00,-0.20,-0.20,0.00,0.00,0.00,0.00,0.00,819,819,819,819
8322,0,0.04,0.04,-0.00,0.00,-0.20,-0.20,0.00,0.00,0.00,0.00,0.00,819,819,819,819
8334,0,0.04,0.04,-0.00,0.00,-0.20,-0.18,0.00,0.00,0.00,0.00,0.00,819,819,819,819
8342,0,0.04,0.04,-0.00,0.00,-0.20,-0.20,0.00,0.00,0.00,0.00,0.00,819,819,819,819
8350,0,0.04,0.04,-0.00,0.00,-0.20,-0.20,0.00,0.00,0.00,0.00,0.00,819,819,819,819
8356,0,0.04,0.04,-0.00,0.00,-0.20,-0.20,0.00,0.00,0.00,0.00,0.00,819,819,819,819
8363,0,0.04,0.04,-0.00,0.00,-0.20,-0.20,0.00,0.00,0.00,0.00,0.00,819,819,819,819
8370,0,0.04,0.04,-0.00,0.00,-0.20,-0.20,0.00,0.00,0.00,0.00,0.00,819,819,819,819
8376,0,0.04,0.04,-0.00,0.00,-0.20,-0.20,0.00,0.00,0.00,0.00,0.00,819,819,819,819
8383,0,0.04,0.04,-0.00,0.00,-0.20,-0.20,0.00,0.00,0.00,0.00,0.00,819,819,819,819
8390,0,0.04,0.04,-0.00,0.00,-0.20,-0.20,0.00,0.00,0.00,0.00,0.00,819,819,819,819
8396,0,0.04,0.04,-0.00,0.00,-0.20,-0.20,0.00,0.00,0.00,0.00,0.00,819,819,819,819
8403,0,0.04,0.04,-0.00,0.00,-0.20,-0.20,0.00,0.00,0.00,0.00,0.00,819,819,819,819
8411,0,0.04,0.04,-0.00,0.00,-0.20,-0.20,0.00,0.00,0.00,0.00,0.00,819,819,819,819
8417,0,0.04,0.04,-0.00,0.00,-0.20,-0.20,0.00,0.00,0.00,0.00,0.00,819,819,819,819
8424,0,0.04,0.04,-0.00,0.00,-0.20,-0.20,0.00,0.00,0.00,0.00,0.00,819,819,819,819
8431,0,0.04,0.04,-0.00,0.00,-0.20,-0.20,0.00,0.00,0.00,0.00,0.00,819,819,819,819
8438,0,0.04,0.04,-0.00,0.00,-0.20,-0.20,0.00,0.00,0.00,0.00,0.00,819,819,819,819
8444,0,0.04,0.04,-0.00,0.00,-0.20,-0.20,0.00,0.00,0.00,0.00,0.00,819,819,819,819
8451,0,0.04,0.04,-0.00,0.00,-0.20,-0.20,0.00,0.00,0.00,0.00,0.00,819,819,819,819
8457,0,0.04,0.04,-0.00,0.00,-0.20,-0.20,0.00,0.00,0.00,0.00,0.00,819,819,819,819
8464,0,0.04,0.04,-0.00,0.00,-0.20,-0.20,0.00,0.00,0.00,0.00,0.00,819,819,819,819
8472,0,0.05,0.04,-0.00,0.00,-0.20,-0.20,0.00,0.00,0.00,0.00,0.00,819,819,819,819
8478,0,0.05,0.04,-0.00,0.00,-0.20,-0.20,0.00,0.00,0.00,0.00,0.00,819,819,819,819
8485,0,0.05,0.04,-0.00,0.00,-0.20,-0.20,0.00,0.00,0.00,0.00,0.00,819,819,819,819
8491,0,0.05,0.04,-0.00,0.00,-0.20,-0.20,0.00,0.00,0.00,0.00,0.00,819,819,819,819
8498,0,0.05,0.04,-0.00,0.00,-0.20,-0.20,0.00,0.00,0.00,0.00,0.00,819,819,819,819
8504,0,0.05,0.04,-0.00,0.00,-0.20,-0.20,0.00,0.00,0.00,0.00,0.00,819,819,819,819
8512,0,0.05,0.04,-0.00,0.00,-0.20,-0.20,0.00,0.00,0.00,0.00,0.00,819,819,819,819
8519,0,0.05,0.04,-0.00,0.00,-0.20,-0.20,0.00,0.00,0.00,0.00,0.00,819,819,819,819
8525,0,0.05,0.04,-0.00,0.00,-0.20,-0.20,0.00,0.00,0.00,0.00,0.00,819,819,819,819
8533,0,0.05,0.04,-0.00,0.00,-0.20,-0.20,0.00,0.00,0.00,0.00,0.00,819,819,819,819
8539,0,0.05,0.04,-0.00,0.00,-0.20,-0.20,0.00,0.00,0.00,0.00,0.00,819,819,819,819
8550,0,0.05,0.04,-0.00,0.00,-0.20,-0.19,0.00,0.00,0.00,0.00,0.00,819,819,819,819
8558,0,0.05,0.04,-0.00,0.00,-0.20,-0.20,0.00,0.00,0.00,0.00,0.00,819,819,819,819
8565,0,0.05,0.04,-0.00,0.00,-0.20,-0.20,0.00,0.00,0.00,0.00,0.00,819,819,819,819
8572,0,0.05,0.04,-0.00,0.00,-0.20,-0.20,0.00,0.00,0.00,0.00,0.00,819,819,819,819
8579,0,0.05,0.04,-0.00,0.00,-0.20,-0.20,0.00,0.00,0.00,0.00,0.00,819,819,819,819
8586,0,0.05,0.04,-0.00,0.00,-0.20,-0.20,0.00,0.00,0.00,0.00,0.00,819,819,819,819
8593,0,0.05,0.04,-0.00,0.00,-0.20,-0.20,0.00,0.00,0.00,0.00,0.00,819,819,819,819
8600,0,0.05,0.04,-0.00,0.00,-0.20,-0.20,0.00,0.00,0.00,0.00,0.00,819,819,819,819
8607,0,0.05,0.04,-0.00,0.00,-0.20,-0.20,0.00,0.00,0.00,0.00,0.00,819,819,819,819
8614,0,0.05,0.04,-0.00,0.00,-0.20,-0.20,0.00,0.00,0.00,0.00,0.00,819,819,819,819
8622,0,0.05,0.04,-0.00,0.00,-0.20,-0.20,0.00,0.00,0.00,0.00,0.00,819,819,819,819
8628,0,0.05,0.04,-0.00,0.00,-0.20,-0.20,0.00,0.00,0.00,0.00,0.00,819,819,819,819
8635,0,0.05,0.04,-0.00,0.00,-0.20,-0.20,0.00,0.00,0.00,0.00,0.00,819,819,819,819
8641,0,0.05,0.04,-0.00,0.00,-0.20,-0.20,0.00,0.00,0.00,0.00,0.00,819,819,819,819
8648,0,0.05,0.04,-0.00,0.00,-0.20,-0.20,0.00,0.00,0.00,0.00,0.00,819,819,819,819
8654,0,0.05,0.04,-0.00,0.00,-0.20,-0.20,0.00,0.00,0.00,0.00,0.00,819,819,819,819
8661,0,0.05,0.04,-0.00,0.00,-0.20,-0.20,0.00,0.00,0.00,0.00,0.00,819,819,819,819
8667,0,0.05,0.04,-0.00,0.00,-0.20,-0.20,0.00,0.00,0.00,0.00,0.00,819,819,819,819
8674,0,0.05,0.04,-0.00,0.00,-0.20,-0.20,0.00,0.00,0.00,0.00,0.00,819,819,819,819
8681,0,0.05,0.04,-0.00,0.00,-0.20,-0.20,0.00,0.00,0.00,0.00,0.00,819,819,819,819
8688,0,0.05,0.04,-0.00,0.00,-0.20,-0.20,0.00,0.00,0.00,0.00,0.00,819,819,819,819
8695,0,0.05,0.04,-0.00,0.00,-0.20,-0.20,0.00,0.00,0.00,0.00,0.00,819,819,819,819
8701,0,0.05,0.04,-0.01,0.00,-0.20,-0.20,0.00,0.00,0.00,0.00,0.00,819,819,819,819
8707,0,0.05,0.04,-0.01,0.00,-0.20,-0.20,0.00,0.00,0.00,0.00,0.00,819,819,819,819
8714,0,0.05,0.04,-0.01,0.00,-0.20,-0.20,0.00,0.00,0.00,0.00,0.00,819,819,819,819
8721,0,0.05,0.04,-0.01,0.00,-0.20,-0.20,0.00,0.00,0.00,0.00,0.00,819,819,819,819
8727,0,0.05,0.04,-0.01,0.00,-0.20,-0.20,0.00,0.00,0.00,0.00,0.00,819,819,819,819
8735,0,0.05,0.04,-0.01,0.00,-0.20,-0.20,0.00,0.00,0.00,0.00,0.00,819,819,819,819
8741,0,0.05,0.04,-0.01,0.00,-0.20,-0.20,0.00,0.00,0.00,0.00,0.00,819,819,819,819
8747,0,0.05,0.04,-0.01,0.00,-0.20,-0.20,0.00,0.00,0.00,0.00,0.00,819,819,819,819
8754,0,0.05,0.04,-0.01,0.00,-0.20,-0.20,0.00,0.00,0.00,0.00,0.00,819,819,819,819
8765,0,0.05,0.03,-0.01,0.00,-0.20,-0.15,0.00,0.00,0.00,0.00,0.00,819,819,819,819
8774,0,0.05,0.03,-0.02,0.00,-0.20,-0.19,0.00,0.00,0.00,0.00,0.00,819,819,819,819
8781,0,0.05,0.03,-0.02,0.00,-0.20,-0.20,0.00,0.00,0.00,0.00,0.00,819,819,819,819
8788,0,0.06,0.03,-0.02,0.00,-0.20,-0.20,0.00,0.00,0.00,0.00,0.00,819,819,819,819
8795,0,0.06,0.03,-0.02,0.00,-0.20,-0.20,0.00,0.00,0.00,0.00,0.00,819,819,819,819
8801,0,0.06,0.03,-0.02,0.00,-0.20,-0.20,0.00,0.00,0.00,0.00,0.00,819,819,819,819
8807,0,0.06,0.03,-0.02,0.00,-0.20,-0.20,0.00,0.00,0.00,0.00,0.00,819,819,819,819
8815,0,0.06,0.03,-0.02,0.00,-0.20,-0.18,0.00,0.00,0.00,0.00,0.00,819,819,819,819
8822,0,0.06,0.02,-0.03,0.00,-0.20,-0.16,0.00,0.00,0.00,0.00,0.00,819,819,819,819
8829,0,0.06,0.02,-0.03,0.00,-0.20,-0.18,0.00,0.00,0.00,0.00,0.00,819,819,819,819
8836,0,0.06,0.02,-0.03,0.00,-0.20,-0.16,0.00,0.00,0.00,0.00,0.00,819,819,819,819
8842,0,0.06,0.02,-0.03,0.00,-0.20,-0.17,0.00,0.00,0.00,0.00,0.00,819,819,819,819
8848,0,0.06,0.02,-0.03,0.00,-0.20,-0.16,0.00,0.00,0.00,0.00,0.00,819,819,819,819
8855,0,0.06,0.02,-0.03,0.00,-0.20,-0.16,0.00,0.00,0.00,0.00,0.00,819,819,819,819
8862,0,0.06,0.02,-0.04,0.00,-0.20,-0.14,0.00,0.00,0.00,0.00,0.00,819,819,819,819
8869,0,0.06,0.02,-0.04,0.00,-0.20,-0.15,0.00,0.00,0.00,0.00,0.00,819,819,819,819
8875,0,0.06,0.02,-0.04,0.00,-0.20,-0.15,0.00,0.00,0.00,0.00,0.00,819,819,819,819
8883,0,0.06,0.02,-0.04,0.00,-0.20,-0.14,0.00,0.00,0.00,0.00,0.00,819,819,819,819
8889,0,0.06,0.02,-0.04,0.00,-0.20,-0.16,0.00,0.00,0.00,0.00,0.00,819,819,819,819
8895,0,0.06,0.02,-0.04,0.00,-0.20,-0.16,0.00,0.00,0.00,0.00,0.00,819,819,819,819
8902,0,0.06,0.02,-0.04,0.00,-0.20,-0.15,0.00,0.00,0.00,0.00,0.00,819,819,819,819
8908,0,0.06,0.02,-0.05,0.00,-0.20,-0.16,0.00,0.00,0.00,0.00,0.00,819,819,819,819
8915,0,0.06,0.02,-0.05,0.00,-0.20,-0.14,0.00,0.00,0.00,0.00,0.00,819,819,819,819
8923,0,0.06,0.02,-0.05,0.00,-0.20,-0.14,0.00,0.00,0.00,0.00,0.00,819,819,819,819
8930,0,0.06,0.02,-0.05,0.00,-0.20,-0.16,0.00,0.00,0.00,0.00,0.00,819,819,819,819
8936,0,0.06,0.02,-0.05,0.00,-0.20,-0.19,0.00,0.00,0.00,0.00,0.00,819,819,819,819
8943,0,0.06,0.02,-0.05,0.00,-0.20,-0.19,0.00,0.00,0.00,0.00,0.00,819,819,819,819
8949,0,0.06,0.03,-0.05,0.00,-0.20,-0.20,0.00,0.00,0.00,0.00,0.00,819,819,819,819
8956,0,0.06,0.03,-0.05,0.00,-0.20,-0.20,0.00,0.00,0.00,0.00,0.00,819,819,819,819
8963,0,0.06,0.03,-0.05,0.00,-0.20,-0.18,0.00,0.00,0.00,0.00,0.00,819,819,819,819
8971,0,0.06,0.03,-0.05,0.00,-0.20,-0.18,0.00,0.00,0.00,0.00,0.00,819,819,819,819
8982,0,0.06,0.03,-0.05,0.00,-0.20,-0.12,0.00,0.00,0.00,0.00,0.00,819,819,819,819
8990,0,0.06,0.03,-0.04,0.00,-0.20,-0.17,0.00,0.00,0.00,0.00,0.00,819,819,819,819
8997,0,0.06,0.03,-0.04,0.00,-0.20,-0.20,0.00,0.00,0.00,0.00,0.00,819,819,819,819
9003,0,0.06,0.03,-0.04,0.00,-0.20,-0.20,0.00,0.00,0.00,0.00,0.00,819,819,819,819
9010,0,0.05,0.03,-0.04,0.00,-0.20,-0.19,0.00,0.00,0.00,0.00,0.00,819,819,819,819
9016,0,0.05,0.02,-0.04,0.00,-0.20,-0.19,0.00,0.00,0.00,0.00,0.00,819,819,819,819
9023,0,0.05,0.02,-0.04,0.00,-0.20,-0.17,0.00,0.00,0.00,0.00,0.00,819,819,819,819
9031,0,0.05,0.02,-0.04,0.00,-0.20,-0.16,0.00,0.00,0.00,0.00,0.00,819,819,819,819
9037,0,0.05,0.02,-0.04,0.00,-0.20,-0.17,0.00,0.00,0.00,0.00,0.00,819,819,819,819
9043,0,0.05,0.02,-0.04,0.00,-0.20,-0.16,0.00,0.00,0.00,0.00,0.00,819,819,819,819
9050,0,0.05,0.02,-0.04,0.00,-0.20,-0.14,0.00,0.00,0.00,0.00,0.00,819,819,819,819
9056,0,0.05,0.02,-0.04,0.00,-0.20,-0.14,0.00,0.00,0.00,0.00,0.00,819,819,819,819
9063,0,0.05,0.02,-0.04,0.00,-0.20,-0.11,0.00,0.00,0.00,0.00,0.00,819,819,819,819
9069,0,0.05,0.01,-0.04,0.00,-0.20,-0.10,0.00,0.00,0.00,0.00,0.00,819,819,819,819
9076,0,0.05,0.01,-0.04,0.00,-0.20,-0.09,0.00,0.00,0.00,0.00,0.00,819,819,819,819
9083,0,0.05,0.00,-0.04,0.00,-0.20,-0.06,0.00,0.00,0.00,0.00,0.00,819,819,819,819
9089,0,0.05,0.00,-0.04,0.00,-0.20,-0.05,0.00,0.00,0.00,0.00,0.00,819,819,819,819
9096,0,0.05,0.00,-0.04,0.00,-0.20,-0.05,0.00,0.00,0.00,0.00,0.00,819,819,819,819
9102,0,0.05,0.00,-0.04,0.00,-0.20,-0.03,0.00,0.00,0.00,0.00,0.00,819,819,819,819
9109,0,0.05,0.00,-0.04,0.00,-0.20,-0.00,0.00,0.00,0.00,0.00,0.00,819,819,819,819
9116,0,0.05,0.00,-0.04,0.00,-0.20,-0.00,0.00,0.00,0.00,0.00,0.00,819,819,819,819
9123,0,0.05,-0.00,-0.04,0.00,-0.20,0.00,0.00,0.00,0.00,0.00,0.00,819,819,819,819
9130,0,0.05,-0.00,-0.04,0.00,-0.20,0.02,0.00,0.00,0.00,0.00,0.00,819,819,819,819
9137,0,0.05,-0.00,-0.04,0.00,-0.20,0.03,0.00,0.00,0.00,0.00,0.00,819,819,819,819
9143,0,0.05,-0.00,-0.04,0.00,-0.20,0.03,0.00,0.00,0.00,0.00,0.00,819,819,819,819
9150,0,0.05,-0.00,-0.04,0.00,-0.20,0.04,0.00,0.00,0.00,0.00,0.00,819,819,819,819
9156,0,0.05,-0.00,-0.04,0.00,-0.20,0.05,0.00,0.00,0.00,0.00,0.00,819,819,819,819
9163,0,0.05,-0.00,-0.04,0.00,-0.20,0.05,0.00,0.00,0.00,0.00,0.00,819,819,819,819
9170,0,0.05,-0.00,-0.04,0.00,-0.20,0.06,0.00,0.00,0.00,0.00,0.00,819,819,819,819
9176,0,0.05,-0.00,-0.04,0.00,-0.20,0.06,0.00,0.00,0.00,0.00,0.00,819,819,819,819
9184,0,0.05,-0.00,-0.04,0.00,-0.20,0.05,0.00,0.00,0.00,0.00,0.00,819,819,819,819
9192,0,0.05,-0.00,-0.04,0.00,-0.20,0.05,0.00,0.00,0.00,0.00,0.00,819,819,819,819
9199,0,0.05,-0.00,-0.04,0.00,-0.20,0.06,0.00,0.00,0.00,0.00,0.00,819,819,819,819
9205,0,0.05,-0.00,-0.04,0.00,-0.20,0.06,0.00,0.00,0.00,0.00,0.00,819,819,819,819
9213,0,0.05,-0.00,-0.04,0.00,-0.20,0.04,0.00,0.00,0.00,0.00,0.00,819,819,819,819
9219,0,0.05,-0.00,-0.05,0.00,-0.20,0.05,0.00,0.00,0.00,0.00,0.00,819,819,819,819
9226,0,0.05,-0.00,-0.05,0.00,-0.20,0.05,0.00,0.00,0.00,0.00,0.00,819,819,819,819
9233,0,0.05,-0.00,-0.05,0.00,-0.20,0.04,0.00,0.00,0.00,0.00,0.00,819,819,819,819
9240,0,0.05,-0.00,-0.05,0.00,-0.20,0.04,0.00,0.00,0.00,0.00,0.00,819,819,819,819
9246,0,0.05,-0.00,-0.05,0.00,-0.20,0.03,0.00,0.00,0.00,0.00,0.00,819,819,819,819
9253,0,0.05,-0.00,-0.05,0.00,-0.20,0.03,0.00,0.00,0.00,0.00,0.00,819,819,819,819
9259,0,0.05,-0.00,-0.05,0.00,-0.20,0.03,0.00,0.00,0.00,0.00,0.00,819,819,819,819
9266,0,0.05,-0.00,-0.05,0.00,-0.20,0.02,0.00,0.00,0.00,0.00,0.00,819,819,819,819
9274,0,0.05,-0.00,-0.05,0.00,-0.20,0.02,0.00,0.00,0.00,0.00,0.00,819,819,819,819
9281,0,0.05,-0.00,-0.05,0.00,-0.20,0.00,0.00,0.00,0.00,0.00,0.00,819,819,819,819
9287,0,0.05,-0.00,-0.05,0.00,-0.20,0.00,0.00,0.00,0.00,0.00,0.00,819,819,819,819
9294,0,0.05,-0.00,-0.05,0.00,-0.20,0.00,0.00,0.00,0.00,0.00,0.00,819,819,819,819
9301,0,0.04,-0.00,-0.06,0.00,-0.20,0.00,0.00,0.00,0.00,0.00,0.00,819,819,819,819
9307,0,0.04,-0.00,-0.06,0.00,-0.20,0.00,0.00,0.00,0.00,0.00,0.00,819,819,819,819
9315,0,0.04,-0.00,-0.06,0.00,-0.20,0.00,0.00,0.00,0.00,0.00,0.00,819,819,819,819
9322,0,0.04,0.00,-0.06,0.00,-0.20,-0.00,0.00,0.00,0.00,0.00,0.00,819,819,819,819
9329,0,0.04,0.00,-0.06,0.00,-0.20,-0.02,0.00,0.00,0.00,0.00,0.00,819,819,819,819
9336,0,0.04,0.00,-0.06,0.00,-0.20,-0.02,0.00,0.00,0.00,0.00,0.00,819,819,819,819
9343,0,0.04,0.00,-0.06,0.00,-0.20,-0.03,0.00,0.00,0.00,0.00,0.00,819,819,819,819
9349,0,0.04,0.00,-0.06,0.00,-0.20,-0.03,0.00,0.00,0.00,0.00,0.00,819,819,819,819
9355,0,0.04,0.00,-0.06,0.00,-0.20,-0.03,0.00,0.00,0.00,0.00,0.00,819,819,819,819
9361,0,0.04,0.00,-0.06,0.00,-0.20,-0.03,0.00,0.00,0.00,0.00,0.00,819,819,819,819
9368,0,0.04,0.00,-0.06,0.00,-0.20,-0.03,0.00,0.00,0.00,0.00,0.00,819,819,819,819
9375,0,0.04,0.00,-0.06,0.00,-0.20,-0.02,0.00,0.00,0.00,0.00,0.00,819,819,819,819
9385,0,0.04,0.00,-0.06,0.00,-0.20,-0.02,0.00,0.00,0.00,0.00,0.00,819,819,819,819
9391,0,0.04,0.00,-0.06,0.00,-0.20,-0.02,0.00,0.00,0.00,0.00,0.00,819,819,819,819
9401,0,0.05,0.00,-0.07,0.00,-0.20,-0.01,0.00,0.00,0.00,0.00,0.00,819,819,819,819
9409,0,0.05,0.00,-0.07,0.00,-0.20,-0.00,0.00,0.00,0.00,0.00,0.00,819,819,819,819
9416,0,0.05,0.00,-0.07,0.00,-0.20,-0.00,0.00,0.00,0.00,0.00,0.00,819,819,819,819
9423,0,0.05,-0.00,-0.07,0.00,-0.20,0.00,0.00,0.00,0.00,0.00,0.00,819,819,819,819
9429,0,0.05,-0.00,-0.07,0.00,-0.20,0.00,0.00,0.00,0.00,0.00,0.00,819,819,819,819
9437,0,0.05,-0.00,-0.07,0.00,-0.20,0.00,0.00,0.00,0.00,0.00,0.00,819,819,819,819
9443,0,0.05,-0.00,-0.07,0.00,-0.20,0.00,0.00,0.00,0.00,0.00,0.00,819,819,819,819
9449,0,0.04,-0.00,-0.07,0.00,-0.20,0.00,0.00,0.00,0.00,0.00,0.00,819,819,819,819
9456,0,0.04,-0.00,-0.07,0.00,-0.20,0.00,0.00,0.00,0.00,0.00,0.00,819,819,819,819
9463,0,0.04,-0.00,-0.07,0.00,-0.20,0.02,0.00,0.00,0.00,0.00,0.00,819,819,819,819
9469,0,0.04,-0.00,-0.07,0.00,-0.20,0.03,0.00,0.00,0.00,0.00,0.00,819,819,819,819
9476,0,0.04,-0.00,-0.07,0.00,-0.20,0.03,0.00,0.00,0.00,0.00,0.00,819,819,819,819
9484,0,0.04,-0.00,-0.07,0.00,-0.20,0.04,0.00,0.00,0.00,0.00,0.00,819,819,819,819
9490,0,0.04,-0.00,-0.07,0.00,-0.20,0.05,0.00,0.00,0.00,0.00,0.00,819,819,819,819
9497,0,0.04,-0.00,-0.07,0.00,-0.20,0.07,0.00,0.00,0.00,0.00,0.00,819,819,819,819
9503,0,0.04,-0.00,-0.07,0.00,-0.20,0.07,0.00,0.00,0.00,0.00,0.00,819,819,819,819
9510,0,0.04,-0.01,-0.08,0.00,-0.20,0.08,0.00,0.00,0.00,0.00,0.00,819,819,819,819
9517,0,0.04,-0.01,-0.08,0.00,-0.20,0.07,0.00,0.00,0.00,0.00,0.00,819,819,819,819
9524,0,0.04,-0.01,-0.08,0.00,-0.20,0.07,0.00,0.00,0.00,0.00,0.00,819,819,819,819
9530,0,0.04,-0.01,-0.08,0.00,-0.20,0.09,0.00,0.00,0.00,0.00,0.00,819,819,819,819
9537,0,0.04,-0.01,-0.08,0.00,-0.20,0.10,0.00,0.00,0.00,0.00,0.00,819,819,819,819
9544,0,0.04,-0.01,-0.08,0.00,-0.20,0.10,0.00,0.00,0.00,0.00,0.00,819,819,819,819
9550,0,0.04,-0.01,-0.08,0.00,-0.20,0.11,0.00,0.00,0.00,0.00,0.00,819,819,819,819
9557,0,0.04,-0.01,-0.08,0.00,-0.20,0.11,0.00,0.00,0.00,0.00,0.00,819,819,819,819
9564,0,0.04,-0.02,-0.08,0.00,-0.20,0.11,0.00,0.00,0.00,0.00,0.00,819,819,819,819
9570,0,0.04,-0.02,-0.08,0.00,-0.20,0.12,0.00,0.00,0.00,0.00,0.00,819,819,819,819
9577,0,0.04,-0.02,-0.08,0.00,-0.20,0.11,0.00,0.00,0.00,0.00,0.00,819,819,819,819
9584,0,0.04,-0.02,-0.08,0.00,-0.20,0.11,0.00,0.00,0.00,0.00,0.00,819,819,819,819
9591,0,0.04,-0.01,-0.08,0.00,-0.20,0.11,0.00,0.00,0.00,0.00,0.00,819,819,819,819
9597,0,0.04,-0.01,-0.09,0.00,-0.20,0.11,0.00,0.00,0.00,0.00,0.00,819,819,819,819
9604,0,0.04,-0.01,-0.09,0.00,-0.20,0.11,0.00,0.00,0.00,0.00,0.00,819,819,819,819
9615,0,0.04,-0.01,-0.09,0.00,-0.19,0.06,0.00,0.00,0.00,0.00,0.00,819,819,819,819
9624,0,0.04,-0.01,-0.09,0.00,-0.20,0.06,0.00,0.00,0.00,0.00,0.00,819,819,819,819
9631,0,0.04,-0.00,-0.09,0.00,-0.20,0.07,0.00,0.00,0.00,0.00,0.00,819,819,819,819
9637,0,0.04,-0.00,-0.09,0.00,-0.20,0.06,0.00,0.00,0.00,0.00,0.00,819,819,819,819
9644,0,0.04,-0.00,-0.09,0.00,-0.20,0.06,0.00,0.00,0.00,0.00,0.00,819,819,819,819
9650,0,0.05,-0.00,-0.09,0.00,-0.20,0.04,0.00,0.00,0.00,0.00,0.00,819,819,819,819
9657,0,0.05,-0.00,-0.09,0.00,-0.20,0.04,0.00,0.00,0.00,0.00,0.00,819,819,819,819
9664,0,0.05,-0.00,-0.09,0.00,-0.20,0.02,0.00,0.00,0.00,0.00,0.00,819,819,819,819
9671,0,0.05,-0.00,-0.09,0.00,-0.20,0.00,0.00,0.00,0.00,0.00,0.00,819,819,819,819
9677,0,0.05,0.00,-0.09,0.00,-0.20,-0.00,0.00,0.00,0.00,0.00,0.00,819,819,819,819
9684,0,0.05,0.00,-0.09,0.00,-0.20,-0.00,0.00,0.00,0.00,0.00,0.00,819,819,819,819
9691,0,0.05,0.00,-0.10,0.00,-0.20,-0.03,0.00,0.00,0.00,0.00,0.00,819,819,819,819
9697,0,0.05,0.00,-0.10,0.00,-0.20,-0.04,0.00,0.00,0.00,0.00,0.00,819,819,819,819
9704,0,0.05,0.00,-0.10,0.00,-0.20,-0.04,0.00,0.00,0.00,0.00,0.00,819,819,819,819
9710,0,0.06,0.00,-0.10,0.00,-0.20,-0.06,0.00,0.00,0.00,0.00,0.00,819,819,819,819
9717,0,0.06,0.00,-0.10,0.00,-0.20,-0.05,0.00,0.00,0.00,0.00,0.00,819,819,819,819
9724,0,0.06,0.01,-0.10,0.00,-0.20,-0.08,0.00,0.00,0.00,0.00,0.00,819,819,819,819
9731,0,0.06,0.01,-0.10,0.00,-0.20,-0.10,0.00,0.00,0.00,0.00,0.00,819,819,819,819
9738,0,0.07,0.02,-0.10,0.00,-0.20,-0.12,0.00,0.00,0.00,0.00,0.00,819,819,819,819
9744,0,0.07,0.02,-0.10,0.00,-0.20,-0.13,0.00,0.00,0.00,0.00,0.00,819,819,819,819
9750,0,0.07,0.02,-0.10,0.00,-0.20,-0.16,0.00,0.00,0.00,0.00,0.00,819,819,819,819
9756,0,0.07,0.02,-0.10,0.00,-0.20,-0.16,0.00,0.00,0.00,0.00,0.00,819,819,819,819
9763,0,0.07,0.02,-0.10,0.00,-0.20,-0.16,0.00,0.00,0.00,0.00,0.00,819,819,819,819
9769,0,0.07,0.03,-0.11,0.00,-0.20,-0.20,0.00,0.00,0.00,0.00,0.00,819,819,819,819
9777,0,0.07,0.03,-0.11,0.00,-0.20,-0.19,0.00,0.00,0.00,0.00,0.00,819,819,819,819
9784,0,0.08,0.03,-0.11,0.00,-0.20,-0.20,0.00,0.00,0.00,0.00,0.00,819,819,819,819
9790,0,0.08,0.03,-0.11,0.00,-0.20,-0.20,0.00,0.00,0.00,0.00,0.00,819,819,819,819
9797,0,0.08,0.03,-0.11,0.00,-0.20,-0.20,0.00,0.00,0.00,0.00,0.00,819,819,819,819
9804,0,0.08,0.04,-0.11,0.00,-0.20,-0.20,0.00,0.00,0.00,0.00,0.00,819,819,819,819
9810,0,0.08,0.04,-0.11,0.00,-0.20,-0.20,0.00,0.00,0.00,0.00,0.00,819,819,819,819
9817,0,0.08,0.04,-0.11,0.00,-0.20,-0.20,0.00,0.00,0.00,0.00,0.00,819,819,819,819
9828,0,0.09,0.05,-0.11,0.00,-0.20,-0.20,0.00,0.00,0.00,0.00,0.00,819,819,819,819
9837,0,0.09,0.05,-0.11,0.00,-0.20,-0.20,0.00,0.00,0.00,0.00,0.00,819,819,819,819
9843,0,0.09,0.06,-0.11,0.00,-0.20,-0.20,0.00,0.00,0.00,0.00,0.00,819,819,819,819
9850,0,0.09,0.06,-0.11,0.00,-0.20,-0.20,0.00,0.00,0.00,0.00,0.00,819,819,819,819
9856,0,0.09,0.06,-0.11,0.00,-0.20,-0.20,0.00,0.00,0.00,0.00,0.00,819,819,819,819
9864,0,0.09,0.07,-0.11,0.00,-0.20,-0.20,0.00,0.00,0.00,0.00,0.00,819,819,819,819
9870,0,0.09,0.07,-0.11,0.00,-0.20,-0.20,0.00,0.00,0.00,0.00,0.00,819,819,819,819
9877,0,0.09,0.07,-0.11,0.00,-0.20,-0.20,0.00,0.00,0.00,0.00,0.00,819,819,819,819
9885,0,0.10,0.07,-0.11,0.00,-0.20,-0.20,0.00,0.00,0.00,0.00,0.00,819,819,819,819
9891,0,0.10,0.08,-0.11,0.00,-0.20,-0.20,0.00,0.00,0.00,0.00,0.00,819,819,819,819
9898,0,0.10,0.08,-0.11,0.00,-0.20,-0.20,0.00,0.00,0.00,0.00,0.00,819,819,819,819
9904,0,0.10,0.08,-0.11,0.00,-0.20,-0.20,0.00,0.00,0.00,0.00,0.00,819,819,819,819
9910,0,0.10,0.09,-0.11,0.00,-0.20,-0.20,0.00,0.00,0.00,0.00,0.00,819,819,819,819
9917,0,0.10,0.09,-0.11,0.00,-0.20,-0.20,0.00,0.00,0.00,0.00,0.00,819,819,819,819
9925,0,0.11,0.09,-0.11,0.00,-0.20,-0.20,0.00,0.00,0.00,0.00,0.00,819,819,819,819
9931,0,0.11,0.09,-0.11,0.00,-0.20,-0.20,0.00,0.00,0.00,0.00,0.00,819,819,819,819
9938,0,0.12,0.09,-0.12,0.00,-0.20,-0.20,0.00,0.00,0.00,0.00,0.00,819,819,819,819
9944,0,0.12,0.09,-0.12,0.00,-0.20,-0.20,0.00,0.00,0.00,0.00,0.00,819,819,819,819
9951,0,0.12,0.10,-0.12,0.00,-0.20,-0.20,0.00,0.00,0.00,0.00,0.00,819,819,819,819
9958,0,0.12,0.10,-0.12,0.00,-0.20,-0.20,0.00,0.00,0.00,0.00,0.00,819,819,819,819
9965,0,0.13,0.10,-0.12,0.00,-0.20,-0.20,0.00,0.00,0.00,0.00,0.00,819,819,819,819
9972,0,0.13,0.10,-0.12,0.00,-0.20,-0.20,0.00,0.00,0.00,0.00,0.00,819,819,819,819
9978,0,0.14,0.10,-0.12,0.00,-0.20,-0.20,0.00,0.00,0.00,0.00,0.00,819,819,819,819
9985,0,0.14,0.10,-0.12,0.00,-0.20,-0.20,0.00,0.00,0.00,0.00,0.00,819,819,819,819
9992,0,0.15,0.10,-0.12,0.00,-0.20,-0.20,0.00,0.00,0.00,0.00,0.00,819,819,819,819
9998,0,0.16,0.10,-0.12,0.00,-0.20,-0.20,0.00,0.00,0.00,0.00,0.00,819,819,819,819
10005,0,0.16,0.10,-0.12,0.00,-0.20,-0.20,0.00,0.00,0.00,0.00,0.00,819,819,819,819
10011,0,0.16,0.10,-0.12,0.00,-0.20,-0.20,0.00,0.00,0.00,0.00,0.00,819,819,819,819
10018,0,0.16,0.10,-0.12,0.00,-0.20,-0.20,0.00,0.00,0.00,0.00,0.00,819,819,819,819
10025,0,0.17,0.10,-0.12,0.00,-0.20,-0.20,0.00,0.00,0.00,0.00,0.00,819,819,819,819
10031,0,0.18,0.10,-0.12,0.00,-0.20,-0.20,0.00,0.00,0.00,0.00,0.00,819,819,819,819
10041,0,0.18,0.10,-0.12,0.00,-0.20,-0.20,0.00,0.00,0.00,0.00,0.00,819,819,819,819
10049,0,0.19,0.11,-0.12,0.00,-0.20,-0.20,0.00,0.00,0.00,0.00,0.00,819,819,819,819
10055,0,0.19,0.11,-0.12,0.00,-0.20,-0.20,0.00,0.00,0.00,0.00,0.00,819,819,819,819
10062,0,0.20,0.11,-0.12,0.00,-0.20,-0.20,0.00,0.00,0.00,0.00,0.00,819,819,819,819
10069,0,0.20,0.11,-0.12,0.00,-0.20,-0.20,0.00,0.00,0.00,0.00,0.00,819,819,819,819
10076,0,0.20,0.11,-0.12,0.00,-0.20,-0.20,0.00,0.00,0.00,0.00,0.00,819,819,819,819
10083,0,0.21,0.12,-0.12,0.00,-0.20,-0.20,0.00,0.00,0.00,0.00,0.00,819,819,819,819
10089,0,0.21,0.12,-0.12,0.00,-0.20,-0.20,0.00,0.00,0.00,0.00,0.00,819,819,819,819
10095,0,0.21,0.12,-0.12,0.00,-0.20,-0.20,0.00,0.00,0.00,0.00,0.00,819,819,819,819
10101,0,0.21,0.12,-0.12,0.00,-0.20,-0.20,0.00,0.00,0.00,0.00,0.00,819,819,819,819
10108,0,0.21,0.12,-0.12,0.00,-0.20,-0.20,0.00,0.00,0.00,0.00,0.00,819,819,819,819
10115,0,0.22,0.13,-0.13,0.00,-0.20,-0.20,0.00,0.00,0.00,0.00,0.00,819,819,819,819
10121,0,0.22,0.13,-0.13,0.00,-0.20,-0.20,0.00,0.00,0.00,0.00,0.00,819,819,819,819
10128,0,0.22,0.13,-0.13,0.00,-0.20,-0.20,0.00,0.00,0.00,0.00,0.00,819,819,819,819
10136,0,0.22,0.13,-0.13,0.00,-0.20,-0.20,0.00,0.00,0.00,0.00,0.00,819,819,819,819
10142,0,0.23,0.14,-0.13,0.00,-0.20,-0.20,0.00,0.00,0.00,0.00,0.00,819,819,819,819
10183,0,0.24,0.14,-0.14,0.00,-0.20,-0.19,0.00,0.00,0.00,0.00,0.00,819,819,819,819
10190,0,0.25,0.14,-0.14,0.00,-0.20,-0.20,0.00,0.00,0.00,0.00,0.00,819,819,819,819
10196,0,0.25,0.14,-0.14,0.00,-0.20,-0.20,0.00,0.00,0.00,0.00,0.00,819,819,819,819
10203,0,0.25,0.15,-0.14,0.00,-0.20,-0.20,0.00,0.00,0.00,0.00,0.00,819,819,819,819
10209,0,0.26,0.15,-0.14,0.00,-0.20,-0.20,0.00,0.00,0.00,0.00,0.00,819,819,819,819
10216,0,0.26,0.15,-0.14,0.00,-0.20,-0.20,0.00,0.00,0.00,0.00,0.00,819,819,819,819
10224,0,0.26,0.15,-0.14,0.00,-0.20,-0.20,0.00,0.00,0.00,0.00,0.00,819,819,819,819
10230,0,0.27,0.15,-0.15,0.00,-0.20,-0.20,0.00,0.00,0.00,0.00,0.00,819,819,819,819
10237,0,0.27,0.15,-0.15,0.00,-0.20,-0.20,0.00,0.00,0.00,0.00,0.00,819,819,819,819
10244,0,0.27,0.15,-0.15,0.00,-0.20,-0.20,0.00,0.00,0.00,0.00,0.00,819,819,819,819
10250,0,0.27,0.15,-0.15,0.00,-0.20,-0.20,0.00,0.00,0.00,0.00,0.00,819,819,819,819
10257,0,0.27,0.15,-0.15,0.00,-0.20,-0.20,0.00,0.00,0.00,0.00,0.00,819,819,819,819
10263,0,0.27,0.15,-0.15,0.00,-0.20,-0.20,0.00,0.00,0.00,0.00,0.00,819,819,819,819
10269,0,0.28,0.15,-0.15,0.00,-0.20,-0.20,0.00,0.00,0.00,0.00,0.00,819,819,819,819
10277,0,0.28,0.15,-0.15,0.00,-0.20,-0.20,0.00,0.00,0.00,0.00,0.00,819,819,819,819
10283,0,0.28,0.14,-0.15,0.00,-0.20,-0.20,0.00,0.00,0.00,0.00,0.00,819,819,819,819
10289,0,0.28,0.14,-0.16,0.00,-0.20,-0.20,0.00,0.00,0.00,0.00,0.00,819,819,819,819
10296,0,0.28,0.14,-0.16,0.00,-0.20,-0.20,0.00,0.00,0.00,0.00,0.00,819,819,819,819
10302,0,0.28,0.14,-0.16,0.00,-0.20,-0.20,0.00,0.00,0.00,0.00,0.00,819,819,819,819
10309,0,0.28,0.14,-0.16,0.00,-0.20,-0.20,0.00,0.00,0.00,0.00,0.00,819,819,819,819
10316,0,0.28,0.14,-0.16,0.00,-0.20,-0.20,0.00,0.00,0.00,0.00,0.00,819,819,819,819
10322,0,0.28,0.13,-0.16,0.00,-0.20,-0.20,0.00,0.00,0.00,0.00,0.00,819,819,819,819
10329,0,0.28,0.13,-0.16,0.00,-0.20,-0.20,0.00,0.00,0.00,0.00,0.00,819,819,819,819
10336,0,0.28,0.13,-0.16,0.00,-0.20,-0.20,0.00,0.00,0.00,0.00,0.00,819,819,819,819
10343,0,0.28,0.13,-0.17,0.00,-0.20,-0.20,0.00,0.00,0.00,0.00,0.00,819,819,819,819
10349,0,0.28,0.13,-0.17,0.00,-0.20,-0.20,0.00,0.00,0.00,0.00,0.00,819,819,819,819
10356,0,0.28,0.12,-0.17,0.00,-0.20,-0.20,0.00,0.00,0.00,0.00,0.00,819,819,819,819
10362,0,0.28,0.12,-0.17,0.00,-0.20,-0.20,0.00,0.00,0.00,0.00,0.00,819,819,819,819
10369,0,0.28,0.12,-0.17,0.00,-0.20,-0.20,0.00,0.00,0.00,0.00,0.00,819,819,819,819
10376,0,0.28,0.12,-0.17,0.00,-0.20,-0.20,0.00,0.00,0.00,0.00,0.00,819,819,819,819
10383,0,0.28,0.11,-0.18,0.00,-0.20,-0.20,0.00,0.00,0.00,0.00,0.00,819,819,819,819
10395,0,0.28,0.11,-0.18,0.00,-0.20,-0.20,0.00,0.00,0.00,0.00,0.00,819,819,819,819
10401,0,0.28,0.11,-0.18,0.00,-0.20,-0.20,0.00,0.00,0.00,0.00,0.00,819,819,819,819
10408,0,0.28,0.11,-0.18,0.00,-0.20,-0.20,0.00,0.00,0.00,0.00,0.00,819,819,819,819
10414,0,0.28,0.10,-0.18,0.00,-0.20,-0.20,0.00,0.00,0.00,0.00,0.00,819,819,819,819
10420,0,0.28,0.10,-0.18,0.00,-0.20,-0.20,0.00,0.00,0.00,0.00,0.00,819,819,819,819
10427,0,0.28,0.10,-0.18,0.00,-0.20,-0.20,0.00,0.00,0.00,0.00,0.00,819,819,819,819
10435,0,0.27,0.10,-0.18,0.00,-0.20,-0.20,0.00,0.00,0.00,0.00,0.00,819,819,819,819
10441,0,0.27,0.10,-0.19,0.00,-0.20,-0.20,0.00,0.00,0.00,0.00,0.00,819,819,819,819
10447,0,0.27,0.10,-0.19,0.00,-0.20,-0.20,0.00,0.00,0.00,0.00,0.00,819,819,819,819
10453,0,0.27,0.10,-0.19,0.00,-0.20,-0.20,0.00,0.00,0.00,0.00,0.00,819,819,819,819
10460,0,0.27,0.09,-0.19,0.00,-0.20,-0.20,0.00,0.00,0.00,0.00,0.00,819,819,819,819
10467,0,0.27,0.09,-0.19,0.00,-0.20,-0.20,0.00,0.00,0.00,0.00,0.00,819,819,819,819
10473,0,0.27,0.09,-0.19,0.00,-0.20,-0.20,0.00,0.00,0.00,0.00,0.00,819,819,819,819
10479,0,0.27,0.09,-0.19,0.00,-0.20,-0.20,0.00,0.00,0.00,0.00,0.00,819,819,819,819
10487,0,0.27,0.09,-0.19,0.00,-0.20,-0.20,0.00,0.00,0.00,0.00,0.00,819,819,819,819
10493,0,0.27,0.09,-0.20,0.00,-0.20,-0.20,0.00,0.00,0.00,0.00,0.00,819,819,819,819
10499,0,0.27,0.09,-0.20,0.00,-0.20,-0.20,0.00,0.00,0.00,0.00,0.00,819,819,819,819
10506,0,0.27,0.09,-0.20,0.00,-0.20,-0.20,0.00,0.00,0.00,0.00,0.00,819,819,819,819
10512,0,0.27,0.09,-0.20,0.00,-0.20,-0.20,0.00,0.00,0.00,0.00,0.00,819,819,819,819
10519,0,0.27,0.09,-0.20,0.00,-0.20,-0.20,0.00,0.00,0.00,0.00,0.00,819,819,819,819
10527,0,0.27,0.09,-0.20,0.00,-0.20,-0.20,0.00,0.00,0.00,0.00,0.00,819,819,819,819
10534,0,0.27,0.09,-0.20,0.00,-0.20,-0.20,0.00,0.00,0.00,0.00,0.00,819,819,819,819
10540,0,0.27,0.09,-0.20,0.00,-0.20,-0.20,0.00,0.00,0.00,0.00,0.00,819,819,819,819
10547,0,0.27,0.09,-0.20,0.00,-0.20,-0.20,0.00,0.00,0.00,0.00,0.00,819,819,819,819
10553,0,0.28,0.09,-0.20,0.00,-0.20,-0.20,0.00,0.00,0.00,0.00,0.00,819,819,819,819
10560,0,0.28,0.09,-0.21,0.00,-0.20,-0.20,0.00,0.00,0.00,0.00,0.00,819,819,819,819
10567,0,0.28,0.09,-0.21,0.00,-0.20,-0.20,0.00,0.00,0.00,0.00,0.00,819,819,819,819
10573,0,0.28,0.09,-0.21,0.00,-0.20,-0.20,0.00,0.00,0.00,0.00,0.00,819,819,819,819
10580,0,0.28,0.09,-0.21,0.00,-0.20,-0.20,0.00,0.00,0.00,0.00,0.00,819,819,819,819
10587,0,0.28,0.09,-0.21,0.00,-0.20,-0.20,0.00,0.00,0.00,0.00,0.00,819,819,819,819
10594,0,0.29,0.09,-0.21,0.00,-0.20,-0.20,0.00,0.00,0.00,0.00,0.00,819,819,819,819
10605,0,0.29,0.09,-0.21,0.00,-0.20,-0.20,0.00,0.00,0.00,0.00,0.00,819,819,819,819
10612,0,0.29,0.09,-0.21,0.00,-0.20,-0.20,0.00,0.00,0.00,0.00,0.00,819,819,819,819
10619,0,0.29,0.09,-0.21,0.00,-0.20,-0.20,0.00,0.00,0.00,0.00,0.00,819,819,819,819
10627,0,0.29,0.09,-0.21,0.00,-0.20,-0.20,0.00,0.00,0.00,0.00,0.00,819,819,819,819
10633,0,0.30,0.09,-0.21,0.00,-0.20,-0.20,0.00,0.00,0.00,0.00,0.00,819,819,819,819
10640,0,0.30,0.09,-0.21,0.00,-0.20,-0.20,0.00,0.00,0.00,0.00,0.00,819,819,819,819
10646,0,0.30,0.09,-0.21,0.00,-0.20,-0.20,0.00,0.00,0.00,0.00,0.00,819,819,819,819
10653,0,0.30,0.09,-0.21,0.00,-0.20,-0.20,0.00,0.00,0.00,0.00,0.00,819,819,819,819
10659,0,0.30,0.09,-0.21,0.00,-0.20,-0.20,0.00,0.00,0.00,0.00,0.00,819,819,819,819
10667,0,0.30,0.09,-0.21,0.00,-0.20,-0.20,0.00,0.00,0.00,0.00,0.00,819,819,819,819
10673,0,0.30,0.09,-0.21,0.00,-0.20,-0.20,0.00,0.00,0.00,0.00,0.00,819,819,819,819
10680,0,0.31,0.09,-0.21,0.00,-0.20,-0.20,0.00,0.00,0.00,0.00,0.00,819,819,819,819
10687,0,0.31,0.09,-0.21,0.00,-0.20,-0.20,0.00,0.00,0.00,0.00,0.00,819,819,819,819
10694,0,0.31,0.09,-0.21,0.00,-0.20,-0.20,0.00,0.00,0.00,0.00,0.00,819,819,819,819
10700,0,0.31,0.09,-0.21,0.00,-0.20,-0.20,0.00,0.00,0.00,0.00,0.00,819,819,819,819
10706,0,0.31,0.09,-0.21,0.00,-0.20,-0.20,0.00,0.00,0.00,0.00,0.00,819,819,819,819
10713,0,0.31,0.09,-0.21,0.00,-0.20,-0.20,0.00,0.00,0.00,0.00,0.00,819,819,819,819
10720,0,0.31,0.09,-0.21,0.00,-0.20,-0.20,0.00,0.00,0.00,0.00,0.00,819,819,819,819
10727,0,0.31,0.08,-0.20,0.00,-0.20,-0.20,0.00,0.00,0.00,0.00,0.00,819,819,819,819
10733,0,0.31,0.08,-0.20,0.00,-0.20,-0.20,0.00,0.00,0.00,0.00,0.00,819,819,819,819
10740,0,0.31,0.08,-0.20,0.00,-0.20,-0.20,0.00,0.00,0.00,0.00,0.00,819,819,819,819
10746,0,0.31,0.08,-0.20,0.00,-0.20,-0.20,0.00,0.00,0.00,0.00,0.00,819,819,819,819
10752,0,0.31,0.08,-0.20,0.00,-0.20,-0.20,0.00,0.00,0.00,0.00,0.00,819,819,819,819
10758,0,0.31,0.08,-0.20,0.00,-0.20,-0.20,0.00,0.00,0.00,0.00,0.00,819,819,819,819
10764,0,0.31,0.08,-0.20,0.00,-0.20,-0.20,0.00,0.00,0.00,0.00,0.00,819,819,819,819
10774,0,0.31,0.08,-0.20,0.00,-0.20,-0.20,0.00,0.00,0.00,0.00,0.00,819,819,819,819
10780,0,0.31,0.07,-0.20,0.00,-0.20,-0.20,0.00,0.00,0.00,0.00,0.00,819,819,819,819
10787,0,0.31,0.07,-0.20,0.00,-0.20,-0.20,0.00,0.00,0.00,0.00,0.00,819,819,819,819
10793,0,0.31,0.07,-0.20,0.00,-0.20,-0.20,0.00,0.00,0.00,0.00,0.00,819,819,819,819
10800,0,0.31,0.07,-0.20,0.00,-0.20,-0.20,0.00,0.00,0.00,0.00,0.00,819,819,819,819
10811,0,0.31,0.07,-0.20,0.00,-0.20,-0.20,0.00,0.00,0.00,0.00,0.00,819,819,819,819
10819,0,0.31,0.07,-0.20,0.00,-0.20,-0.20,0.00,0.00,0.00,0.00,0.00,819,819,819,819
10826,0,0.32,0.06,-0.20,0.00,-0.20,-0.20,0.00,0.00,0.00,0.00,0.00,819,819,819,819
10833,0,0.32,0.06,-0.20,0.00,-0.20,-0.20,0.00,0.00,0.00,0.00,0.00,819,819,819,819
10840,0,0.32,0.06,-0.20,0.00,-0.20,-0.20,0.00,0.00,0.00,0.00,0.00,819,819,819,819
10846,0,0.32,0.06,-0.20,0.00,-0.20,-0.20,0.00,0.00,0.00,0.00,0.00,819,819,819,819
10853,0,0.32,0.06,-0.20,0.00,-0.20,-0.20,0.00,0.00,0.00,0.00,0.00,819,819,819,819
10859,0,0.32,0.06,-0.20,0.00,-0.20,-0.20,0.00,0.00,0.00,0.00,0.00,819,819,819,819
10866,0,0.31,0.06,-0.20,0.00,-0.20,-0.20,0.00,0.00,0.00,0.00,0.00,819,819,819,819
10872,0,0.31,0.06,-0.19,0.00,-0.20,-0.20,0.00,0.00,0.00,0.00,0.00,819,819,819,819
10879,0,0.31,0.06,-0.19,0.00,-0.20,-0.20,0.00,0.00,0.00,0.00,0.00,819,819,819,819
10887,0,0.31,0.05,-0.19,0.00,-0.20,-0.20,0.00,0.00,0.00,0.00,0.00,819,819,819,819
10893,0,0.31,0.05,-0.19,0.00,-0.20,-0.20,0.00,0.00,0.00,0.00,0.00,819,819,819,819
10900,0,0.31,0.05,-0.19,0.00,-0.20,-0.20,0.00,0.00,0.00,0.00,0.00,819,819,819,819
10906,0,0.31,0.05,-0.19,0.00,-0.20,-0.20,0.00,0.00,0.00,0.00,0.00,819,819,819,819
10913,0,0.30,0.05,-0.19,0.00,-0.20,-0.20,0.00,0.00,0.00,0.00,0.00,819,819,819,819
10920,0,0.30,0.05,-0.19,0.00,-0.20,-0.20,0.00,0.00,0.00,0.00,0.00,819,819,819,819
10927,0,0.30,0.05,-0.19,0.00,-0.20,-0.20,0.00,0.00,0.00,0.00,0.00,819,819,819,819
10934,0,0.30,0.05,-0.19,0.00,-0.20,-0.20,0.00,0.00,0.00,0.00,0.00,819,819,819,819
10941,0,0.30,0.05,-0.18,0.00,-0.20,-0.20,0.00,0.00,0.00,0.00,0.00,819,819,819,819
10947,0,0.30,0.05,-0.18,0.00,-0.20,-0.20,0.00,0.00,0.00,0.00,0.00,819,819,819,819
10953,0,0.30,0.05,-0.18,0.00,-0.20,-0.20,0.00,0.00,0.00,0.00,0.00,819,819,819,819
10960,0,0.30,0.05,-0.18,0.00,-0.20,-0.20,0.00,0.00,0.00,0.00,0.00,819,819,819,819
10967,0,0.30,0.05,-0.18,0.00,-0.20,-0.20,0.00,0.00,0.00,0.00,0.00,819,819,819,819
10974,0,0.30,0.05,-0.18,0.00,-0.20,-0.20,0.00,0.00,0.00,0.00,0.00,819,819,819,819
10980,0,0.30,0.05,-0.18,0.00,-0.20,-0.20,0.00,0.00,0.00,0.00,0.00,819,819,819,819
10988,0,0.30,0.05,-0.18,0.00,-0.20,-0.20,0.00,0.00,0.00,0.00,0.00,819,819,819,819
10994,0,0.30,0.05,-0.18,0.00,-0.20,-0.20,0.00,0.00,0.00,0.00,0.00,819,819,819,819
11001,0,0.30,0.05,-0.18,0.00,-0.20,-0.20,0.00,0.00,0.00,0.00,0.00,819,819,819,819
11007,0,0.30,0.04,-0.18,0.00,-0.20,-0.20,0.00,0.00,0.00,0.00,0.00,819,819,819,819
11014,0,0.30,0.04,-0.17,0.00,-0.20,-0.20,0.00,0.00,0.00,0.00,0.00,819,819,819,819
11026,0,0.30,0.04,-0.17,0.00,-0.20,-0.17,0.00,0.00,0.00,0.00,0.00,819,819,819,819
11033,0,0.30,0.04,-0.17,0.00,-0.20,-0.20,0.00,0.00,0.00,0.00,0.00,819,819,819,819
11041,0,0.30,0.04,-0.17,0.00,-0.20,-0.20,0.00,0.00,0.00,0.00,0.00,819,819,819,819
11047,0,0.30,0.04,-0.17,0.00,-0.20,-0.20,0.00,0.00,0.00,0.00,0.00,819,819,819,819
11054,0,0.30,0.04,-0.17,0.00,-0.20,-0.20,0.00,0.00,0.00,0.00,0.00,819,819,819,819
11060,0,0.30,0.04,-0.17,0.00,-0.20,-0.20,0.00,0.00,0.00,0.00,0.00,819,819,819,819
11068,0,0.30,0.04,-0.17,0.00,-0.20,-0.20,0.00,0.00,0.00,0.00,0.00,819,819,819,819
11074,0,0.30,0.04,-0.17,0.00,-0.20,-0.20,0.00,0.00,0.00,0.00,0.00,819,819,819,819
11081,0,0.30,0.04,-0.17,0.00,-0.20,-0.20,0.00,0.00,0.00,0.00,0.00,819,819,819,819
11088,0,0.29,0.03,-0.17,0.00,-0.20,-0.20,0.00,0.00,0.00,0.00,0.00,819,819,819,819
11094,0,0.29,0.03,-0.17,0.00,-0.20,-0.20,0.00,0.00,0.00,0.00,0.00,819,819,819,819
11101,0,0.29,0.03,-0.17,0.00,-0.20,-0.20,0.00,0.00,0.00,0.00,0.00,819,819,819,819
11107,0,0.29,0.03,-0.17,0.00,-0.20,-0.20,0.00,0.00,0.00,0.00,0.00,819,819,819,819
11113,0,0.28,0.03,-0.17,0.00,-0.20,-0.20,0.00,0.00,0.00,0.00,0.00,819,819,819,819
11121,0,0.28,0.03,-0.17,0.00,-0.20,-0.20,0.00,0.00,0.00,0.00,0.00,819,819,819,819
11128,0,0.28,0.03,-0.17,0.00,-0.20,-0.20,0.00,0.00,0.00,0.00,0.00,819,819,819,819
11134,0,0.28,0.03,-0.17,0.00,-0.20,-0.20,0.00,0.00,0.00,0.00,0.00,819,819,819,819
11141,0,0.28,0.03,-0.17,0.00,-0.20,-0.20,0.00,0.00,0.00,0.00,0.00,819,819,819,819
11147,0,0.27,0.03,-0.17,0.00,-0.20,-0.20,0.00,0.00,0.00,0.00,0.00,819,819,819,819
11153,0,0.27,0.03,-0.17,0.00,-0.20,-0.20,0.00,0.00,0.00,0.00,0.00,819,819,819,819
11159,0,0.27,0.03,-0.17,0.00,-0.20,-0.20,0.00,0.00,0.00,0.00,0.00,819,819,819,819
11166,0,0.27,0.03,-0.17,0.00,-0.20,-0.20,0.00,0.00,0.00,0.00,0.00,819,819,819,819
11172,0,0.27,0.03,-0.17,0.00,-0.20,-0.20,0.00,0.00,0.00,0.00,0.00,819,819,819,819
11180,0,0.27,0.03,-0.17,0.00,-0.20,-0.17,0.00,0.00,0.00,0.00,0.00,819,819,819,819
11187,0,0.26,0.02,-0.17,0.00,-0.20,-0.16,0.00,0.00,0.00,0.00,0.00,819,819,819,819
11194,0,0.26,0.02,-0.17,0.00,-0.20,-0.18,0.00,0.00,0.00,0.00,0.00,819,819,819,819
11200,0,0.26,0.02,-0.17,0.00,-0.20,-0.18,0.00,0.00,0.00,0.00,0.00,819,819,819,819
11207,0,0.26,0.02,-0.17,0.00,-0.20,-0.17,0.00,0.00,0.00,0.00,0.00,819,819,819,819
11213,0,0.26,0.02,-0.17,0.00,-0.20,-0.16,0.00,0.00,0.00,0.00,0.00,819,819,819,819
11220,0,0.26,0.02,-0.17,0.00,-0.20,-0.14,0.00,0.00,0.00,0.00,0.00,819,819,819,819
11228,0,0.26,0.02,-0.18,0.00,-0.20,-0.13,0.00,0.00,0.00,0.00,0.00,819,819,819,819
11241,0,0.25,0.02,-0.18,0.00,-0.20,-0.07,0.00,0.00,0.00,0.00,0.00,819,819,819,819
11248,0,0.25,0.02,-0.18,0.00,-0.20,-0.13,0.00,0.00,0.00,0.00,0.00,819,819,819,819
11254,0,0.25,0.02,-0.18,0.00,-0.20,-0.14,0.00,0.00,0.00,0.00,0.00,819,819,819,819
11261,0,0.25,0.02,-0.18,0.00,-0.20,-0.13,0.00,0.00,0.00,0.00,0.00,819,819,819,819
11268,0,0.25,0.02,-0.18,0.00,-0.20,-0.13,0.00,0.00,0.00,0.00,0.00,819,819,819,819
11274,0,0.25,0.02,-0.18,0.00,-0.20,-0.14,0.00,0.00,0.00,0.00,0.00,819,819,819,819
11281,0,0.25,0.02,-0.18,0.00,-0.20,-0.13,0.00,0.00,0.00,0.00,0.00,819,819,819,819
11288,0,0.25,0.02,-0.18,0.00,-0.20,-0.12,0.00,0.00,0.00,0.00,0.00,819,819,819,819
11295,0,0.25,0.02,-0.18,0.00,-0.20,-0.14,0.00,0.00,0.00,0.00,0.00,819,819,819,819
11301,0,0.25,0.02,-0.18,0.00,-0.20,-0.15,0.00,0.00,0.00,0.00,0.00,819,819,819,819
11308,0,0.25,0.02,-0.18,0.00,-0.20,-0.15,0.00,0.00,0.00,0.00,0.00,819,819,819,819
11314,0,0.25,0.02,-0.18,0.00,-0.20,-0.15,0.00,0.00,0.00,0.00,0.00,819,819,819,819
11321,0,0.25,0.02,-0.18,0.00,-0.20,-0.13,0.00,0.00,0.00,0.00,0.00,819,819,819,819
11329,0,0.24,0.02,-0.18,0.00,-0.20,-0.13,0.00,0.00,0.00,0.00,0.00,819,819,819,819
11335,0,0.24,0.02,-0.18,0.00,-0.20,-0.14,0.00,0.00,0.00,0.00,0.00,819,819,819,819
11342,0,0.24,0.02,-0.18,0.00,-0.20,-0.13,0.00,0.00,0.00,0.00,0.00,819,819,819,819
11348,0,0.24,0.02,-0.18,0.00,-0.20,-0.14,0.00,0.00,0.00,0.00,0.00,819,819,819,819
11355,0,0.24,0.02,-0.19,0.00,-0.20,-0.14,0.00,0.00,0.00,0.00,0.00,819,819,819,819
11361,0,0.24,0.02,-0.19,0.00,-0.20,-0.14,0.00,0.00,0.00,0.00,0.00,819,819,819,819
11368,0,0.24,0.02,-0.19,0.00,-0.20,-0.12,0.00,0.00,0.00,0.00,0.00,819,819,819,819
11375,0,0.24,0.02,-0.19,0.00,-0.20,-0.13,0.00,0.00,0.00,0.00,0.00,819,819,819,819
11382,0,0.24,0.02,-0.19,0.00,-0.20,-0.12,0.00,0.00,0.00,0.00,0.00,819,819,819,819
11389,0,0.24,0.02,-0.19,0.00,-0.20,-0.11,0.00,0.00,0.00,0.00,0.00,819,819,819,819
11395,0,0.24,0.01,-0.19,0.00,-0.20,-0.11,0.00,0.00,0.00,0.00,0.00,819,819,819,819
11402,0,0.24,0.01,-0.19,0.00,-0.20,-0.10,0.00,0.00,0.00,0.00,0.00,819,819,819,819
11408,0,0.24,0.01,-0.19,0.00,-0.20,-0.10,0.00,0.00,0.00,0.00,0.00,819,819,819,819
11414,0,0.24,0.01,-0.19,0.00,-0.20,-0.10,0.00,0.00,0.00,0.00,0.00,819,819,819,819
11421,0,0.24,0.01,-0.19,0.00,-0.20,-0.09,0.00,0.00,0.00,0.00,0.00,819,819,819,819
11429,0,0.24,0.01,-0.19,0.00,-0.20,-0.08,0.00,0.00,0.00,0.00,0.00,819,819,819,819
11435,0,0.24,0.01,-0.19,0.00,-0.20,-0.08,0.00,0.00,0.00,0.00,0.00,819,819,819,819
11442,0,0.24,0.01,-0.19,0.00,-0.20,-0.07,0.00,0.00,0.00,0.00,0.00,819,819,819,819
11453,0,0.23,0.00,-0.19,0.00,-0.20,-0.04,0.00,0.00,0.00,0.00,0.00,819,819,819,819
11460,0,0.23,0.00,-0.19,0.00,-0.20,-0.06,0.00,0.00,0.00,0.00,0.00,819,819,819,819
11466,0,0.23,0.00,-0.19,0.00,-0.20,-0.07,0.00,0.00,0.00,0.00,0.00,819,819,819,819
11472,0,0.23,0.00,-0.20,0.00,-0.20,-0.07,0.00,0.00,0.00,0.00,0.00,819,819,819,819
11480,0,0.23,0.00,-0.20,0.00,-0.20,-0.06,0.00,0.00,0.00,0.00,0.00,819,819,819,819
11486,0,0.23,0.00,-0.20,0.00,-0.20,-0.07,0.00,0.00,0.00,0.00,0.00,819,819,819,819
11492,0,0.23,0.00,-0.20,0.00,-0.20,-0.07,0.00,0.00,0.00,0.00,0.00,819,819,819,819
11498,0,0.23,0.00,-0.20,0.00,-0.20,-0.07,0.00,0.00,0.00,0.00,0.00,819,819,819,819
11505,0,0.23,0.00,-0.20,0.00,-0.20,-0.07,0.00,0.00,0.00,0.00,0.00,819,819,819,819
11511,0,0.23,0.00,-0.20,0.00,-0.20,-0.07,0.00,0.00,0.00,0.00,0.00,819,819,819,819
11519,0,0.23,0.00,-0.20,0.00,-0.20,-0.06,0.00,0.00,0.00,0.00,0.00,819,819,819,819
11525,0,0.23,0.00,-0.20,0.00,-0.20,-0.07,0.00,0.00,0.00,0.00,0.00,819,819,819,819
11532,0,0.22,0.00,-0.20,0.00,-0.20,-0.07,0.00,0.00,0.00,0.00,0.00,819,819,819,819
11539,0,0.22,0.00,-0.20,0.00,-0.20,-0.06,0.00,0.00,0.00,0.00,0.00,819,819,819,819
11546,0,0.22,0.00,-0.20,0.00,-0.20,-0.07,0.00,0.00,0.00,0.00,0.00,819,819,819,819
11552,0,0.22,0.00,-0.20,0.00,-0.20,-0.07,0.00,0.00,0.00,0.00,0.00,819,819,819,819
11559,0,0.22,0.00,-0.20,0.00,-0.20,-0.07,0.00,0.00,0.00,0.00,0.00,819,819,819,819
11565,0,0.22,0.01,-0.21,0.00,-0.20,-0.08,0.00,0.00,0.00,0.00,0.00,819,819,819,819
11572,0,0.22,0.01,-0.21,0.00,-0.20,-0.07,0.00,0.00,0.00,0.00,0.00,819,819,819,819
11579,0,0.22,0.01,-0.21,0.00,-0.20,-0.07,0.00,0.00,0.00,0.00,0.00,819,819,819,819
11586,0,0.22,0.01,-0.21,0.00,-0.20,-0.08,0.00,0.00,0.00,0.00,0.00,819,819,819,819
11592,0,0.22,0.01,-0.21,0.00,-0.20,-0.08,0.00,0.00,0.00,0.00,0.00,819,819,819,819
11599,0,0.22,0.01,-0.21,0.00,-0.20,-0.09,0.00,0.00,0.00,0.00,0.00,819,819,819,819
11605,0,0.22,0.01,-0.21,0.00,-0.20,-0.09,0.00,0.00,0.00,0.00,0.00,819,819,819,819
11612,0,0.22,0.01,-0.21,0.00,-0.20,-0.08,0.00,0.00,0.00,0.00,0.00,819,819,819,819
11619,0,0.22,0.01,-0.21,0.00,-0.20,-0.07,0.00,0.00,0.00,0.00,0.00,819,819,819,819
11626,0,0.22,0.01,-0.21,0.00,-0.20,-0.10,0.00,0.00,0.00,0.00,0.00,819,819,819,819
11632,0,0.22,0.01,-0.21,0.00,-0.20,-0.09,0.00,0.00,0.00,0.00,0.00,819,819,819,819
11640,0,0.22,0.01,-0.21,0.00,-0.20,-0.08,0.00,0.00,0.00,0.00,0.00,819,819,819,819
11646,0,0.21,0.01,-0.22,0.00,-0.20,-0.10,0.00,0.00,0.00,0.00,0.00,819,819,819,819
11653,0,0.21,0.01,-0.22,0.00,-0.20,-0.10,0.00,0.00,0.00,0.00,0.00,819,819,819,819
11664,0,0.21,0.02,-0.22,0.00,-0.20,-0.07,0.00,0.00,0.00,0.00,0.00,819,819,819,819
11672,0,0.21,0.02,-0.22,0.00,-0.20,-0.10,0.00,0.00,0.00,0.00,0.00,819,819,819,819
11680,0,0.21,0.02,-0.22,0.00,-0.20,-0.11,0.00,0.00,0.00,0.00,0.00,819,819,819,819
11686,0,0.21,0.02,-0.22,0.00,-0.20,-0.13,0.00,0.00,0.00,0.00,0.00,819,819,819,819
11693,0,0.21,0.02,-0.22,0.00,-0.20,-0.12,0.00,0.00,0.00,0.00,0.00,819,819,819,819
11699,0,0.21,0.02,-0.22,0.00,-0.20,-0.13,0.00,0.00,0.00,0.00,0.00,819,819,819,819
11706,0,0.21,0.02,-0.22,0.00,-0.20,-0.13,0.00,0.00,0.00,0.00,0.00,819,819,819,819
11712,0,0.21,0.02,-0.22,0.00,-0.20,-0.13,0.00,0.00,0.00,0.00,0.00,819,819,819,819
11720,0,0.21,0.02,-0.23,0.00,-0.20,-0.11,0.00,0.00,0.00,0.00,0.00,819,819,819,819
11726,0,0.21,0.02,-0.23,0.00,-0.20,-0.13,0.00,0.00,0.00,0.00,0.00,819,819,819,819
11733,0,0.21,0.02,-0.23,0.00,-0.20,-0.12,0.00,0.00,0.00,0.00,0.00,819,819,819,819
11740,0,0.21,0.02,-0.23,0.00,-0.20,-0.11,0.00,0.00,0.00,0.00,0.00,819,819,819,819
11746,0,0.21,0.02,-0.23,0.00,-0.20,-0.12,0.00,0.00,0.00,0.00,0.00,819,819,819,819
11753,0,0.21,0.02,-0.23,0.00,-0.20,-0.12,0.00,0.00,0.00,0.00,0.00,819,819,819,819
11759,0,0.21,0.01,-0.23,0.00,-0.20,-0.11,0.00,0.00,0.00,0.00,0.00,819,819,819,819
11765,0,0.21,0.01,-0.23,0.00,-0.20,-0.11,0.00,0.00,0.00,0.00,0.00,819,819,819,819
11772,0,0.21,0.01,-0.23,0.00,-0.20,-0.10,0.00,0.00,0.00,0.00,0.00,819,819,819,819
11780,0,0.21,0.01,-0.23,0.00,-0.20,-0.09,0.00,0.00,0.00,0.00,0.00,819,819,819,819
11786,0,0.21,0.01,-0.23,0.00,-0.20,-0.10,0.00,0.00,0.00,0.00,0.00,819,819,819,819
11793,0,0.21,0.01,-0.23,0.00,-0.20,-0.08,0.00,0.00,0.00,0.00,0.00,819,819,819,819
11799,0,0.21,0.01,-0.23,0.00,-0.20,-0.09,0.00,0.00,0.00,0.00,0.00,819,819,819,819
11805,0,0.21,0.01,-0.23,0.00,-0.20,-0.08,0.00,0.00,0.00,0.00,0.00,819,819,819,819
11811,0,0.21,0.01,-0.23,0.00,-0.20,-0.08,0.00,0.00,0.00,0.00,0.00,819,819,819,819
11818,0,0.21,0.00,-0.24,0.00,-0.20,-0.07,0.00,0.00,0.00,0.00,0.00,819,819,819,819
11824,0,0.21,0.00,-0.24,0.00,-0.20,-0.05,0.00,0.00,0.00,0.00,0.00,819,819,819,819
11831,0,0.21,0.00,-0.24,0.00,-0.20,-0.05,0.00,0.00,0.00,0.00,0.00,819,819,819,819
11838,0,0.21,0.00,-0.24,0.00,-0.20,-0.03,0.00,0.00,0.00,0.00,0.00,819,819,819,819
11844,0,0.21,0.00,-0.24,0.00,-0.20,-0.03,0.00,0.00,0.00,0.00,0.00,819,819,819,819
11851,0,0.21,0.00,-0.24,0.00,-0.20,-0.03,0.00,0.00,0.00,0.00,0.00,819,819,819,819
11857,0,0.20,0.00,-0.24,0.00,-0.20,-0.00,0.00,0.00,0.00,0.00,0.00,819,819,819,819
11864,0,0.20,-0.00,-0.24,0.00,-0.20,0.00,0.00,0.00,0.00,0.00,0.00,819,819,819,819
11875,0,0.20,-0.00,-0.24,0.00,-0.20,0.00,0.00,0.00,0.00,0.00,0.00,819,819,819,819
11883,0,0.20,-0.00,-0.24,0.00,-0.20,0.00,0.00,0.00,0.00,0.00,0.00,819,819,819,819
11890,0,0.20,-0.00,-0.24,0.00,-0.20,0.01,0.00,0.00,0.00,0.00,0.00,819,819,819,819
11897,0,0.20,-0.00,-0.24,0.00,-0.20,0.03,0.00,0.00,0.00,0.00,0.00,819,819,819,819
11903,0,0.20,-0.00,-0.24,0.00,-0.20,0.03,0.00,0.00,0.00,0.00,0.00,819,819,819,819
11910,0,0.20,-0.00,-0.24,0.00,-0.20,0.03,0.00,0.00,0.00,0.00,0.00,819,819,819,819
11916,0,0.20,-0.00,-0.24,0.00,-0.20,0.05,0.00,0.00,0.00,0.00,0.00,819,819,819,819
11923,0,0.20,-0.00,-0.24,0.00,-0.20,0.06,0.00,0.00,0.00,0.00,0.00,819,819,819,819
11930,0,0.20,-0.00,-0.24,0.00,-0.20,0.05,0.00,0.00,0.00,0.00,0.00,819,819,819,819
11937,0,0.20,-0.00,-0.24,0.00,-0.20,0.07,0.00,0.00,0.00,0.00,0.00,819,819,819,819
11943,0,0.20,-0.01,-0.24,0.00,-0.20,0.07,0.00,0.00,0.00,0.00,0.00,819,819,819,819
11950,0,0.20,-0.01,-0.24,0.00,-0.20,0.08,0.00,0.00,0.00,0.00,0.00,819,819,819,819
11956,0,0.20,-0.01,-0.24,0.00,-0.20,0.09,0.00,0.00,0.00,0.00,0.00,819,819,819,819
11963,0,0.20,-0.01,-0.24,0.00,-0.20,0.08,0.00,0.00,0.00,0.00,0.00,819,819,819,819
11970,0,0.20,-0.01,-0.24,0.00,-0.20,0.09,0.00,0.00,0.00,0.00,0.00,819,819,819,819
11976,0,0.20,-0.01,-0.25,0.00,-0.20,0.10,0.00,0.00,0.00,0.00,0.00,819,819,819,819
11983,0,0.20,-0.01,-0.25,0.00,-0.20,0.10,0.00,0.00,0.00,0.00,0.00,819,819,819,819
11990,0,0.20,-0.01,-0.25,0.00,-0.20,0.10,0.00,0.00,0.00,0.00,0.00,819,819,819,819
11997,0,0.20,-0.02,-0.25,0.00,-0.20,0.12,0.00,0.00,0.00,0.00,0.00,819,819,819,819
12003,0,0.20,-0.02,-0.25,0.00,-0.20,0.13,0.00,0.00,0.00,0.00,0.00,819,819,819,819
12010,0,0.20,-0.02,-0.25,0.00,-0.20,0.13,0.00,0.00,0.00,0.00,0.00,819,819,819,819
12016,0,0.20,-0.02,-0.25,0.00,-0.20,0.14,0.00,0.00,0.00,0.00,0.00,819,819,819,819
12023,0,0.20,-0.02,-0.25,0.00,-0.20,0.13,0.00,0.00,0.00,0.00,0.00,819,819,819,819
12031,0,0.20,-0.02,-0.25,0.00,-0.20,0.12,0.00,0.00,0.00,0.00,0.00,819,819,819,819
12037,0,0.20,-0.02,-0.25,0.00,-0.20,0.14,0.00,0.00,0.00,0.00,0.00,819,819,819,819
12044,0,0.20,-0.02,-0.26,0.00,-0.20,0.14,0.00,0.00,0.00,0.00,0.00,819,819,819,819
12050,0,0.20,-0.02,-0.26,0.00,-0.20,0.14,0.00,0.00,0.00,0.00,0.00,819,819,819,819
12056,0,0.19,-0.02,-0.26,0.00,-0.20,0.15,0.00,0.00,0.00,0.00,0.00,819,819,819,819
12063,0,0.19,-0.02,-0.26,0.00,-0.20,0.14,0.00,0.00,0.00,0.00,0.00,819,819,819,819
12070,0,0.19,-0.02,-0.26,0.00,-0.20,0.13,0.00,0.00,0.00,0.00,0.00,819,819,819,819
12076,0,0.19,-0.02,-0.26,0.00,-0.20,0.14,0.00,0.00,0.00,0.00,0.00,819,819,819,819
12089,0,0.19,-0.02,-0.26,0.00,-0.20,0.08,0.00,0.00,0.00,0.00,0.00,819,819,819,819
12096,0,0.19,-0.02,-0.26,0.00,-0.20,0.16,0.00,0.00,0.00,0.00,0.00,819,819,819,819
12102,0,0.19,-0.02,-0.26,0.00,-0.20,0.17,0.00,0.00,0.00,0.00,0.00,819,819,819,819
12108,0,0.19,-0.02,-0.27,0.00,-0.20,0.17,0.00,0.00,0.00,0.00,0.00,819,819,819,819
12114,0,0.19,-0.02,-0.27,0.00,-0.20,0.18,0.00,0.00,0.00,0.00,0.00,819,819,819,819
12121,0,0.19,-0.02,-0.27,0.00,-0.20,0.15,0.00,0.00,0.00,0.00,0.00,819,819,819,819
12132,0,0.19,-0.02,-0.27,0.00,-0.20,0.11,0.00,0.00,0.00,0.00,0.00,819,819,819,819
12138,0,0.19,-0.02,-0.27,0.00,-0.20,0.20,0.00,0.00,0.00,0.00,0.00,819,819,819,819
12144,0,0.19,-0.03,-0.28,0.00,-0.20,0.20,0.00,0.00,0.00,0.00,0.00,819,819,819,819
12150,0,0.19,-0.03,-0.28,0.00,-0.20,0.20,0.00,0.00,0.00,0.00,0.00,819,819,819,819
12156,0,0.19,-0.03,-0.28,0.00,-0.20,0.20,0.00,0.00,0.00,0.00,0.00,819,819,819,819
12163,0,0.19,-0.03,-0.28,0.00,-0.20,0.20,0.00,0.00,0.00,0.00,0.00,819,819,819,819
12169,0,0.19,-0.03,-0.28,0.00,-0.20,0.20,0.00,0.00,0.00,0.00,0.00,819,819,819,819
12175,0,0.19,-0.03,-0.29,0.00,-0.20,0.20,0.00,0.00,0.00,0.00,0.00,819,819,819,819
12182,0,0.19,-0.03,-0.29,0.00,-0.20,0.19,0.00,0.00,0.00,0.00,0.00,819,819,819,819
12190,0,0.18,-0.03,-0.29,0.00,-0.20,0.20,0.00,0.00,0.00,0.00,0.00,819,819,819,819
12196,0,0.18,-0.03,-0.29,0.00,-0.20,0.20,0.00,0.00,0.00,0.00,0.00,819,819,819,819
12202,0,0.18,-0.03,-0.29,0.00,-0.20,0.20,0.00,0.00,0.00,0.00,0.00,819,819,819,819
12209,0,0.18,-0.03,-0.30,0.00,-0.20,0.20,0.00,0.00,0.00,0.00,0.00,819,819,819,819
12215,0,0.18,-0.03,-0.30,0.00,-0.20,0.20,0.00,0.00,0.00,0.00,0.00,819,819,819,819
12223,0,0.18,-0.03,-0.30,0.00,-0.20,0.20,0.00,0.00,0.00,0.00,0.00,819,819,819,819
12230,0,0.18,-0.03,-0.31,0.00,-0.20,0.20,0.00,0.00,0.00,0.00,0.00,819,819,819,819
12237,0,0.18,-0.03,-0.31,0.00,-0.20,0.20,0.00,0.00,0.00,0.00,0.00,819,819,819,819
12244,0,0.18,-0.03,-0.31,0.00,-0.20,0.20,0.00,0.00,0.00,0.00,0.00,819,819,819,819
12250,0,0.17,-0.03,-0.31,0.00,-0.20,0.20,0.00,0.00,0.00,0.00,0.00,819,819,819,819
12257,0,0.17,-0.03,-0.32,0.00,-0.20,0.20,0.00,0.00,0.00,0.00,0.00,819,819,819,819
12263,0,0.17,-0.03,-0.32,0.00,-0.20,0.20,0.00,0.00,0.00,0.00,0.00,819,819,819,819
12270,0,0.17,-0.03,-0.32,0.00,-0.20,0.20,0.00,0.00,0.00,0.00,0.00,819,819,819,819
12276,0,0.17,-0.03,-0.33,0.00,-0.20,0.20,0.00,0.00,0.00,0.00,0.00,819,819,819,819
12283,0,0.17,-0.03,-0.33,0.00,-0.20,0.20,0.00,0.00,0.00,0.00,0.00,819,819,819,819
12294,0,0.17,-0.03,-0.33,0.00,-0.20,0.16,0.00,0.00,0.00,0.00,0.00,819,819,819,819
12300,0,0.16,-0.03,-0.34,0.00,-0.20,0.20,0.00,0.00,0.00,0.00,0.00,819,819,819,819
12307,0,0.16,-0.03,-0.34,0.00,-0.20,0.20,0.00,0.00,0.00,0.00,0.00,819,819,819,819
12313,0,0.16,-0.03,-0.34,0.00,-0.20,0.20,0.00,0.00,0.00,0.00,0.00,819,819,819,819
12320,0,0.16,-0.03,-0.34,0.00,-0.20,0.20,0.00,0.00,0.00,0.00,0.00,819,819,819,819
12326,0,0.16,-0.03,-0.35,0.00,-0.20,0.20,0.00,0.00,0.00,0.00,0.00,819,819,819,819
12333,0,0.16,-0.03,-0.35,0.00,-0.20,0.20,0.00,0.00,0.00,0.00,0.00,819,819,819,819
12341,0,0.16,-0.03,-0.35,0.00,-0.20,0.20,0.00,0.00,0.00,0.00,0.00,819,819,819,819
12347,0,0.16,-0.03,-0.36,0.00,-0.20,0.20,0.00,0.00,0.00,0.00,0.00,819,819,819,819
12354,0,0.16,-0.03,-0.36,0.00,-0.20,0.20,0.00,0.00,0.00,0.00,0.00,819,819,819,819
12360,0,0.15,-0.03,-0.36,0.00,-0.20,0.20,0.00,0.00,0.00,0.00,0.00,819,819,819,819
12367,0,0.15,-0.03,-0.37,0.00,-0.20,0.20,0.00,0.00,0.00,0.00,0.00,819,819,819,819
12374,0,0.15,-0.03,-0.37,0.00,-0.20,0.20,0.00,0.00,0.00,0.00,0.00,819,819,819,819
12381,0,0.15,-0.03,-0.37,0.00,-0.20,0.20,0.00,0.00,0.00,0.00,0.00,819,819,819,819
12388,0,0.15,-0.03,-0.38,0.00,-0.20,0.20,0.00,0.00,0.00,0.00,0.00,819,819,819,819
12394,0,0.15,-0.03,-0.38,0.00,-0.20,0.20,0.00,0.00,0.00,0.00,0.00,819,819,819,819
12401,0,0.15,-0.03,-0.38,0.00,-0.20,0.20,0.00,0.00,0.00,0.00,0.00,819,819,819,819
12407,0,0.15,-0.03,-0.38,0.00,-0.20,0.20,0.00,0.00,0.00,0.00,0.00,819,819,819,819
12414,0,0.15,-0.03,-0.38,0.00,-0.20,0.20,0.00,0.00,0.00,0.00,0.00,819,819,819,819
12421,0,0.15,-0.03,-0.39,0.00,-0.20,0.20,0.00,0.00,0.00,0.00,0.00,819,819,819,819
12428,0,0.15,-0.03,-0.39,0.00,-0.20,0.20,0.00,0.00,0.00,0.00,0.00,819,819,819,819
12434,0,0.15,-0.03,-0.40,0.00,-0.20,0.20,0.00,0.00,0.00,0.00,0.00,819,819,819,819
12442,0,0.15,-0.03,-0.40,0.00,-0.20,0.20,0.00,0.00,0.00,0.00,0.00,819,819,819,819
12448,0,0.15,-0.03,-0.40,0.00,-0.20,0.20,0.00,0.00,0.00,0.00,0.00,819,819,819,819
12454,0,0.15,-0.03,-0.40,0.00,-0.20,0.20,0.00,0.00,0.00,0.00,0.00,819,819,819,819
12461,0,0.15,-0.03,-0.41,0.00,-0.20,0.20,0.00,0.00,0.00,0.00,0.00,819,819,819,819
12467,0,0.15,-0.03,-0.41,0.00,-0.20,0.20,0.00,0.00,0.00,0.00,0.00,819,819,819,819
12474,0,0.15,-0.03,-0.41,0.00,-0.20,0.20,0.00,0.00,0.00,0.00,0.00,819,819,819,819
12481,0,0.15,-0.03,-0.41,0.00,-0.20,0.20,0.00,0.00,0.00,0.00,0.00,819,819,819,819
12487,0,0.15,-0.03,-0.42,0.00,-0.20,0.20,0.00,0.00,0.00,0.00,0.00,819,819,819,819
12494,0,0.15,-0.03,-0.42,0.00,-0.20,0.20,0.00,0.00,0.00,0.00,0.00,819,819,819,819
12505,0,0.15,-0.03,-0.43,0.00,-0.20,0.14,0.00,0.00,0.00,0.00,0.00,819,819,819,819
12511,0,0.15,-0.03,-0.43,0.00,-0.20,0.20,0.00,0.00,0.00,0.00,0.00,819,819,819,819
12517,0,0.15,-0.03,-0.43,0.00,-0.20,0.20,0.00,0.00,0.00,0.00,0.00,819,819,819,819
12524,0,0.15,-0.03,-0.43,0.00,-0.20,0.20,0.00,0.00,0.00,0.00,0.00,819,819,819,819
12532,0,0.15,-0.03,-0.44,0.00,-0.20,0.20,0.00,0.00,0.00,0.00,0.00,819,819,819,819
12538,0,0.15,-0.03,-0.44,0.00,-0.20,0.20,0.00,0.00,0.00,0.00,0.00,819,819,819,819
12545,0,0.15,-0.03,-0.45,0.00,-0.20,0.20,0.00,0.00,0.00,0.00,0.00,819,819,819,819
12551,0,0.15,-0.03,-0.45,0.00,-0.20,0.20,0.00,0.00,0.00,0.00,0.00,819,819,819,819
12558,0,0.15,-0.03,-0.45,0.00,-0.20,0.20,0.00,0.00,0.00,0.00,0.00,819,819,819,819
12564,0,0.15,-0.03,-0.45,0.00,-0.20,0.20,0.00,0.00,0.00,0.00,0.00,819,819,819,819
12571,0,0.15,-0.03,-0.45,0.00,-0.20,0.20,0.00,0.00,0.00,0.00,0.00,819,819,819,819
12578,0,0.15,-0.04,-0.46,0.00,-0.20,0.20,0.00,0.00,0.00,0.00,0.00,819,819,819,819
12585,0,0.15,-0.04,-0.46,0.00,-0.20,0.20,0.00,0.00,0.00,0.00,0.00,819,819,819,819
12592,0,0.15,-0.04,-0.46,0.00,-0.20,0.20,0.00,0.00,0.00,0.00,0.00,819,819,819,819
12598,0,0.15,-0.04,-0.46,0.00,-0.20,0.20,0.00,0.00,0.00,0.00,0.00,819,819,819,819
12605,0,0.15,-0.04,-0.47,0.00,-0.20,0.20,0.00,0.00,0.00,0.00,0.00,819,819,819,819
12611,0,0.15,-0.04,-0.47,0.00,-0.20,0.20,0.00,0.00,0.00,0.00,0.00,819,819,819,819
12618,0,0.15,-0.04,-0.47,0.00,-0.20,0.20,0.00,0.00,0.00,0.00,0.00,819,819,819,819
12625,0,0.15,-0.04,-0.47,0.00,-0.20,0.20,0.00,0.00,0.00,0.00,0.00,819,819,819,819
12632,0,0.15,-0.04,-0.47,0.00,-0.20,0.20,0.00,0.00,0.00,0.00,0.00,819,819,819,819
12638,0,0.15,-0.04,-0.48,0.00,-0.20,0.20,0.00,0.00,0.00,0.00,0.00,819,819,819,819
12645,0,0.15,-0.04,-0.48,0.00,-0.20,0.20,0.00,0.00,0.00,0.00,0.00,819,819,819,819
12651,0,0.15,-0.05,-0.48,0.00,-0.20,0.20,0.00,0.00,0.00,0.00,0.00,819,819,819,819
12658,0,0.15,-0.05,-0.49,0.00,-0.20,0.20,0.00,0.00,0.00,0.00,0.00,819,819,819,819
12664,0,0.15,-0.05,-0.49,0.00,-0.20,0.20,0.00,0.00,0.00,0.00,0.00,819,819,819,819
12671,0,0.14,-0.05,-0.49,0.00,-0.20,0.20,0.00,0.00,0.00,0.00,0.00,819,819,819,819
12678,0,0.14,-0.05,-0.49,0.00,-0.20,0.20,0.00,0.00,0.00,0.00,0.00,819,819,819,819
12685,0,0.14,-0.05,-0.49,0.00,-0.20,0.20,0.00,0.00,0.00,0.00,0.00,819,819,819,819
12692,0,0.14,-0.05,-0.50,0.00,-0.20,0.20,0.00,0.00,0.00,0.00,0.00,819,819,819,819
12699,0,0.14,-0.05,-0.50,0.00,-0.20,0.20,0.00,0.00,0.00,0.00,0.00,819,819,819,819
12705,0,0.14,-0.05,-0.50,0.00,-0.20,0.20,0.00,0.00,0.00,0.00,0.00,819,819,819,819
12715,0,0.14,-0.06,-0.51,0.00,-0.20,0.20,0.00,0.00,0.00,0.00,0.00,819,819,819,819
12722,0,0.13,-0.06,-0.51,0.00,-0.20,0.20,0.00,0.00,0.00,0.00,0.00,819,819,819,819
12730,0,0.13,-0.06,-0.51,0.00,-0.20,0.20,0.00,0.00,0.00,0.00,0.00,819,819,819,819
12736,0,0.13,-0.06,-0.52,0.00,-0.20,0.20,0.00,0.00,0.00,0.00,0.00,819,819,819,819
12743,0,0.13,-0.06,-0.52,0.00,-0.20,0.20,0.00,0.00,0.00,0.00,0.00,819,819,819,819
12750,0,0.13,-0.06,-0.52,0.00,-0.20,0.20,0.00,0.00,0.00,0.00,0.00,819,819,819,819
12756,0,0.12,-0.06,-0.53,0.00,-0.20,0.20,0.00,0.00,0.00,0.00,0.00,819,819,819,819
12763,0,0.12,-0.06,-0.53,0.00,-0.20,0.20,0.00,0.00,0.00,0.00,0.00,819,819,819,819
12769,0,0.12,-0.06,-0.53,0.00,-0.20,0.20,0.00,0.00,0.00,0.00,0.00,819,819,819,819
12775,0,0.12,-0.06,-0.53,0.00,-0.20,0.20,0.00,0.00,0.00,0.00,0.00,819,819,819,819
12782,0,0.12,-0.06,-0.53,0.00,-0.20,0.20,0.00,0.00,0.00,0.00,0.00,819,819,819,819
12788,0,0.12,-0.07,-0.54,0.00,-0.20,0.20,0.00,0.00,0.00,0.00,0.00,819,819,819,819
12795,0,0.12,-0.07,-0.54,0.00,-0.20,0.20,0.00,0.00,0.00,0.00,0.00,819,819,819,819
12802,0,0.11,-0.07,-0.54,0.00,-0.20,0.20,0.00,0.00,0.00,0.00,0.00,819,819,819,819
12808,0,0.11,-0.07,-0.55,0.00,-0.20,0.20,0.00,0.00,0.00,0.00,0.00,819,819,819,819
12814,0,0.11,-0.07,-0.55,0.00,-0.20,0.20,0.00,0.00,0.00,0.00,0.00,819,819,819,819
12820,0,0.11,-0.07,-0.55,0.00,-0.20,0.20,0.00,0.00,0.00,0.00,0.00,819,819,819,819
12826,0,0.11,-0.07,-0.56,0.00,-0.20,0.20,0.00,0.00,0.00,0.00,0.00,819,819,819,819
12833,0,0.11,-0.07,-0.56,0.00,-0.20,0.20,0.00,0.00,0.00,0.00,0.00,819,819,819,819
12840,0,0.10,-0.07,-0.57,0.00,-0.20,0.20,0.00,0.00,0.00,0.00,0.00,819,819,819,819
12846,0,0.10,-0.07,-0.57,0.00,-0.20,0.20,0.00,0.00,0.00,0.00,0.00,819,819,819,819
12852,0,0.10,-0.07,-0.57,0.00,-0.20,0.20,0.00,0.00,0.00,0.00,0.00,819,819,819,819
12859,0,0.10,-0.07,-0.58,0.00,-0.20,0.20,0.00,0.00,0.00,0.00,0.00,819,819,819,819
12865,0,0.10,-0.07,-0.58,0.00,-0.20,0.20,0.00,0.00,0.00,0.00,0.00,819,819,819,819
12873,0,0.09,-0.07,-0.58,0.00,-0.20,0.20,0.00,0.00,0.00,0.00,0.00,819,819,819,819
12879,0,0.09,-0.07,-0.59,0.00,-0.20,0.20,0.00,0.00,0.00,0.00,0.00,819,819,819,819
12886,0,0.09,-0.07,-0.60,0.00,-0.20,0.20,0.00,0.00,0.00,0.00,0.00,819,819,819,819
12893,0,0.09,-0.07,-0.60,0.00,-0.20,0.20,0.00,0.00,0.00,0.00,0.00,819,819,819,819
12900,0,0.09,-0.07,-0.60,0.00,-0.20,0.20,0.00,0.00,0.00,0.00,0.00,819,819,819,819
12906,0,0.09,-0.07,-0.61,0.00,-0.20,0.20,0.00,0.00,0.00,0.00,0.00,819,819,819,819
12912,0,0.09,-0.07,-0.61,0.00,-0.20,0.20,0.00,0.00,0.00,0.00,0.00,819,819,819,819
12924,0,0.08,-0.08,-0.61,0.00,-0.20,0.20,0.00,0.00,0.00,0.00,0.00,819,819,819,819
12932,0,0.08,-0.08,-0.62,0.00,-0.20,0.20,0.00,0.00,0.00,0.00,0.00,819,819,819,819
12938,0,0.08,-0.08,-0.63,0.00,-0.20,0.20,0.00,0.00,0.00,0.00,0.00,819,819,819,819
12945,0,0.08,-0.08,-0.63,0.00,-0.20,0.20,0.00,0.00,0.00,0.00,0.00,819,819,819,819
12952,0,0.08,-0.08,-0.63,0.00,-0.20,0.20,0.00,0.00,0.00,0.00,0.00,819,819,819,819
12958,0,0.08,-0.08,-0.64,0.00,-0.20,0.20,0.00,0.00,0.00,0.00,0.00,819,819,819,819
12965,0,0.08,-0.08,-0.64,0.00,-0.20,0.20,0.00,0.00,0.00,0.00,0.00,819,819,819,819
12971,0,0.08,-0.08,-0.65,0.00,-0.20,0.20,0.00,0.00,0.00,0.00,0.00,819,819,819,819
12977,0,0.07,-0.08,-0.65,0.00,-0.20,0.20,0.00,0.00,0.00,0.00,0.00,819,819,819,819
12985,0,0.07,-0.08,-0.65,0.00,-0.20,0.20,0.00,0.00,0.00,0.00,0.00,819,819,819,819
12992,0,0.07,-0.08,-0.66,0.00,-0.20,0.20,0.00,0.00,0.00,0.00,0.00,819,819,819,819
12999,0,0.07,-0.08,-0.66,0.00,-0.20,0.20,0.00,0.00,0.00,0.00,0.00,819,819,819,819
13005,0,0.07,-0.08,-0.66,0.00,-0.20,0.20,0.00,0.00,0.00,0.00,0.00,819,819,819,819
