t,is_crashed,roll,pitch,yaw,p,q,r,throttle,p_cmd,q_cmd,r_cmd,roll_cmd,pitch_cmd,yaw_cmd,roll_pid_out,pitch_pid_out,yaw_pid_out,motor_fl,motor_bl,motor_fr,motor_br,pwm_fl,pwm_bl,pwm_fr,pwm_br
7063,0,2.937500,1.250000,0.000000,-0.12,-0.24,0.237500,-1.000000,0.000000,0.000000,0.000000,0.000000,0.000000,0.000000,-0.000072,0.000000,0.000000,0.000000,0.000000,0.000000,0.000000,0,0,0,0
7077,0,0.000000,0.000000,0.000000,-10.55,-4.88,0.843125,-1.000000,0.000000,0.000000,0.000000,0.000000,0.000000,0.000000,-0.028782,0.000000,0.000000,0.000000,0.000000,0.000000,0.000000,819,819,819,819
7087,0,0.000000,0.000000,0.000000,-0.06,-0.30,0.814031,-1.000000,0.000000,0.000000,0.000000,0.000000,0.000000,0.000000,-0.000221,0.000000,0.000000,0.000000,0.000000,0.000000,0.000000,819,819,819,819
7096,0,0.000000,0.000000,0.000000,0.24,0.00,0.159452,-1.000000,0.000000,0.000000,0.000000,0.000000,0.000000,0.000000,0.000878,0.000000,0.000000,0.000000,0.000000,0.000000,0.000000,819,819,819,819
7106,0,0.000000,0.000000,0.000000,0.06,0.42,-0.763902,-1.000000,0.000000,0.000000,0.000000,0.000000,0.000000,0.000000,0.000221,0.000000,0.000000,0.000000,0.000000,0.000000,0.000000,819,819,819,819
7116,0,0.000000,-0.062500,0.000000,0.00,0.58,-1.047570,-1.000000,0.000000,0.000000,0.000000,0.000000,0.000000,0.000000,-0.000000,0.000000,0.000000,0.000000,0.000000,0.000000,0.000000,819,819,819,819
7126,0,0.000000,-0.062500,0.000000,-0.06,0.89,-1.121129,-1.000000,0.000000,0.000000,0.000000,0.000000,0.000000,0.000000,-0.000219,0.000000,0.000000,0.000000,0.000000,0.000000,0.000000,819,819,819,819
7136,0,0.000000,-0.062500,0.000000,0.06,0.18,-0.946681,-1.000000,0.000000,0.000000,0.000000,0.000000,0.000000,0.000000,0.000215,0.000000,0.000000,0.000000,0.000000,0.000000,0.000000,819,819,819,819
7146,0,0.062500,-0.062500,0.000000,0.31,-0.12,-0.759834,-1.000000,0.000000,0.000000,0.000000,0.000000,0.000000,0.000000,0.001115,0.000000,0.000000,0.000000,0.000000,0.000000,0.000000,819,819,819,819
7156,0,0.062500,-0.062500,0.000000,0.06,-0.42,0.318258,-1.000000,0.000000,0.000000,0.000000,0.000000,0.000000,0.000000,0.000213,0.000000,0.000000,0.000000,0.000000,0.000000,0.000000,819,819,819,819
7166,0,0.062500,-0.062500,0.000000,0.06,-0.42,0.372163,-1.000000,0.000000,0.000000,0.000000,0.000000,0.000000,0.000000,0.000215,0.000000,0.000000,0.000000,0.000000,0.000000,0.000000,819,819,819,819
7176,0,0.062500,-0.062500,0.000000,0.06,-0.53,0.374858,-1.000000,0.000000,0.000000,0.000000,0.000000,0.000000,0.000000,0.000214,0.000000,0.000000,0.000000,0.000000,0.000000,0.000000,819,819,819,819
7186,0,0.062500,-0.062500,0.000000,0.00,-0.42,0.968743,-1.000000,0.000000,0.000000,0.000000,0.000000,0.000000,0.000000,-0.000000,0.000000,0.000000,0.000000,0.000000,0.000000,0.000000,819,819,819,819
7196,0,0.062500,-0.062500,0.000000,0.06,-0.18,-0.664063,-1.000000,0.000000,0.000000,0.000000,0.000000,0.000000,0.000000,0.000210,0.000000,0.000000,0.000000,0.000000,0.000000,0.000000,819,819,819,819
7206,0,0.062500,-0.062500,0.000000,-0.06,-0.42,-1.339453,-1.000000,0.000000,0.000000,0.000000,0.000000,0.000000,0.000000,-0.000217,0.000000,0.000000,0.000000,0.000000,0.000000,0.000000,819,819,819,819
7216,0,0.062500,-0.062500,0.000000,-0.06,-0.42,-1.373222,-1.000000,0.000000,0.000000,0.000000,0.000000,0.000000,0.000000,-0.000212,0.000000,0.000000,0.000000,0.000000,0.000000,0.000000,819,819,819,819
7226,0,0.062500,-0.062500,0.000000,0.06,0.42,-0.840536,-1.000000,0.000000,0.000000,0.000000,0.000000,0.000000,0.000000,0.000216,0.000000,0.000000,0.000000,0.000000,0.000000,0.000000,819,819,819,819
7236,0,0.062500,-0.062500,0.000000,0.06,0.65,0.076723,-1.000000,0.000000,0.000000,0.000000,0.000000,0.000000,0.000000,0.000213,0.000000,0.000000,0.000000,0.000000,0.000000,0.000000,819,819,819,819
7246,0,0.062500,-0.062500,0.000000,-0.12,0.06,-0.055539,-1.000000,0.000000,0.000000,0.000000,0.000000,0.000000,0.000000,-0.000419,0.000000,0.000000,0.000000,0.000000,0.000000,0.000000,819,819,819,819
7256,0,0.062500,-0.062500,0.000000,0.06,-0.24,-0.180902,-1.000000,0.000000,0.000000,0.000000,0.000000,0.000000,0.000000,0.000215,0.000000,0.000000,0.000000,0.000000,0.000000,0.000000,819,819,819,819
7266,0,0.062500,-0.062500,0.000000,0.06,-0.18,-0.009045,-1.000000,0.000000,0.000000,0.000000,0.000000,0.000000,0.000000,0.000214,0.000000,0.000000,0.000000,0.000000,0.000000,0.000000,819,819,819,819
7276,0,0.062500,-0.062500,0.000000,0.06,0.00,-0.000452,-1.000000,0.000000,0.000000,0.000000,0.000000,0.000000,0.000000,0.000217,0.000000,0.000000,0.000000,0.000000,0.000000,0.000000,819,819,819,819
7286,0,0.062500,-0.062500,0.000000,-0.06,0.24,-0.059398,-1.000000,0.000000,0.000000,0.000000,0.000000,0.000000,0.000000,-0.000215,0.000000,0.000000,0.000000,0.000000,0.000000,0.000000,819,819,819,819
7296,0,0.062500,-0.062500,0.000000,0.06,0.18,-0.062345,-1.000000,0.000000,0.000000,0.000000,0.000000,0.000000,0.000000,0.000212,0.000000,0.000000,0.000000,0.000000,0.000000,0.000000,819,819,819,819
7306,0,0.062500,-0.062500,0.000000,0.00,-0.30,-0.299992,-1.000000,0.000000,0.000000,0.000000,0.000000,0.000000,0.000000,-0.000000,0.000000,0.000000,0.000000,0.000000,0.000000,0.000000,819,819,819,819
7316,0,0.062500,-0.062500,0.000000,0.06,-0.65,-0.430625,-1.000000,0.000000,0.000000,0.000000,0.000000,0.000000,0.000000,0.000213,0.000000,0.000000,0.000000,0.000000,0.000000,0.000000,819,819,819,819
7326,0,0.062500,-0.062500,0.000000,0.06,-0.71,-0.674656,-1.000000,0.000000,0.000000,0.000000,0.000000,0.000000,0.000000,0.000213,0.000000,0.000000,0.000000,0.000000,0.000000,0.000000,819,819,819,819
7336,0,0.062500,-0.062500,0.000000,0.06,-0.42,-0.686858,-1.000000,0.000000,0.000000,0.000000,0.000000,0.000000,0.000000,0.000214,0.000000,0.000000,0.000000,0.000000,0.000000,0.000000,819,819,819,819
7346,0,0.062500,-0.062500,0.000000,0.00,-0.24,-0.331218,-1.000000,0.000000,0.000000,0.000000,0.000000,0.000000,0.000000,-0.000000,0.000000,0.000000,0.000000,0.000000,0.000000,0.000000,819,819,819,819
7356,0,0.062500,-0.062500,0.000000,0.06,0.00,-0.016561,-1.000000,0.000000,0.000000,0.000000,0.000000,0.000000,0.000000,0.000215,0.000000,0.000000,0.000000,0.000000,0.000000,0.000000,819,819,819,819
7374,0,0.062500,-0.062500,0.000000,-0.06,0.12,0.414797,-1.000000,0.000000,0.000000,0.000000,0.000000,0.000000,0.000000,-0.000138,0.000000,0.000000,0.000000,0.000000,0.000000,0.000000,819,819,819,819
7385,0,0.062500,-0.062500,0.000000,-0.06,0.00,1.505115,-1.000000,0.000000,0.000000,0.000000,0.000000,0.000000,0.000000,-0.000190,0.000000,0.000000,0.000000,0.000000,0.000000,0.000000,819,819,819,819
7396,0,0.062500,-0.062500,0.000000,-0.06,0.71,1.025256,-1.000000,0.000000,0.000000,0.000000,0.000000,0.000000,0.000000,-0.000201,0.000000,0.000000,0.000000,0.000000,0.000000,0.000000,819,819,819,819
7406,0,0.062500,-0.062500,0.000000,0.00,0.12,0.229388,-1.000000,0.000000,0.000000,0.000000,0.000000,0.000000,0.000000,-0.000000,0.000000,0.000000,0.000000,0.000000,0.000000,0.000000,819,819,819,819
7416,0,0.062500,-0.062500,0.000000,0.06,0.36,-0.404156,-1.000000,0.000000,0.000000,0.000000,0.000000,0.000000,0.000000,0.000213,0.000000,0.000000,0.000000,0.000000,0.000000,0.000000,819,819,819,819
7426,0,0.062500,-0.062500,0.000000,-0.18,-0.53,-1.267083,-1.000000,0.000000,0.000000,0.000000,0.000000,0.000000,0.000000,-0.000642,0.000000,0.000000,0.000000,0.000000,0.000000,0.000000,819,819,819,819
7436,0,0.062500,-0.062500,0.000000,0.06,-0.24,-0.953979,-1.000000,0.000000,0.000000,0.000000,0.000000,0.000000,0.000000,0.000213,0.000000,0.000000,0.000000,0.000000,0.000000,0.000000,819,819,819,819
7447,0,0.062500,-0.062500,0.000000,0.00,-0.53,-1.235199,-1.000000,0.000000,0.000000,0.000000,0.000000,0.000000,0.000000,-0.000000,0.000000,0.000000,0.000000,0.000000,0.000000,0.000000,819,819,819,819
7456,0,0.062500,-0.062500,0.000000,0.00,-0.12,-0.536760,-1.000000,0.000000,0.000000,0.000000,0.000000,0.000000,0.000000,-0.000000,0.000000,0.000000,0.000000,0.000000,0.000000,0.000000,819,819,819,819
7466,0,0.062500,-0.062500,0.000000,-0.06,-0.36,-0.086213,-1.000000,0.000000,0.000000,0.000000,0.000000,0.000000,0.000000,-0.000214,0.000000,0.000000,0.000000,0.000000,0.000000,0.000000,819,819,819,819
7476,0,0.062500,-0.062500,0.000000,-0.12,0.00,1.361314,-1.000000,0.000000,0.000000,0.000000,0.000000,0.000000,0.000000,-0.000431,0.000000,0.000000,0.000000,0.000000,0.000000,0.000000,819,819,819,819
7487,0,0.062500,-0.062500,0.000000,-0.12,-0.53,0.899316,-1.000000,0.000000,0.000000,0.000000,0.000000,0.000000,0.000000,-0.000417,0.000000,0.000000,0.000000,0.000000,0.000000,0.000000,819,819,819,819
7497,0,0.062500,-0.062500,0.000000,-0.06,-0.24,1.173091,-1.000000,0.000000,0.000000,0.000000,0.000000,0.000000,0.000000,-0.000210,0.000000,0.000000,0.000000,0.000000,0.000000,0.000000,819,819,819,819
7507,0,0.062500,-0.062500,0.000000,0.12,0.18,0.414905,-1.000000,0.000000,0.000000,0.000000,0.000000,0.000000,0.000000,0.000435,0.000000,0.000000,0.000000,0.000000,0.000000,0.000000,819,819,819,819
7517,0,0.062500,-0.062500,0.000000,-0.06,0.06,0.198870,-1.000000,0.000000,0.000000,0.000000,0.000000,0.000000,0.000000,-0.000212,0.000000,0.000000,0.000000,0.000000,0.000000,0.000000,819,819,819,819
7527,0,0.062500,-0.062500,0.000000,-0.06,0.42,-0.465056,-1.000000,0.000000,0.000000,0.000000,0.000000,0.000000,0.000000,-0.000213,0.000000,0.000000,0.000000,0.000000,0.000000,0.000000,819,819,819,819
7537,0,0.062500,-0.062500,0.000000,-0.06,-0.06,-0.142003,-1.000000,0.000000,0.000000,0.000000,0.000000,0.000000,0.000000,-0.000214,0.000000,0.000000,0.000000,0.000000,0.000000,0.000000,819,819,819,819
7547,0,0.062500,-0.062500,0.000000,0.00,0.30,-0.422725,-1.000000,0.000000,0.000000,0.000000,0.000000,0.000000,0.000000,-0.000000,0.000000,0.000000,0.000000,0.000000,0.000000,0.000000,819,819,819,819
7557,0,0.062500,-0.062500,0.000000,0.00,0.30,0.156989,-1.000000,0.000000,0.000000,0.000000,0.000000,0.000000,0.000000,-0.000000,0.000000,0.000000,0.000000,0.000000,0.000000,0.000000,819,819,819,819
7567,0,0.062500,-0.062500,0.000000,0.12,0.53,0.007849,-1.000000,0.000000,0.000000,0.000000,0.000000,0.000000,0.000000,0.000430,0.000000,0.000000,0.000000,0.000000,0.000000,0.000000,819,819,819,819
7577,0,0.062500,-0.062500,0.000000,0.00,0.00,0.000392,-1.000000,0.000000,0.000000,0.000000,0.000000,0.000000,0.000000,-0.000000,0.000000,0.000000,0.000000,0.000000,0.000000,0.000000,819,819,819,819
7587,0,0.062500,-0.062500,0.000000,0.06,0.12,-0.415605,-1.000000,0.000000,0.000000,0.000000,0.000000,0.000000,0.000000,0.000213,0.000000,0.000000,0.000000,0.000000,0.000000,0.000000,819,819,819,819
7597,0,0.062500,-0.062500,0.000000,0.00,0.24,-0.377030,-1.000000,0.000000,0.000000,0.000000,0.000000,0.000000,0.000000,-0.000000,0.000000,0.000000,0.000000,0.000000,0.000000,0.000000,819,819,819,819
7607,0,0.062500,-0.062500,0.000000,-0.06,1.13,-0.256352,-1.000000,0.000000,0.000000,0.000000,0.000000,0.000000,0.000000,-0.000215,0.000000,0.000000,0.000000,0.000000,0.000000,0.000000,819,819,819,819
7617,0,0.062500,-0.062500,0.000000,-0.06,0.42,0.105932,-1.000000,0.000000,0.000000,0.000000,0.000000,0.000000,0.000000,-0.000214,0.000000,0.000000,0.000000,0.000000,0.000000,0.000000,819,819,819,819
7627,0,0.062500,-0.062500,0.000000,0.00,0.06,0.183422,-1.000000,0.000000,0.000000,0.000000,0.000000,0.000000,0.000000,-0.000000,0.000000,0.000000,0.000000,0.000000,0.000000,0.000000,819,819,819,819
7637,0,0.062500,-0.062500,0.000000,0.12,-0.53,0.543546,-1.000000,0.000000,0.000000,0.000000,0.000000,0.000000,0.000000,0.000427,0.000000,0.000000,0.000000,0.000000,0.000000,0.000000,819,819,819,819
7647,0,0.062500,-0.062500,0.000000,0.00,-0.18,0.502177,-1.000000,0.000000,0.000000,0.000000,0.000000,0.000000,0.000000,-0.000000,0.000000,0.000000,0.000000,0.000000,0.000000,0.000000,819,819,819,819
7657,0,0.062500,-0.062500,0.000000,0.12,1.19,-0.153016,-1.000000,0.000000,0.000000,0.000000,0.000000,0.000000,0.000000,0.000436,0.000000,0.000000,0.000000,0.000000,0.000000,0.000000,819,819,819,819
7667,0,0.062500,-0.062500,0.000000,0.12,2.43,0.051724,-1.000000,0.000000,0.000000,0.000000,0.000000,0.000000,0.000000,0.000427,0.000000,0.000000,0.000000,0.000000,0.000000,0.000000,819,819,819,819
7677,0,0.062500,-0.062500,0.000000,-0.06,1.19,-0.234914,-1.000000,0.000000,0.000000,0.000000,0.000000,0.000000,0.000000,-0.000212,0.000000,0.000000,0.000000,0.000000,0.000000,0.000000,819,819,819,819
7689,0,0.062500,-0.125000,0.000000,0.00,-0.14,0.403879,-1.000000,0.000000,0.000000,0.000000,0.000000,0.000000,0.000000,-0.000000,0.000000,0.000000,0.000000,0.000000,0.000000,0.000000,819,819,819,819
7698,0,0.062500,-0.125000,0.000000,0.06,0.00,0.970194,-1.000000,0.000000,0.000000,0.000000,0.000000,0.000000,0.000000,0.000230,0.000000,0.000000,0.000000,0.000000,0.000000,0.000000,819,819,819,819
7707,0,0.000000,-0.125000,0.000000,-0.23,-0.77,1.295385,-1.000000,0.000000,0.000000,0.000000,0.000000,0.000000,0.000000,-0.000875,0.000000,0.000000,0.000000,0.000000,0.000000,0.000000,819,819,819,819
7717,0,0.000000,-0.125000,0.000000,0.00,-0.18,1.074144,-1.000000,0.000000,0.000000,0.000000,0.000000,0.000000,0.000000,-0.000000,0.000000,0.000000,0.000000,0.000000,0.000000,0.000000,819,819,819,819
7727,0,0.000000,-0.125000,0.000000,-0.12,0.30,0.588082,-1.000000,0.000000,0.000000,0.000000,0.000000,0.000000,0.000000,-0.000424,0.000000,0.000000,0.000000,0.000000,0.000000,0.000000,819,819,819,819
7737,0,0.000000,-0.125000,0.000000,0.00,1.01,0.207529,-1.000000,0.000000,0.000000,0.000000,0.000000,0.000000,0.000000,-0.000000,0.000000,0.000000,0.000000,0.000000,0.000000,0.000000,819,819,819,819
7747,0,0.000000,-0.125000,0.000000,0.06,0.18,-0.167749,-1.000000,0.000000,0.000000,0.000000,0.000000,0.000000,0.000000,0.000209,0.000000,0.000000,0.000000,0.000000,0.000000,0.000000,819,819,819,819
7757,0,0.000000,-0.125000,0.000000,0.00,-0.12,-0.720887,-1.000000,0.000000,0.000000,0.000000,0.000000,0.000000,0.000000,-0.000000,0.000000,0.000000,0.000000,0.000000,0.000000,0.000000,819,819,819,819
7767,0,0.000000,-0.125000,0.000000,0.06,0.30,-0.154794,-1.000000,0.000000,0.000000,0.000000,0.000000,0.000000,0.000000,0.000212,0.000000,0.000000,0.000000,0.000000,0.000000,0.000000,819,819,819,819
7777,0,0.000000,-0.125000,0.000000,-0.12,0.30,0.348510,-1.000000,0.000000,0.000000,0.000000,0.000000,0.000000,0.000000,-0.000431,0.000000,0.000000,0.000000,0.000000,0.000000,0.000000,819,819,819,819
7787,0,0.000000,-0.125000,0.000000,-0.06,0.89,0.492426,-1.000000,0.000000,0.000000,0.000000,0.000000,0.000000,0.000000,-0.000212,0.000000,0.000000,0.000000,0.000000,0.000000,0.000000,819,819,819,819
7798,0,0.000000,-0.125000,0.000000,-0.06,0.30,0.558996,-1.000000,0.000000,0.000000,0.000000,0.000000,0.000000,0.000000,-0.000211,0.000000,0.000000,0.000000,0.000000,0.000000,0.000000,819,819,819,819
7808,0,0.000000,-0.125000,0.000000,0.12,0.06,0.918575,-1.000000,0.000000,0.000000,0.000000,0.000000,0.000000,0.000000,0.000429,0.000000,0.000000,0.000000,0.000000,0.000000,0.000000,819,819,819,819
7817,0,0.000000,-0.125000,0.000000,0.12,-0.36,0.283429,-1.000000,0.000000,0.000000,0.000000,0.000000,0.000000,0.000000,0.000432,0.000000,0.000000,0.000000,0.000000,0.000000,0.000000,819,819,819,819
7828,0,0.000000,-0.125000,0.000000,0.00,-0.71,0.073546,-1.000000,0.000000,0.000000,0.000000,0.000000,0.000000,0.000000,-0.000000,0.000000,0.000000,0.000000,0.000000,0.000000,0.000000,819,819,819,819
7838,0,0.000000,-0.125000,0.000000,-0.06,-0.42,-0.886948,-1.000000,0.000000,0.000000,0.000000,0.000000,0.000000,0.000000,-0.000212,0.000000,0.000000,0.000000,0.000000,0.000000,0.000000,819,819,819,819
7848,0,0.000000,-0.125000,0.000000,0.12,-0.24,-0.756847,-1.000000,0.000000,0.000000,0.000000,0.000000,0.000000,0.000000,0.000423,0.000000,0.000000,0.000000,0.000000,0.000000,0.000000,819,819,819,819
7858,0,0.000000,-0.125000,0.000000,0.06,-0.12,-1.047217,-1.000000,0.000000,0.000000,0.000000,0.000000,0.000000,0.000000,0.000216,0.000000,0.000000,0.000000,0.000000,0.000000,0.000000,819,819,819,819
7867,0,0.062500,-0.125000,0.000000,0.29,0.47,-0.289861,-1.000000,0.000000,0.000000,0.000000,0.000000,0.000000,0.000000,0.001053,0.000000,0.000000,0.000000,0.000000,0.000000,0.000000,819,819,819,819
7878,0,0.062500,-0.125000,0.000000,0.12,0.24,-0.370743,-1.000000,0.000000,0.000000,0.000000,0.000000,0.000000,0.000000,0.000423,0.000000,0.000000,0.000000,0.000000,0.000000,0.000000,819,819,819,819
7887,0,0.062500,-0.125000,0.000000,-0.12,0.24,0.456463,-1.000000,0.000000,0.000000,0.000000,0.000000,0.000000,0.000000,-0.000430,0.000000,0.000000,0.000000,0.000000,0.000000,0.000000,819,819,819,819
7900,0,0.062500,-0.125000,0.000000,0.00,-0.12,0.260323,-1.000000,0.000000,0.000000,0.000000,0.000000,0.000000,0.000000,-0.000000,0.000000,0.000000,0.000000,0.000000,0.000000,0.000000,819,819,819,819
7909,0,0.062500,-0.125000,0.000000,0.06,-0.18,0.072391,-1.000000,0.000000,0.000000,0.000000,0.000000,0.000000,0.000000,0.000225,0.000000,0.000000,0.000000,0.000000,0.000000,0.000000,819,819,819,819
7918,0,0.062500,-0.125000,0.000000,0.06,0.12,-0.233880,-1.000000,0.000000,0.000000,0.000000,0.000000,0.000000,0.000000,0.000227,0.000000,0.000000,0.000000,0.000000,0.000000,0.000000,819,819,819,819
7928,0,0.062500,-0.125000,0.000000,-0.12,0.06,-0.367944,-1.000000,0.000000,0.000000,0.000000,0.000000,0.000000,0.000000,-0.000444,0.000000,0.000000,0.000000,0.000000,0.000000,0.000000,819,819,819,819
7938,0,0.062500,-0.125000,0.000000,-0.12,0.12,-0.493397,-1.000000,0.000000,0.000000,0.000000,0.000000,0.000000,0.000000,-0.000430,0.000000,0.000000,0.000000,0.000000,0.000000,0.000000,819,819,819,819
7948,0,0.062500,-0.125000,0.000000,0.00,0.12,-0.380920,-1.000000,0.000000,0.000000,0.000000,0.000000,0.000000,0.000000,-0.000000,0.000000,0.000000,0.000000,0.000000,0.000000,0.000000,819,819,819,819
7958,0,0.062500,-0.125000,0.000000,0.00,0.12,-0.197171,-1.000000,0.000000,0.000000,0.000000,0.000000,0.000000,0.000000,-0.000000,0.000000,0.000000,0.000000,0.000000,0.000000,0.000000,819,819,819,819
7968,0,0.062500,-0.125000,0.000000,0.00,0.24,0.049516,-1.000000,0.000000,0.000000,0.000000,0.000000,0.000000,0.000000,-0.000000,0.000000,0.000000,0.000000,0.000000,0.000000,0.000000,819,819,819,819
7978,0,0.062500,-0.125000,0.000000,-0.06,0.12,0.180601,-1.000000,0.000000,0.000000,0.000000,0.000000,0.000000,0.000000,-0.000214,0.000000,0.000000,0.000000,0.000000,0.000000,0.000000,819,819,819,819
7995,0,0.062500,-0.125000,0.000000,0.00,-0.06,0.068405,-1.000000,0.000000,0.000000,0.000000,0.000000,0.000000,0.000000,-0.000000,0.000000,0.000000,0.000000,0.000000,0.000000,0.000000,819,819,819,819
8004,0,0.062500,-0.125000,0.000000,-0.12,-0.36,0.062795,-1.000000,0.000000,0.000000,0.000000,0.000000,0.000000,0.000000,-0.000441,0.000000,0.000000,0.000000,0.000000,0.000000,0.000000,819,819,819,819
8016,0,0.062500,-0.125000,0.000000,0.00,-0.42,0.003140,-1.000000,0.000000,0.000000,0.000000,0.000000,0.000000,0.000000,-0.000000,0.000000,0.000000,0.000000,0.000000,0.000000,0.000000,819,819,819,819
8028,0,0.062500,-0.125000,0.000000,-0.06,0.00,-0.237343,-1.000000,0.000000,0.000000,0.000000,0.000000,0.000000,0.000000,-0.000184,0.000000,0.000000,0.000000,0.000000,0.000000,0.000000,819,819,819,819
8038,0,0.062500,-0.125000,0.000000,0.00,0.24,-0.308742,-1.000000,0.000000,0.000000,0.000000,0.000000,0.000000,0.000000,-0.000000,0.000000,0.000000,0.000000,0.000000,0.000000,0.000000,819,819,819,819
8048,0,0.062500,-0.125000,0.000000,-0.06,0.24,-0.431062,-1.000000,0.000000,0.000000,0.000000,0.000000,0.000000,0.000000,-0.000212,0.000000,0.000000,0.000000,0.000000,0.000000,0.000000,819,819,819,819
8058,0,0.062500,-0.125000,0.000000,0.06,0.18,-0.259053,-1.000000,0.000000,0.000000,0.000000,0.000000,0.000000,0.000000,0.000216,0.000000,0.000000,0.000000,0.000000,0.000000,0.000000,819,819,819,819
8068,0,0.062500,-0.125000,0.000000,-0.06,0.18,-0.250453,-1.000000,0.000000,0.000000,0.000000,0.000000,0.000000,0.000000,-0.000213,0.000000,0.000000,0.000000,0.000000,0.000000,0.000000,819,819,819,819
8078,0,0.062500,-0.125000,0.000000,0.06,0.24,-0.309398,-1.000000,0.000000,0.000000,0.000000,0.000000,0.000000,0.000000,0.000212,0.000000,0.000000,0.000000,0.000000,0.000000,0.000000,819,819,819,819
8088,0,0.062500,-0.125000,0.000000,-0.12,0.18,-0.134220,-1.000000,0.000000,0.000000,0.000000,0.000000,0.000000,0.000000,-0.000428,0.000000,0.000000,0.000000,0.000000,0.000000,0.000000,819,819,819,819
8098,0,0.062500,-0.125000,0.000000,-0.06,0.42,-0.244211,-1.000000,0.000000,0.000000,0.000000,0.000000,0.000000,0.000000,-0.000211,0.000000,0.000000,0.000000,0.000000,0.000000,0.000000,819,819,819,819
8108,0,0.062500,-0.125000,0.000000,0.18,0.30,-0.368461,-1.000000,0.000000,0.000000,0.000000,0.000000,0.000000,0.000000,0.000640,0.000000,0.000000,0.000000,0.000000,0.000000,0.000000,819,819,819,819
8118,0,0.062500,-0.125000,0.000000,0.12,0.18,-0.137173,-1.000000,0.000000,0.000000,0.000000,0.000000,0.000000,0.000000,0.000431,0.000000,0.000000,0.000000,0.000000,0.000000,0.000000,819,819,819,819
8128,0,0.062500,-0.125000,0.000000,-0.12,0.12,-0.066234,-1.000000,0.000000,0.000000,0.000000,0.000000,0.000000,0.000000,-0.000431,0.000000,0.000000,0.000000,0.000000,0.000000,0.000000,819,819,819,819
8138,0,0.062500,-0.125000,0.000000,-0.06,0.12,-0.003312,-1.000000,0.000000,0.000000,0.000000,0.000000,0.000000,0.000000,-0.000215,0.000000,0.000000,0.000000,0.000000,0.000000,0.000000,819,819,819,819
8149,0,0.062500,-0.125000,0.000000,-0.06,0.06,-0.000166,-1.000000,0.000000,0.000000,0.000000,0.000000,0.000000,0.000000,-0.000206,0.000000,0.000000,0.000000,0.000000,0.000000,0.000000,819,819,819,819
8158,0,0.062500,-0.125000,0.000000,-0.12,-0.30,-0.118758,-1.000000,0.000000,0.000000,0.000000,0.000000,0.000000,0.000000,-0.000431,0.000000,0.000000,0.000000,0.000000,0.000000,0.000000,819,819,819,819
8168,0,0.062500,-0.125000,0.000000,0.00,-0.42,-0.124688,-1.000000,0.000000,0.000000,0.000000,0.000000,0.000000,0.000000,-0.000000,0.000000,0.000000,0.000000,0.000000,0.000000,0.000000,819,819,819,819
8178,0,0.062500,-0.125000,0.000000,0.00,-0.42,-0.006234,-1.000000,0.000000,0.000000,0.000000,0.000000,0.000000,0.000000,-0.000000,0.000000,0.000000,0.000000,0.000000,0.000000,0.000000,819,819,819,819
8188,0,0.062500,-0.125000,0.000000,-0.06,0.00,-0.059687,-1.000000,0.000000,0.000000,0.000000,0.000000,0.000000,0.000000,-0.000214,0.000000,0.000000,0.000000,0.000000,0.000000,0.000000,819,819,819,819
8199,0,0.062500,-0.125000,0.000000,-0.18,0.00,0.175141,-1.000000,0.000000,0.000000,0.000000,0.000000,0.000000,0.000000,-0.000626,0.000000,0.000000,0.000000,0.000000,0.000000,0.000000,819,819,819,819
8209,0,0.062500,-0.125000,0.000000,0.00,0.06,0.365007,-1.000000,0.000000,0.000000,0.000000,0.000000,0.000000,0.000000,-0.000000,0.000000,0.000000,0.000000,0.000000,0.000000,0.000000,819,819,819,819
8219,0,0.062500,-0.125000,0.000000,-0.06,-0.36,0.196375,-1.000000,0.000000,0.000000,0.000000,0.000000,0.000000,0.000000,-0.000212,0.000000,0.000000,0.000000,0.000000,0.000000,0.000000,819,819,819,819
8229,0,0.062500,-0.125000,0.000000,0.12,-0.59,0.009819,-1.000000,0.000000,0.000000,0.000000,0.000000,0.000000,0.000000,0.000428,0.000000,0.000000,0.000000,0.000000,0.000000,0.000000,819,819,819,819
8239,0,0.062500,-0.125000,0.000000,-0.06,-0.47,-0.058884,-1.000000,0.000000,0.000000,0.000000,0.000000,0.000000,0.000000,-0.000212,0.000000,0.000000,0.000000,0.000000,0.000000,0.000000,819,819,819,819
8249,0,0.062500,-0.125000,0.000000,0.06,-0.30,-0.062319,-1.000000,0.000000,0.000000,0.000000,0.000000,0.000000,0.000000,0.000212,0.000000,0.000000,0.000000,0.000000,0.000000,0.000000,819,819,819,819
8259,0,0.062500,-0.125000,0.000000,0.00,-0.36,-0.062491,-1.000000,0.000000,0.000000,0.000000,0.000000,0.000000,0.000000,-0.000000,0.000000,0.000000,0.000000,0.000000,0.000000,0.000000,819,819,819,819
8269,0,0.062500,-0.125000,0.000000,0.00,-0.65,-0.062500,-1.000000,0.000000,0.000000,0.000000,0.000000,0.000000,0.000000,-0.000000,0.000000,0.000000,0.000000,0.000000,0.000000,0.000000,819,819,819,819
8279,0,0.062500,-0.125000,0.000000,0.00,-0.71,0.056250,-1.000000,0.000000,0.000000,0.000000,0.000000,0.000000,0.000000,-0.000000,0.000000,0.000000,0.000000,0.000000,0.000000,0.000000,819,819,819,819
8289,0,0.062500,-0.062500,0.000000,-0.06,-0.46,0.180937,-1.000000,0.000000,0.000000,0.000000,0.000000,0.000000,0.000000,-0.000215,0.000000,0.000000,0.000000,0.000000,0.000000,0.000000,819,819,819,819
8299,0,0.062500,-0.062500,0.000000,0.00,-0.71,0.068422,-1.000000,0.000000,0.000000,0.000000,0.000000,0.000000,0.000000,-0.000000,0.000000,0.000000,0.000000,0.000000,0.000000,0.000000,819,819,819,819
8316,0,0.062500,-0.062500,0.000000,0.18,-0.18,0.122171,-1.000000,0.000000,0.000000,0.000000,0.000000,0.000000,0.000000,0.000412,0.000000,0.000000,0.000000,0.000000,0.000000,0.000000,819,819,819,819
8328,0,0.062500,-0.062500,0.000000,-0.06,0.12,0.124859,-1.000000,0.000000,0.000000,0.000000,0.000000,0.000000,0.000000,-0.000192,0.000000,0.000000,0.000000,0.000000,0.000000,0.000000,819,819,819,819
8338,0,0.062500,-0.062500,0.000000,-0.06,-0.53,0.006243,-1.000000,0.000000,0.000000,0.000000,0.000000,0.000000,0.000000,-0.000204,0.000000,0.000000,0.000000,0.000000,0.000000,0.000000,819,819,819,819
8349,0,0.062500,-0.062500,0.000000,-0.06,-0.42,0.119062,-1.000000,0.000000,0.000000,0.000000,0.000000,0.000000,0.000000,-0.000205,0.000000,0.000000,0.000000,0.000000,0.000000,0.000000,819,819,819,819
8359,0,0.062500,-0.062500,0.000000,0.00,-0.24,0.065328,-1.000000,0.000000,0.000000,0.000000,0.000000,0.000000,0.000000,-0.000000,0.000000,0.000000,0.000000,0.000000,0.000000,0.000000,819,819,819,819
8369,0,0.062500,-0.062500,0.000000,0.00,-0.18,0.122016,-1.000000,0.000000,0.000000,0.000000,0.000000,0.000000,0.000000,-0.000000,0.000000,0.000000,0.000000,0.000000,0.000000,0.000000,819,819,819,819
8379,0,0.062500,-0.062500,0.000000,-0.06,-0.12,0.065476,-1.000000,0.000000,0.000000,0.000000,0.000000,0.000000,0.000000,-0.000213,0.000000,0.000000,0.000000,0.000000,0.000000,0.000000,819,819,819,819
8389,0,0.062500,-0.062500,0.000000,-0.06,0.18,0.062649,-1.000000,0.000000,0.000000,0.000000,0.000000,0.000000,0.000000,-0.000213,0.000000,0.000000,0.000000,0.000000,0.000000,0.000000,819,819,819,819
8399,0,0.062500,-0.062500,0.000000,0.00,-0.30,0.062507,-1.000000,0.000000,0.000000,0.000000,0.000000,0.000000,0.000000,-0.000000,0.000000,0.000000,0.000000,0.000000,0.000000,0.000000,819,819,819,819
8409,0,0.062500,-0.062500,0.000000,0.06,-0.71,0.121875,-1.000000,0.000000,0.000000,0.000000,0.000000,0.000000,0.000000,0.000216,0.000000,0.000000,0.000000,0.000000,0.000000,0.000000,819,819,819,819
8419,0,0.062500,-0.062500,0.000000,0.00,-0.83,0.362344,-1.000000,0.000000,0.000000,0.000000,0.000000,0.000000,0.000000,-0.000000,0.000000,0.000000,0.000000,0.000000,0.000000,0.000000,819,819,819,819
8429,0,0.062500,-0.062500,0.000000,-0.06,-0.53,0.314992,-1.000000,0.000000,0.000000,0.000000,0.000000,0.000000,0.000000,-0.000210,0.000000,0.000000,0.000000,0.000000,0.000000,0.000000,819,819,819,819
8439,0,0.062500,-0.062500,0.000000,0.00,-0.42,0.312625,-1.000000,0.000000,0.000000,0.000000,0.000000,0.000000,0.000000,-0.000000,0.000000,0.000000,0.000000,0.000000,0.000000,0.000000,819,819,819,819
8449,0,0.062500,-0.062500,0.000000,0.00,-0.24,0.371881,-1.000000,0.000000,0.000000,0.000000,0.000000,0.000000,0.000000,-0.000000,0.000000,0.000000,0.000000,0.000000,0.000000,0.000000,819,819,819,819
8459,0,0.062500,-0.062500,0.000000,0.06,-0.30,0.434219,-1.000000,0.000000,0.000000,0.000000,0.000000,0.000000,0.000000,0.000217,0.000000,0.000000,0.000000,0.000000,0.000000,0.000000,819,819,819,819
8469,0,0.062500,-0.062500,0.000000,0.06,-0.53,0.377961,-1.000000,0.000000,0.000000,0.000000,0.000000,0.000000,0.000000,0.000212,0.000000,0.000000,0.000000,0.000000,0.000000,0.000000,819,819,819,819
8479,0,0.062500,-0.062500,0.000000,-0.06,-0.53,0.078273,-1.000000,0.000000,0.000000,0.000000,0.000000,0.000000,0.000000,-0.000213,0.000000,0.000000,0.000000,0.000000,0.000000,0.000000,819,819,819,819
8489,0,0.062500,-0.062500,0.000000,0.00,-0.24,0.063289,-1.000000,0.000000,0.000000,0.000000,0.000000,0.000000,0.000000,-0.000000,0.000000,0.000000,0.000000,0.000000,0.000000,0.000000,819,819,819,819
8499,0,0.062500,-0.062500,0.000000,-0.06,-0.30,-0.056211,-1.000000,0.000000,0.000000,0.000000,0.000000,0.000000,0.000000,-0.000211,0.000000,0.000000,0.000000,0.000000,0.000000,0.000000,819,819,819,819
8509,0,0.062500,-0.062500,0.000000,0.00,0.00,-0.062186,-1.000000,0.000000,0.000000,0.000000,0.000000,0.000000,0.000000,-0.000000,0.000000,0.000000,0.000000,0.000000,0.000000,0.000000,819,819,819,819
8519,0,0.062500,-0.062500,0.000000,-0.06,-0.12,-0.121859,-1.000000,0.000000,0.000000,0.000000,0.000000,0.000000,0.000000,-0.000214,0.000000,0.000000,0.000000,0.000000,0.000000,0.000000,819,819,819,819
8529,0,0.062500,-0.062500,0.000000,0.06,-0.18,-0.006093,-1.000000,0.000000,0.000000,0.000000,0.000000,0.000000,0.000000,0.000212,0.000000,0.000000,0.000000,0.000000,0.000000,0.000000,819,819,819,819
8539,0,0.062500,-0.062500,0.000000,0.06,0.00,0.059070,-1.000000,0.000000,0.000000,0.000000,0.000000,0.000000,0.000000,0.000215,0.000000,0.000000,0.000000,0.000000,0.000000,0.000000,819,819,819,819
8550,0,0.062500,-0.062500,0.000000,0.06,0.00,0.062329,-1.000000,0.000000,0.000000,0.000000,0.000000,0.000000,0.000000,0.000210,0.000000,0.000000,0.000000,0.000000,0.000000,0.000000,819,819,819,819
8559,0,0.062500,-0.062500,0.000000,0.12,0.06,-0.056259,-1.000000,0.000000,0.000000,0.000000,0.000000,0.000000,0.000000,0.000429,0.000000,0.000000,0.000000,0.000000,0.000000,0.000000,819,819,819,819
8569,0,0.062500,-0.062500,0.000000,0.00,-0.24,0.056562,-1.000000,0.000000,0.000000,0.000000,0.000000,0.000000,0.000000,-0.000000,0.000000,0.000000,0.000000,0.000000,0.000000,0.000000,819,819,819,819
8580,0,0.062500,-0.062500,0.000000,-0.12,-0.36,0.002828,-1.000000,0.000000,0.000000,0.000000,0.000000,0.000000,0.000000,-0.000422,0.000000,0.000000,0.000000,0.000000,0.000000,0.000000,819,819,819,819
8590,0,0.062500,-0.062500,0.000000,0.12,-0.06,0.118891,-1.000000,0.000000,0.000000,0.000000,0.000000,0.000000,0.000000,0.000429,0.000000,0.000000,0.000000,0.000000,0.000000,0.000000,819,819,819,819
8600,0,0.062500,-0.062500,0.000000,-0.06,-0.06,0.065320,-1.000000,0.000000,0.000000,0.000000,0.000000,0.000000,0.000000,-0.000211,0.000000,0.000000,0.000000,0.000000,0.000000,0.000000,819,819,819,819
8610,0,0.062500,-0.062500,0.000000,-0.06,0.18,0.062641,-1.000000,0.000000,0.000000,0.000000,0.000000,0.000000,0.000000,-0.000215,0.000000,0.000000,0.000000,0.000000,0.000000,0.000000,819,819,819,819
8620,0,0.062500,-0.062500,0.000000,0.12,0.06,0.121882,-1.000000,0.000000,0.000000,0.000000,0.000000,0.000000,0.000000,0.000429,0.000000,0.000000,0.000000,0.000000,0.000000,0.000000,819,819,819,819
8637,0,0.062500,-0.062500,0.000000,0.00,0.06,0.124844,-1.000000,0.000000,0.000000,0.000000,0.000000,0.000000,0.000000,-0.000000,0.000000,0.000000,0.000000,0.000000,0.000000,0.000000,819,819,819,819
8649,0,0.062500,-0.062500,0.000000,-0.12,-0.36,0.006242,-1.000000,0.000000,0.000000,0.000000,0.000000,0.000000,0.000000,-0.000380,0.000000,0.000000,0.000000,0.000000,0.000000,0.000000,819,819,819,819
8659,0,0.062500,-0.062500,0.000000,-0.12,-0.36,0.000312,-1.000000,0.000000,0.000000,0.000000,0.000000,0.000000,0.000000,-0.000410,0.000000,0.000000,0.000000,0.000000,0.000000,0.000000,819,819,819,819
8670,0,0.062500,-0.062500,0.000000,-0.06,-0.30,0.059391,-1.000000,0.000000,0.000000,0.000000,0.000000,0.000000,0.000000,-0.000211,0.000000,0.000000,0.000000,0.000000,0.000000,0.000000,819,819,819,819
8680,0,0.062500,-0.062500,0.000000,-0.06,-0.24,0.062345,-1.000000,0.000000,0.000000,0.000000,0.000000,0.000000,0.000000,-0.000210,0.000000,0.000000,0.000000,0.000000,0.000000,0.000000,819,819,819,819
8690,0,0.062500,-0.062500,0.000000,0.06,-0.30,0.003117,-1.000000,0.000000,0.000000,0.000000,0.000000,0.000000,0.000000,0.000214,0.000000,0.000000,0.000000,0.000000,0.000000,0.000000,819,819,819,819
8700,0,0.062500,-0.062500,0.000000,0.06,-0.12,0.118906,-1.000000,0.000000,0.000000,0.000000,0.000000,0.000000,0.000000,0.000207,0.000000,0.000000,0.000000,0.000000,0.000000,0.000000,819,819,819,819
8710,0,0.062500,-0.062500,0.000000,-0.06,0.00,0.065320,-1.000000,0.000000,0.000000,0.000000,0.000000,0.000000,0.000000,-0.000215,0.000000,0.000000,0.000000,0.000000,0.000000,0.000000,819,819,819,819
8720,0,0.062500,-0.062500,0.000000,-0.06,0.12,0.062641,-1.000000,0.000000,0.000000,0.000000,0.000000,0.000000,0.000000,-0.000215,0.000000,0.000000,0.000000,0.000000,0.000000,0.000000,819,819,819,819
8730,0,0.062500,-0.062500,0.000000,0.12,0.18,-0.056243,-1.000000,0.000000,0.000000,0.000000,0.000000,0.000000,0.000000,0.000435,0.000000,0.000000,0.000000,0.000000,0.000000,0.000000,819,819,819,819
8742,0,0.062500,-0.062500,0.000000,0.00,0.00,0.115938,-1.000000,0.000000,0.000000,0.000000,0.000000,0.000000,0.000000,-0.000000,0.000000,0.000000,0.000000,0.000000,0.000000,0.000000,819,819,819,819
8751,0,0.062500,-0.062500,0.000000,0.00,-0.24,-0.053578,-1.000000,0.000000,0.000000,0.000000,0.000000,0.000000,0.000000,-0.000000,0.000000,0.000000,0.000000,0.000000,0.000000,0.000000,819,819,819,819
8761,0,0.062500,-0.062500,0.000000,0.00,-0.30,-0.062054,-1.000000,0.000000,0.000000,0.000000,0.000000,0.000000,0.000000,-0.000000,0.000000,0.000000,0.000000,0.000000,0.000000,0.000000,819,819,819,819
8770,0,0.062500,-0.062500,0.000000,-0.06,-0.12,-0.121853,-1.000000,0.000000,0.000000,0.000000,0.000000,0.000000,0.000000,-0.000223,0.000000,0.000000,0.000000,0.000000,0.000000,0.000000,819,819,819,819
8780,0,0.062500,-0.062500,0.000000,-0.06,0.24,0.053282,-1.000000,0.000000,0.000000,0.000000,0.000000,0.000000,0.000000,-0.000215,0.000000,0.000000,0.000000,0.000000,0.000000,0.000000,819,819,819,819
8790,0,0.062500,-0.062500,0.000000,0.06,0.30,-0.116086,-1.000000,0.000000,0.000000,0.000000,0.000000,0.000000,0.000000,0.000213,0.000000,0.000000,0.000000,0.000000,0.000000,0.000000,819,819,819,819
8800,0,0.062500,-0.062500,0.000000,-0.06,0.18,-0.183929,-1.000000,0.000000,0.000000,0.000000,0.000000,0.000000,0.000000,-0.000209,0.000000,0.000000,0.000000,0.000000,0.000000,0.000000,819,819,819,819
8810,0,0.062500,-0.062500,0.000000,0.06,0.24,-0.246696,-1.000000,0.000000,0.000000,0.000000,0.000000,0.000000,0.000000,0.000218,0.000000,0.000000,0.000000,0.000000,0.000000,0.000000,819,819,819,819
8820,0,0.062500,-0.062500,0.000000,0.06,0.36,-0.071710,-1.000000,0.000000,0.000000,0.000000,0.000000,0.000000,0.000000,0.000213,0.000000,0.000000,0.000000,0.000000,0.000000,0.000000,819,819,819,819
8830,0,0.062500,-0.062500,0.000000,0.00,0.42,-0.062960,-1.000000,0.000000,0.000000,0.000000,0.000000,0.000000,0.000000,-0.000000,0.000000,0.000000,0.000000,0.000000,0.000000,0.000000,819,819,819,819
8840,0,0.062500,-0.062500,0.000000,0.00,0.47,-0.062523,-1.000000,0.000000,0.000000,0.000000,0.000000,0.000000,0.000000,-0.000000,0.000000,0.000000,0.000000,0.000000,0.000000,0.000000,819,819,819,819
8850,0,0.062500,-0.062500,0.000000,0.00,0.12,0.056249,-1.000000,0.000000,0.000000,0.000000,0.000000,0.000000,0.000000,-0.000000,0.000000,0.000000,0.000000,0.000000,0.000000,0.000000,819,819,819,819
8860,0,0.062500,-0.062500,0.000000,0.00,-0.06,0.121562,-1.000000,0.000000,0.000000,0.000000,0.000000,0.000000,0.000000,-0.000000,0.000000,0.000000,0.000000,0.000000,0.000000,0.000000,819,819,819,819
8870,0,0.062500,-0.062500,0.000000,-0.06,-0.30,-0.053297,-1.000000,0.000000,0.000000,0.000000,0.000000,0.000000,0.000000,-0.000215,0.000000,0.000000,0.000000,0.000000,0.000000,0.000000,819,819,819,819
8880,0,0.062500,-0.062500,0.000000,0.00,-0.53,-0.121415,-1.000000,0.000000,0.000000,0.000000,0.000000,0.000000,0.000000,-0.000000,0.000000,0.000000,0.000000,0.000000,0.000000,0.000000,819,819,819,819
8890,0,0.062500,-0.062500,0.000000,0.00,-0.42,-0.243571,-1.000000,0.000000,0.000000,0.000000,0.000000,0.000000,0.000000,-0.000000,0.000000,0.000000,0.000000,0.000000,0.000000,0.000000,819,819,819,819
8901,0,0.062500,-0.062500,0.000000,0.06,-0.18,-0.071554,-1.000000,0.000000,0.000000,0.000000,0.000000,0.000000,0.000000,0.000209,0.000000,0.000000,0.000000,0.000000,0.000000,0.000000,819,819,819,819
8911,0,0.062500,-0.062500,0.000000,0.00,0.06,0.055797,-1.000000,0.000000,0.000000,0.000000,0.000000,0.000000,0.000000,-0.000000,0.000000,0.000000,0.000000,0.000000,0.000000,0.000000,819,819,819,819
8921,0,0.062500,-0.062500,0.000000,-0.06,0.12,0.180915,-1.000000,0.000000,0.000000,0.000000,0.000000,0.000000,0.000000,-0.000214,0.000000,0.000000,0.000000,0.000000,0.000000,0.000000,819,819,819,819
8930,0,0.062500,-0.062500,0.000000,-0.12,-0.12,0.365296,-1.000000,0.000000,0.000000,0.000000,0.000000,0.000000,0.000000,-0.000429,0.000000,0.000000,0.000000,0.000000,0.000000,0.000000,819,819,819,819
8948,0,0.062500,-0.062500,0.000000,0.00,-0.30,0.433890,-1.000000,0.000000,0.000000,0.000000,0.000000,0.000000,0.000000,-0.000000,0.000000,0.000000,0.000000,0.000000,0.000000,0.000000,819,819,819,819
8959,0,0.062500,-0.062500,0.000000,-0.06,-0.47,0.437319,-1.000000,0.000000,0.000000,0.000000,0.000000,0.000000,0.000000,-0.000190,0.000000,0.000000,0.000000,0.000000,0.000000,0.000000,819,819,819,819
8970,0,0.062500,-0.062500,0.000000,0.00,-0.47,0.140616,-1.000000,0.000000,0.000000,0.000000,0.000000,0.000000,0.000000,-0.000000,0.000000,0.000000,0.000000,0.000000,0.000000,0.000000,819,819,819,819
8980,0,0.062500,-0.062500,0.000000,-0.06,-0.59,0.066406,-1.000000,0.000000,0.000000,0.000000,0.000000,0.000000,0.000000,-0.000210,0.000000,0.000000,0.000000,0.000000,0.000000,0.000000,819,819,819,819
8991,0,0.062500,-0.062500,0.000000,-0.06,-0.65,-0.115430,-1.000000,0.000000,0.000000,0.000000,0.000000,0.000000,0.000000,-0.000207,0.000000,0.000000,0.000000,0.000000,0.000000,0.000000,819,819,819,819
9001,0,0.062500,-0.062500,0.000000,-0.12,-0.30,-0.243271,-1.000000,0.000000,0.000000,0.000000,0.000000,0.000000,0.000000,-0.000415,0.000000,0.000000,0.000000,0.000000,0.000000,0.000000,819,819,819,819
9011,0,0.062500,-0.062500,0.000000,-0.06,0.06,-0.368414,-1.000000,0.000000,0.000000,0.000000,0.000000,0.000000,0.000000,-0.000218,0.000000,0.000000,0.000000,0.000000,0.000000,0.000000,819,819,819,819
9021,0,0.062500,-0.062500,0.000000,-0.06,0.30,-0.434046,-1.000000,0.000000,0.000000,0.000000,0.000000,0.000000,0.000000,-0.000215,0.000000,0.000000,0.000000,0.000000,0.000000,0.000000,819,819,819,819
9031,0,0.062500,-0.062500,0.000000,0.00,0.47,-0.259202,-1.000000,0.000000,0.000000,0.000000,0.000000,0.000000,0.000000,-0.000000,0.000000,0.000000,0.000000,0.000000,0.000000,0.000000,819,819,819,819
9041,0,0.062500,-0.062500,0.000000,-0.18,0.00,-0.428585,-1.000000,0.000000,0.000000,0.000000,0.000000,0.000000,0.000000,-0.000637,0.000000,0.000000,0.000000,0.000000,0.000000,0.000000,819,819,819,819
9051,0,0.062500,-0.062500,0.000000,0.00,-0.30,-0.258929,-1.000000,0.000000,0.000000,0.000000,0.000000,0.000000,0.000000,-0.000000,0.000000,0.000000,0.000000,0.000000,0.000000,0.000000,819,819,819,819
9061,0,0.062500,-0.062500,0.000000,0.00,-0.24,-0.012946,-1.000000,0.000000,0.000000,0.000000,0.000000,0.000000,0.000000,-0.000000,0.000000,0.000000,0.000000,0.000000,0.000000,0.000000,819,819,819,819
9071,0,0.062500,-0.062500,0.000000,-0.06,0.18,0.118103,-1.000000,0.000000,0.000000,0.000000,0.000000,0.000000,0.000000,-0.000215,0.000000,0.000000,0.000000,0.000000,0.000000,0.000000,819,819,819,819
9081,0,0.062500,-0.062500,0.000000,-0.06,0.24,0.005905,-1.000000,0.000000,0.000000,0.000000,0.000000,0.000000,0.000000,-0.000211,0.000000,0.000000,0.000000,0.000000,0.000000,0.000000,819,819,819,819
9091,0,0.062500,-0.062500,0.000000,0.06,0.30,0.119045,-1.000000,0.000000,0.000000,0.000000,0.000000,0.000000,0.000000,0.000215,0.000000,0.000000,0.000000,0.000000,0.000000,0.000000,819,819,819,819
9101,0,0.062500,-0.062500,0.000000,-0.12,-0.06,-0.053423,-1.000000,0.000000,0.000000,0.000000,0.000000,0.000000,0.000000,-0.000423,0.000000,0.000000,0.000000,0.000000,0.000000,0.000000,819,819,819,819
9111,0,0.062500,-0.062500,0.000000,0.00,0.00,-0.121421,-1.000000,0.000000,0.000000,0.000000,0.000000,0.000000,0.000000,-0.000000,0.000000,0.000000,0.000000,0.000000,0.000000,0.000000,819,819,819,819
9121,0,0.062500,-0.062500,0.000000,0.00,0.00,-0.302946,-1.000000,0.000000,0.000000,0.000000,0.000000,0.000000,0.000000,-0.000000,0.000000,0.000000,0.000000,0.000000,0.000000,0.000000,819,819,819,819
9131,0,0.062500,-0.062500,0.000000,0.06,0.12,-0.371397,-1.000000,0.000000,0.000000,0.000000,0.000000,0.000000,0.000000,0.000215,0.000000,0.000000,0.000000,0.000000,0.000000,0.000000,819,819,819,819
9141,0,0.062500,-0.062500,0.000000,0.00,-0.12,-0.196695,-1.000000,0.000000,0.000000,0.000000,0.000000,0.000000,0.000000,-0.000000,0.000000,0.000000,0.000000,0.000000,0.000000,0.000000,819,819,819,819
9151,0,0.062500,-0.062500,0.000000,0.00,-0.12,-0.187960,-1.000000,0.000000,0.000000,0.000000,0.000000,0.000000,0.000000,-0.000000,0.000000,0.000000,0.000000,0.000000,0.000000,0.000000,819,819,819,819
9161,0,0.062500,-0.062500,0.000000,0.00,-0.12,-0.009398,-1.000000,0.000000,0.000000,0.000000,0.000000,0.000000,0.000000,-0.000000,0.000000,0.000000,0.000000,0.000000,0.000000,0.000000,819,819,819,819
9171,0,0.062500,-0.062500,0.000000,-0.06,0.12,-0.059845,-1.000000,0.000000,0.000000,0.000000,0.000000,0.000000,0.000000,-0.000217,0.000000,0.000000,0.000000,0.000000,0.000000,0.000000,819,819,819,819
9181,0,0.062500,-0.062500,0.000000,-0.06,0.59,-0.181117,-1.000000,0.000000,0.000000,0.000000,0.000000,0.000000,0.000000,-0.000212,0.000000,0.000000,0.000000,0.000000,0.000000,0.000000,819,819,819,819
9191,0,0.062500,-0.062500,0.000000,0.06,1.01,-0.484056,-1.000000,0.000000,0.000000,0.000000,0.000000,0.000000,0.000000,0.000214,0.000000,0.000000,0.000000,0.000000,0.000000,0.000000,819,819,819,819
9201,0,0.062500,-0.062500,0.000000,0.00,0.77,-0.439828,-1.000000,0.000000,0.000000,0.000000,0.000000,0.000000,0.000000,-0.000000,0.000000,0.000000,0.000000,0.000000,0.000000,0.000000,819,819,819,819
9211,0,0.062500,-0.062500,0.000000,0.00,0.71,-0.496991,-1.000000,0.000000,0.000000,0.000000,0.000000,0.000000,0.000000,-0.000000,0.000000,0.000000,0.000000,0.000000,0.000000,0.000000,819,819,819,819
9221,0,0.062500,-0.062500,0.000000,0.06,0.71,-0.618600,-1.000000,0.000000,0.000000,0.000000,0.000000,0.000000,0.000000,0.000213,0.000000,0.000000,0.000000,0.000000,0.000000,0.000000,819,819,819,819
9231,0,0.062500,-0.062500,0.000000,0.00,0.06,-0.149680,-1.000000,0.000000,0.000000,0.000000,0.000000,0.000000,0.000000,-0.000000,0.000000,0.000000,0.000000,0.000000,0.000000,0.000000,819,819,819,819
9241,0,0.062500,-0.062500,0.000000,0.12,-0.53,-0.126234,-1.000000,0.000000,0.000000,0.000000,0.000000,0.000000,0.000000,0.000433,0.000000,0.000000,0.000000,0.000000,0.000000,0.000000,819,819,819,819
9251,0,0.062500,-0.062500,0.000000,-0.06,-0.65,0.171813,-1.000000,0.000000,0.000000,0.000000,0.000000,0.000000,0.000000,-0.000210,0.000000,0.000000,0.000000,0.000000,0.000000,0.000000,819,819,819,819
9269,0,0.062500,-0.062500,0.000000,0.00,-0.24,0.483591,-1.000000,0.000000,0.000000,0.000000,0.000000,0.000000,0.000000,-0.000000,0.000000,0.000000,0.000000,0.000000,0.000000,0.000000,819,819,819,819
9280,0,0.062500,-0.062500,0.000000,0.06,0.18,0.321055,-1.000000,0.000000,0.000000,0.000000,0.000000,0.000000,0.000000,0.000192,0.000000,0.000000,0.000000,0.000000,0.000000,0.000000,819,819,819,819
9291,0,0.062500,-0.062500,0.000000,0.00,0.36,-0.221447,-1.000000,0.000000,0.000000,0.000000,0.000000,0.000000,0.000000,-0.000000,0.000000,0.000000,0.000000,0.000000,0.000000,0.000000,819,819,819,819
9301,0,0.062500,-0.062500,0.000000,0.00,-0.12,-0.367322,-1.000000,0.000000,0.000000,0.000000,0.000000,0.000000,0.000000,-0.000000,0.000000,0.000000,0.000000,0.000000,0.000000,0.000000,819,819,819,819
9311,0,0.062500,-0.062500,0.000000,-0.12,-0.24,-0.374616,-1.000000,0.000000,0.000000,0.000000,0.000000,0.000000,0.000000,-0.000421,0.000000,0.000000,0.000000,0.000000,0.000000,0.000000,819,819,819,819
9321,0,0.062500,-0.062500,0.000000,0.06,-0.12,-0.137481,-1.000000,0.000000,0.000000,0.000000,0.000000,0.000000,0.000000,0.000215,0.000000,0.000000,0.000000,0.000000,0.000000,0.000000,819,819,819,819
9332,0,0.062500,-0.062500,0.000000,0.06,-0.18,0.111876,-1.000000,0.000000,0.000000,0.000000,0.000000,0.000000,0.000000,0.000212,0.000000,0.000000,0.000000,0.000000,0.000000,0.000000,819,819,819,819
9341,0,0.062500,-0.062500,0.000000,-0.06,-0.12,0.124344,-1.000000,0.000000,0.000000,0.000000,0.000000,0.000000,0.000000,-0.000215,0.000000,0.000000,0.000000,0.000000,0.000000,0.000000,819,819,819,819
9352,0,0.062500,-0.062500,0.000000,0.00,-0.18,0.362467,-1.000000,0.000000,0.000000,0.000000,0.000000,0.000000,0.000000,-0.000000,0.000000,0.000000,0.000000,0.000000,0.000000,0.000000,819,819,819,819
9362,0,0.062500,-0.062500,0.000000,0.00,-0.12,0.196248,-1.000000,0.000000,0.000000,0.000000,0.000000,0.000000,0.000000,-0.000000,0.000000,0.000000,0.000000,0.000000,0.000000,0.000000,819,819,819,819
9371,0,0.062500,-0.062500,0.000000,0.00,0.06,0.128562,-1.000000,0.000000,0.000000,0.000000,0.000000,0.000000,0.000000,-0.000000,0.000000,0.000000,0.000000,0.000000,0.000000,0.000000,819,819,819,819
9382,0,0.062500,-0.062500,0.000000,0.06,0.12,-0.052947,-1.000000,0.000000,0.000000,0.000000,0.000000,0.000000,0.000000,0.000209,0.000000,0.000000,0.000000,0.000000,0.000000,0.000000,819,819,819,819
9392,0,0.062500,-0.062500,0.000000,0.06,0.12,-0.180772,-1.000000,0.000000,0.000000,0.000000,0.000000,0.000000,0.000000,0.000215,0.000000,0.000000,0.000000,0.000000,0.000000,0.000000,819,819,819,819
9402,0,0.062500,-0.062500,0.000000,-0.12,0.30,-0.484039,-1.000000,0.000000,0.000000,0.000000,0.000000,0.000000,0.000000,-0.000424,0.000000,0.000000,0.000000,0.000000,0.000000,0.000000,819,819,819,819
9412,0,0.062500,-0.062500,0.000000,0.00,0.12,-0.617952,-1.000000,0.000000,0.000000,0.000000,0.000000,0.000000,0.000000,-0.000000,0.000000,0.000000,0.000000,0.000000,0.000000,0.000000,819,819,819,819
9422,0,0.062500,-0.062500,0.000000,-0.06,-0.30,-0.387148,-1.000000,0.000000,0.000000,0.000000,0.000000,0.000000,0.000000,-0.000212,0.000000,0.000000,0.000000,0.000000,0.000000,0.000000,819,819,819,819
9432,0,0.062500,-0.062500,0.000000,0.00,-0.53,-0.078732,-1.000000,0.000000,0.000000,0.000000,0.000000,0.000000,0.000000,-0.000000,0.000000,0.000000,0.000000,0.000000,0.000000,0.000000,819,819,819,819
9442,0,0.062500,-0.062500,0.000000,0.06,-0.47,-0.003937,-1.000000,0.000000,0.000000,0.000000,0.000000,0.000000,0.000000,0.000213,0.000000,0.000000,0.000000,0.000000,0.000000,0.000000,819,819,819,819
9452,0,0.062500,-0.062500,0.000000,0.06,-0.42,0.118553,-1.000000,0.000000,0.000000,0.000000,0.000000,0.000000,0.000000,0.000212,0.000000,0.000000,0.000000,0.000000,0.000000,0.000000,819,819,819,819
9462,0,0.062500,-0.062500,0.000000,-0.18,-0.59,0.421553,-1.000000,0.000000,0.000000,0.000000,0.000000,0.000000,0.000000,-0.000643,0.000000,0.000000,0.000000,0.000000,0.000000,0.000000,819,819,819,819
9472,0,0.062500,-0.062500,0.000000,0.00,-0.36,0.674203,-1.000000,0.000000,0.000000,0.000000,0.000000,0.000000,0.000000,-0.000000,0.000000,0.000000,0.000000,0.000000,0.000000,0.000000,819,819,819,819
9482,0,0.062500,-0.062500,0.000000,-0.06,-0.12,0.271210,-1.000000,0.000000,0.000000,0.000000,0.000000,0.000000,0.000000,-0.000212,0.000000,0.000000,0.000000,0.000000,0.000000,0.000000,819,819,819,819
9492,0,0.062500,-0.062500,0.000000,0.12,0.12,0.191685,-1.000000,0.000000,0.000000,0.000000,0.000000,0.000000,0.000000,0.000432,0.000000,0.000000,0.000000,0.000000,0.000000,0.000000,819,819,819,819
9502,0,0.062500,-0.062500,0.000000,0.12,-0.18,0.068959,-1.000000,0.000000,0.000000,0.000000,0.000000,0.000000,0.000000,0.000417,0.000000,0.000000,0.000000,0.000000,0.000000,0.000000,819,819,819,819
9512,0,0.062500,-0.062500,0.000000,0.00,-0.30,-0.115302,-1.000000,0.000000,0.000000,0.000000,0.000000,0.000000,0.000000,-0.000000,0.000000,0.000000,0.000000,0.000000,0.000000,0.000000,819,819,819,819
9522,0,0.062500,-0.062500,0.000000,-0.06,-0.12,-0.124515,-1.000000,0.000000,0.000000,0.000000,0.000000,0.000000,0.000000,-0.000216,0.000000,0.000000,0.000000,0.000000,0.000000,0.000000,819,819,819,819
9532,0,0.062500,-0.062500,0.000000,-0.06,-0.24,0.053149,-1.000000,0.000000,0.000000,0.000000,0.000000,0.000000,0.000000,-0.000212,0.000000,0.000000,0.000000,0.000000,0.000000,0.000000,819,819,819,819
9542,0,0.062500,-0.062500,0.000000,0.06,-0.24,0.002657,-1.000000,0.000000,0.000000,0.000000,0.000000,0.000000,0.000000,0.000213,0.000000,0.000000,0.000000,0.000000,0.000000,0.000000,819,819,819,819
9552,0,0.062500,-0.062500,0.000000,-0.06,-0.30,0.059508,-1.000000,0.000000,0.000000,0.000000,0.000000,0.000000,0.000000,-0.000209,0.000000,0.000000,0.000000,0.000000,0.000000,0.000000,819,819,819,819
9562,0,0.062500,-0.062500,0.000000,0.06,-0.36,0.181100,-1.000000,0.000000,0.000000,0.000000,0.000000,0.000000,0.000000,0.000217,0.000000,0.000000,0.000000,0.000000,0.000000,0.000000,819,819,819,819
9572,0,0.062500,-0.062500,0.000000,0.00,-0.12,0.187180,-1.000000,0.000000,0.000000,0.000000,0.000000,0.000000,0.000000,-0.000000,0.000000,0.000000,0.000000,0.000000,0.000000,0.000000,819,819,819,819
9591,0,0.062500,-0.062500,0.000000,-0.06,-0.12,0.424984,-1.000000,0.000000,0.000000,0.000000,0.000000,0.000000,0.000000,-0.000128,0.000000,0.000000,0.000000,0.000000,0.000000,0.000000,819,819,819,819
9602,0,0.062500,-0.062500,0.000000,-0.06,0.00,0.496249,-1.000000,0.000000,0.000000,0.000000,0.000000,0.000000,0.000000,-0.000205,0.000000,0.000000,0.000000,0.000000,0.000000,0.000000,819,819,819,819
9612,0,0.062500,-0.062500,0.000000,-0.06,0.12,0.202937,-1.000000,0.000000,0.000000,0.000000,0.000000,0.000000,0.000000,-0.000213,0.000000,0.000000,0.000000,0.000000,0.000000,0.000000,819,819,819,819
9622,0,0.062500,-0.062500,0.000000,0.06,0.18,-0.049228,-1.000000,0.000000,0.000000,0.000000,0.000000,0.000000,0.000000,0.000212,0.000000,0.000000,0.000000,0.000000,0.000000,0.000000,819,819,819,819
9632,0,0.062500,-0.062500,0.000000,-0.12,0.24,-0.358711,-1.000000,0.000000,0.000000,0.000000,0.000000,0.000000,0.000000,-0.000416,0.000000,0.000000,0.000000,0.000000,0.000000,0.000000,819,819,819,819
9642,0,0.062500,-0.062500,0.000000,-0.12,0.24,-0.492936,-1.000000,0.000000,0.000000,0.000000,0.000000,0.000000,0.000000,-0.000429,0.000000,0.000000,0.000000,0.000000,0.000000,0.000000,819,819,819,819
9653,0,0.062500,-0.062500,0.000000,0.06,-0.06,-0.380897,-1.000000,0.000000,0.000000,0.000000,0.000000,0.000000,0.000000,0.000210,0.000000,0.000000,0.000000,0.000000,0.000000,0.000000,819,819,819,819
9663,0,0.062500,-0.062500,0.000000,0.12,0.12,-0.375295,-1.000000,0.000000,0.000000,0.000000,0.000000,0.000000,0.000000,0.000430,0.000000,0.000000,0.000000,0.000000,0.000000,0.000000,819,819,819,819
9672,0,0.062500,-0.062500,0.000000,0.12,0.24,-0.018765,-1.000000,0.000000,0.000000,0.000000,0.000000,0.000000,0.000000,0.000429,0.000000,0.000000,0.000000,0.000000,0.000000,0.000000,819,819,819,819
9682,0,0.062500,-0.062500,0.000000,0.06,0.30,0.236562,-1.000000,0.000000,0.000000,0.000000,0.000000,0.000000,0.000000,0.000215,0.000000,0.000000,0.000000,0.000000,0.000000,0.000000,819,819,819,819
9692,0,0.062500,-0.062500,0.000000,-0.12,0.36,0.427453,-1.000000,0.000000,0.000000,0.000000,0.000000,0.000000,0.000000,-0.000425,0.000000,0.000000,0.000000,0.000000,0.000000,0.000000,819,819,819,819
9703,0,0.062500,-0.062500,0.000000,-0.06,0.12,0.318248,-1.000000,0.000000,0.000000,0.000000,0.000000,0.000000,0.000000,-0.000210,0.000000,0.000000,0.000000,0.000000,0.000000,0.000000,819,819,819,819
9713,0,0.062500,-0.062500,0.000000,0.00,0.06,0.194037,-1.000000,0.000000,0.000000,0.000000,0.000000,0.000000,0.000000,-0.000000,0.000000,0.000000,0.000000,0.000000,0.000000,0.000000,819,819,819,819
9723,0,0.062500,-0.062500,0.000000,-0.06,0.00,-0.109048,-1.000000,0.000000,0.000000,0.000000,0.000000,0.000000,0.000000,-0.000213,0.000000,0.000000,0.000000,0.000000,0.000000,0.000000,819,819,819,819
9732,0,0.062500,-0.062500,0.000000,-0.06,-0.06,-0.361702,-1.000000,0.000000,0.000000,0.000000,0.000000,0.000000,0.000000,-0.000216,0.000000,0.000000,0.000000,0.000000,0.000000,0.000000,819,819,819,819
9743,0,0.062500,-0.062500,0.000000,-0.12,0.12,-0.671210,-1.000000,0.000000,0.000000,0.000000,0.000000,0.000000,0.000000,-0.000425,0.000000,0.000000,0.000000,0.000000,0.000000,0.000000,819,819,819,819
9753,0,0.062500,-0.062500,0.000000,-0.30,0.24,-0.746060,-1.000000,0.000000,0.000000,0.000000,0.000000,0.000000,0.000000,-0.001053,0.000000,0.000000,0.000000,0.000000,0.000000,0.000000,819,819,819,819
9763,0,0.062500,-0.062500,0.000000,-0.06,0.18,-0.334178,-1.000000,0.000000,0.000000,0.000000,0.000000,0.000000,0.000000,-0.000214,0.000000,0.000000,0.000000,0.000000,0.000000,0.000000,819,819,819,819
9773,0,0.062500,-0.062500,0.000000,-0.18,-0.18,-0.135459,-1.000000,0.000000,0.000000,0.000000,0.000000,0.000000,0.000000,-0.000643,0.000000,0.000000,0.000000,0.000000,0.000000,0.000000,819,819,819,819
9783,0,0.062500,-0.062500,0.000000,-0.12,-0.06,0.171352,-1.000000,0.000000,0.000000,0.000000,0.000000,0.000000,0.000000,-0.000428,0.000000,0.000000,0.000000,0.000000,0.000000,0.000000,819,819,819,819
9793,0,0.062500,-0.062500,0.000000,0.00,-0.12,0.424193,-1.000000,0.000000,0.000000,0.000000,0.000000,0.000000,0.000000,-0.000000,0.000000,0.000000,0.000000,0.000000,0.000000,0.000000,819,819,819,819
9803,0,0.062500,-0.062500,0.000000,-0.12,0.00,0.555585,-1.000000,0.000000,0.000000,0.000000,0.000000,0.000000,0.000000,-0.000422,0.000000,0.000000,0.000000,0.000000,0.000000,0.000000,819,819,819,819
9813,0,0.062500,-0.062500,0.000000,-0.12,-0.12,0.502779,-1.000000,0.000000,0.000000,0.000000,0.000000,0.000000,0.000000,-0.000430,0.000000,0.000000,0.000000,0.000000,0.000000,0.000000,819,819,819,819
9823,0,0.062500,-0.062500,0.000000,-0.06,-0.12,-0.034236,-1.000000,0.000000,0.000000,0.000000,0.000000,0.000000,0.000000,-0.000215,0.000000,0.000000,0.000000,0.000000,0.000000,0.000000,819,819,819,819
9833,0,0.062500,-0.062500,0.000000,-0.06,0.00,-0.595462,-1.000000,0.000000,0.000000,0.000000,0.000000,0.000000,0.000000,-0.000211,0.000000,0.000000,0.000000,0.000000,0.000000,0.000000,819,819,819,819
9843,0,0.062500,-0.062500,0.000000,-0.06,0.30,-1.039148,-1.000000,0.000000,0.000000,0.000000,0.000000,0.000000,0.000000,-0.000216,0.000000,0.000000,0.000000,0.000000,0.000000,0.000000,819,819,819,819
9853,0,0.062500,-0.062500,0.000000,-0.12,0.18,-1.120707,-1.000000,0.000000,0.000000,0.000000,0.000000,0.000000,0.000000,-0.000421,0.000000,0.000000,0.000000,0.000000,0.000000,0.000000,819,819,819,819
9863,0,0.125000,-0.062500,0.000000,0.19,0.42,-1.006035,-1.000000,0.000000,0.000000,0.000000,0.000000,0.000000,0.000000,0.000699,0.000000,0.000000,0.000000,0.000000,0.000000,0.000000,819,819,819,819
9873,0,0.125000,-0.062500,0.000000,-0.06,0.24,-0.406552,-1.000000,0.000000,0.000000,0.000000,0.000000,0.000000,0.000000,-0.000214,0.000000,0.000000,0.000000,0.000000,0.000000,0.000000,819,819,819,819
9883,0,0.125000,-0.062500,0.000000,0.06,-0.06,0.335922,-1.000000,0.000000,0.000000,0.000000,0.000000,0.000000,0.000000,0.000212,0.000000,0.000000,0.000000,0.000000,0.000000,0.000000,819,819,819,819
9901,0,0.062500,-0.062500,0.000000,-0.05,-0.47,1.026171,-1.000000,0.000000,0.000000,0.000000,0.000000,0.000000,0.000000,-0.000127,0.000000,0.000000,0.000000,0.000000,0.000000,0.000000,819,819,819,819
9912,0,0.062500,-0.062500,0.000000,-0.12,-0.12,1.298183,-1.000000,0.000000,0.000000,0.000000,0.000000,0.000000,0.000000,-0.000387,0.000000,0.000000,0.000000,0.000000,0.000000,0.000000,819,819,819,819
9923,0,0.062500,-0.062500,0.000000,-0.12,0.30,0.005534,-1.000000,0.000000,0.000000,0.000000,0.000000,0.000000,0.000000,-0.000404,0.000000,0.000000,0.000000,0.000000,0.000000,0.000000,819,819,819,819
9933,0,0.062500,-0.062500,0.000000,-0.06,-0.06,-0.712223,-1.000000,0.000000,0.000000,0.000000,0.000000,0.000000,0.000000,-0.000209,0.000000,0.000000,0.000000,0.000000,0.000000,0.000000,819,819,819,819
9943,0,0.062500,-0.062500,0.000000,0.06,-0.47,-1.104361,-1.000000,0.000000,0.000000,0.000000,0.000000,0.000000,0.000000,0.000211,0.000000,0.000000,0.000000,0.000000,0.000000,0.000000,819,819,819,819
9953,0,0.062500,-0.062500,0.000000,0.00,-0.59,-0.886468,-1.000000,0.000000,0.000000,0.000000,0.000000,0.000000,0.000000,-0.000000,0.000000,0.000000,0.000000,0.000000,0.000000,0.000000,819,819,819,819
9963,0,0.062500,-0.062500,0.000000,-0.06,-0.30,-0.341198,-1.000000,0.000000,0.000000,0.000000,0.000000,0.000000,0.000000,-0.000215,0.000000,0.000000,0.000000,0.000000,0.000000,0.000000,819,819,819,819
9973,0,0.062500,-0.062500,0.000000,-0.12,0.18,0.220440,-1.000000,0.000000,0.000000,0.000000,0.000000,0.000000,0.000000,-0.000430,0.000000,0.000000,0.000000,0.000000,0.000000,0.000000,819,819,819,819
9983,0,0.062500,-0.062500,0.000000,0.18,0.42,0.723522,-1.000000,0.000000,0.000000,0.000000,0.000000,0.000000,0.000000,0.000642,0.000000,0.000000,0.000000,0.000000,0.000000,0.000000,819,819,819,819
9993,0,0.062500,-0.062500,0.000000,-0.06,0.12,0.986176,-1.000000,0.000000,0.000000,0.000000,0.000000,0.000000,0.000000,-0.000211,0.000000,0.000000,0.000000,0.000000,0.000000,0.000000,819,819,819,819
10003,0,0.062500,-0.062500,0.000000,-0.18,-0.24,0.761809,-1.000000,0.000000,0.000000,0.000000,0.000000,0.000000,0.000000,-0.000641,0.000000,0.000000,0.000000,0.000000,0.000000,0.000000,819,819,819,819
10013,0,0.062500,-0.062500,0.000000,-0.18,-0.42,0.394340,-1.000000,0.000000,0.000000,0.000000,0.000000,0.000000,0.000000,-0.000640,0.000000,0.000000,0.000000,0.000000,0.000000,0.000000,819,819,819,819
10023,0,0.062500,-0.062500,0.000000,0.06,-0.30,-0.039658,-1.000000,0.000000,0.000000,0.000000,0.000000,0.000000,0.000000,0.000215,0.000000,0.000000,0.000000,0.000000,0.000000,0.000000,819,819,819,819
10033,0,0.062500,-0.062500,0.000000,0.00,-0.12,-0.536358,-1.000000,0.000000,0.000000,0.000000,0.000000,0.000000,0.000000,-0.000000,0.000000,0.000000,0.000000,0.000000,0.000000,0.000000,819,819,819,819
10043,0,0.062500,-0.062500,0.000000,-0.12,0.00,-0.679943,-1.000000,0.000000,0.000000,0.000000,0.000000,0.000000,0.000000,-0.000433,0.000000,0.000000,0.000000,0.000000,0.000000,0.000000,819,819,819,819
10053,0,0.062500,-0.062500,0.000000,0.06,0.18,-0.746497,-1.000000,0.000000,0.000000,0.000000,0.000000,0.000000,0.000000,0.000209,0.000000,0.000000,0.000000,0.000000,0.000000,0.000000,819,819,819,819
10063,0,0.062500,-0.062500,0.000000,0.00,0.00,-0.156075,-1.000000,0.000000,0.000000,0.000000,0.000000,0.000000,0.000000,-0.000000,0.000000,0.000000,0.000000,0.000000,0.000000,0.000000,819,819,819,819
10074,0,0.062500,-0.062500,0.000000,-0.06,0.12,0.170321,-1.000000,0.000000,0.000000,0.000000,0.000000,0.000000,0.000000,-0.000212,0.000000,0.000000,0.000000,0.000000,0.000000,0.000000,819,819,819,819
10083,0,0.062500,-0.062500,0.000000,0.12,0.12,0.483516,-1.000000,0.000000,0.000000,0.000000,0.000000,0.000000,0.000000,0.000429,0.000000,0.000000,0.000000,0.000000,0.000000,0.000000,819,819,819,819
10094,0,0.062500,-0.062500,0.000000,0.12,0.30,0.439801,-1.000000,0.000000,0.000000,0.000000,0.000000,0.000000,0.000000,0.000425,0.000000,0.000000,0.000000,0.000000,0.000000,0.000000,819,819,819,819
10104,0,0.062500,-0.062500,0.000000,0.06,0.18,0.259490,0.007000,0.000000,0.000000,0.000000,0.000000,0.000000,0.000000,0.000211,0.000000,0.000000,0.000000,0.000000,0.000000,0.000000,819,819,819,819
10114,0,0.062500,-0.062500,0.000000,-0.12,0.24,0.309850,0.007000,0.000000,0.000000,0.000000,0.000000,0.000000,0.000000,-0.000432,0.000000,0.000000,0.000000,0.000000,0.000000,0.000000,819,819,819,819
10124,0,0.062500,-0.062500,0.000000,0.00,0.12,-0.103258,0.007000,0.000000,0.000000,0.000000,0.000000,0.000000,0.000000,-0.000000,0.000000,0.000000,0.000000,0.000000,0.000000,0.000000,819,819,819,819
