t,is_crashed,roll,pitch,yaw,p,q,r,throttle,roll_cmd,pitch_cmd,yaw_cmd,roll_pid_out,pitch_pid_out,yaw_pid_out,motor_fl,motor_bl,motor_fr,motor_br,pwm_fl,pwm_bl,pwm_fr,pwm_br
6920,0,0.03,-0.00,-0.00,0.00,0.00,0.00,0.00,0.00,0.00,0.00,0.00,0.00,-0.00,0.00,0.00,0.00,0.00,0,0,0,0
6932,0,0.00,0.00,-0.00,-0.00,0.00,0.00,0.00,0.00,0.00,0.00,0.00,0.00,-0.00,0.00,0.00,0.00,0.00,819,819,819,819
6940,0,0.00,0.00,-0.00,0.00,0.00,-0.00,0.00,0.00,0.00,0.00,-0.00,0.00,-0.00,0.00,0.00,0.00,0.00,819,819,819,819
6950,0,0.00,0.00,-0.00,0.00,-0.00,-0.00,0.00,0.00,0.00,0.00,-0.00,-0.00,-0.00,0.00,0.00,0.00,0.00,819,819,819,819
6959,0,0.00,0.00,-0.00,-0.00,-0.00,-0.00,0.00,0.00,0.00,0.00,0.00,0.00,-0.00,0.00,0.00,0.00,0.00,819,819,819,819
6969,0,0.00,0.00,-0.00,0.00,-0.00,-0.00,0.00,0.00,0.00,0.00,-0.00,-0.00,-0.00,0.00,0.00,0.00,0.00,819,819,819,819
6978,0,0.00,0.00,-0.00,-0.00,-0.00,0.00,0.00,0.00,0.00,0.00,0.00,-0.00,-0.00,0.00,0.00,0.00,0.00,819,819,819,819
6985,0,0.00,0.00,-0.00,0.00,-0.00,-0.00,0.00,0.00,0.00,0.00,-0.00,-0.00,-0.00,0.00,0.00,0.00,0.00,819,819,819,819
6998,0,0.00,0.00,-0.00,0.00,-0.00,-0.00,0.00,0.00,0.00,0.00,-0.00,0.00,-0.00,0.00,0.00,0.00,0.00,819,819,819,819
7010,0,0.00,0.00,-0.00,0.00,-0.00,-0.00,0.00,0.00,0.00,0.00,-0.00,0.00,-0.00,0.00,0.00,0.00,0.00,819,819,819,819
7019,0,0.00,0.00,-0.00,-0.00,-0.00,-0.00,0.00,0.00,0.00,0.00,0.00,0.00,-0.00,0.00,0.00,0.00,0.00,819,819,819,819
7031,0,0.00,0.00,-0.00,-0.00,-0.00,-0.00,0.00,0.00,0.00,0.00,0.00,0.00,-0.00,0.00,0.00,0.00,0.00,819,819,819,819
7039,0,0.00,0.00,-0.00,-0.00,-0.00,0.00,0.00,0.00,0.00,0.00,0.00,-0.00,-0.00,0.00,0.00,0.00,0.00,819,819,819,819
7049,0,0.00,0.00,-0.00,0.00,0.00,0.00,0.00,0.00,0.00,0.00,-0.00,0.00,-0.00,0.00,0.00,0.00,0.00,819,819,819,819
7061,0,0.00,0.00,-0.00,-0.00,-0.00,0.00,0.00,0.00,0.00,0.00,0.00,0.00,-0.00,0.00,0.00,0.00,0.00,819,819,819,819
7071,0,0.00,0.00,-0.00,0.00,-0.00,-0.00,0.00,0.00,0.00,0.00,-0.00,0.00,-0.00,0.00,0.00,0.00,0.00,819,819,819,819
7080,0,0.00,0.00,-0.00,-0.00,-0.00,0.00,0.00,0.00,0.00,0.00,0.00,0.00,-0.00,0.00,0.00,0.00,0.00,819,819,819,819
7088,0,0.00,0.00,-0.00,-0.00,0.00,-0.00,0.00,0.00,0.00,0.00,0.00,0.00,-0.00,0.00,0.00,0.00,0.00,819,819,819,819
7095,0,0.00,0.00,-0.00,0.00,-0.00,-0.00,0.00,0.00,0.00,0.00,-0.00,0.00,-0.00,0.00,0.00,0.00,0.00,819,819,819,819
7103,0,0.00,0.00,-0.00,-0.00,-0.00,-0.00,0.00,0.00,0.00,0.00,0.00,0.00,-0.00,0.00,0.00,0.00,0.00,819,819,819,819
7112,0,0.00,0.00,-0.00,-0.00,-0.00,-0.00,0.00,0.00,0.00,0.00,0.00,0.00,-0.00,0.00,0.00,0.00,0.00,819,819,819,819
7122,0,0.00,0.00,-0.00,-0.00,0.00,-0.00,0.00,0.00,0.00,0.00,0.00,0.00,-0.00,0.00,0.00,0.00,0.00,819,819,819,819
7131,0,0.00,0.00,-0.00,0.00,0.00,0.00,0.00,0.00,0.00,0.00,-0.00,0.00,-0.00,0.00,0.00,0.00,0.00,819,819,819,819
7139,0,0.00,0.00,-0.00,-0.00,0.00,-0.00,0.00,0.00,0.00,0.00,0.00,0.00,-0.00,0.00,0.00,0.00,0.00,819,819,819,819
7149,0,0.00,0.00,-0.00,-0.00,-0.00,0.00,0.00,0.00,0.00,0.00,0.00,-0.00,-0.00,0.00,0.00,0.00,0.00,819,819,819,819
7158,0,0.00,0.00,-0.00,-0.00,-0.00,-0.00,0.00,0.00,0.00,0.00,0.00,0.00,-0.00,0.00,0.00,0.00,0.00,819,819,819,819
7165,0,0.00,0.00,-0.00,0.00,0.00,0.00,0.00,0.00,0.00,0.00,-0.00,0.00,-0.00,0.00,0.00,0.00,0.00,819,819,819,819
7173,0,0.00,0.00,-0.00,0.00,0.00,0.00,0.00,0.00,0.00,0.00,-0.00,0.00,-0.00,0.00,0.00,0.00,0.00,819,819,819,819
7182,0,0.00,0.00,-0.00,0.00,0.00,0.00,0.00,0.00,0.00,0.00,-0.00,0.00,-0.00,0.00,0.00,0.00,0.00,819,819,819,819
7192,0,0.00,0.00,-0.00,-0.00,-0.00,0.00,0.00,0.00,0.00,0.00,0.00,-0.00,-0.00,0.00,0.00,0.00,0.00,819,819,819,819
7201,0,0.00,0.00,-0.00,-0.00,-0.00,0.00,0.00,0.00,0.00,0.00,0.00,-0.00,-0.00,0.00,0.00,0.00,0.00,819,819,819,819
7211,0,0.00,0.00,-0.00,0.00,-0.00,-0.00,0.00,0.00,0.00,0.00,-0.00,0.00,-0.00,0.00,0.00,0.00,0.00,819,819,819,819
7220,0,0.00,0.00,-0.00,0.00,-0.00,-0.00,0.00,0.00,0.00,0.00,-0.00,-0.00,-0.00,0.00,0.00,0.00,0.00,819,819,819,819
7230,0,0.00,0.00,-0.00,0.00,0.00,-0.00,0.00,0.00,0.00,0.00,-0.00,0.00,-0.00,0.00,0.00,0.00,0.00,819,819,819,819
7237,0,0.00,0.00,-0.00,-0.00,0.00,0.00,0.00,0.00,0.00,0.00,0.00,0.00,-0.00,0.00,0.00,0.00,0.00,819,819,819,819
7245,0,0.00,0.00,-0.00,0.00,-0.00,-0.00,0.00,0.00,0.00,0.00,-0.00,0.00,-0.00,0.00,0.00,0.00,0.00,819,819,819,819
7253,0,0.00,0.00,-0.00,0.00,-0.00,-0.00,0.00,0.00,0.00,0.00,-0.00,0.00,-0.00,0.00,0.00,0.00,0.00,819,819,819,819
7262,0,0.00,0.00,-0.00,0.00,-0.00,-0.00,0.00,0.00,0.00,0.00,-0.00,0.00,-0.00,0.00,0.00,0.00,0.00,819,819,819,819
7272,0,0.00,0.00,-0.00,0.00,0.00,-0.00,0.00,0.00,0.00,0.00,-0.00,0.00,-0.00,0.00,0.00,0.00,0.00,819,819,819,819
7284,0,0.00,0.00,-0.00,0.00,0.00,-0.00,0.00,0.00,0.00,0.00,-0.00,0.00,-0.00,0.00,0.00,0.00,0.00,819,819,819,819
7293,0,0.00,0.00,-0.00,0.00,0.00,-0.00,0.00,0.00,0.00,0.00,-0.00,0.00,-0.00,0.00,0.00,0.00,0.00,819,819,819,819
7302,0,0.00,0.00,-0.00,-0.00,-0.00,0.00,0.00,0.00,0.00,0.00,0.00,0.00,-0.00,0.00,0.00,0.00,0.00,819,819,819,819
7312,0,0.00,0.00,-0.00,-0.00,-0.00,0.00,0.00,0.00,0.00,0.00,0.00,0.00,-0.00,0.00,0.00,0.00,0.00,819,819,819,819
7322,0,0.00,0.00,-0.00,0.00,-0.00,0.00,0.00,0.00,0.00,0.00,-0.00,0.00,-0.00,0.00,0.00,0.00,0.00,819,819,819,819
7331,0,0.00,0.00,-0.00,0.00,-0.00,0.00,0.00,0.00,0.00,0.00,-0.00,-0.00,-0.00,0.00,0.00,0.00,0.00,819,819,819,819
7340,0,0.00,0.00,-0.00,0.00,-0.00,-0.00,0.00,0.00,0.00,0.00,-0.00,-0.00,-0.00,0.00,0.00,0.00,0.00,819,819,819,819
7350,0,0.00,0.00,-0.00,0.00,-0.00,-0.00,0.00,0.00,0.00,0.00,-0.00,-0.00,-0.00,0.00,0.00,0.00,0.00,819,819,819,819
7359,0,0.00,0.00,-0.00,-0.00,0.00,-0.00,0.00,0.00,0.00,0.00,0.00,0.00,-0.00,0.00,0.00,0.00,0.00,819,819,819,819
7368,0,0.00,0.00,-0.00,0.00,0.00,0.00,0.00,0.00,0.00,0.00,-0.00,0.00,-0.00,0.00,0.00,0.00,0.00,819,819,819,819
7376,0,0.00,0.00,-0.00,0.00,-0.00,0.00,0.00,0.00,0.00,0.00,-0.00,0.00,-0.00,0.00,0.00,0.00,0.00,819,819,819,819
7384,0,0.00,0.00,-0.00,0.00,0.00,-0.00,0.00,0.00,0.00,0.00,-0.00,0.00,-0.00,0.00,0.00,0.00,0.00,819,819,819,819
7393,0,0.00,0.00,-0.00,0.00,0.00,-0.00,0.00,0.00,0.00,0.00,-0.00,0.00,-0.00,0.00,0.00,0.00,0.00,819,819,819,819
7402,0,0.00,0.00,-0.00,0.00,0.00,-0.00,0.00,0.00,0.00,0.00,-0.00,0.00,-0.00,0.00,0.00,0.00,0.00,819,819,819,819
7412,0,0.00,0.00,-0.00,0.00,0.00,0.00,0.00,0.00,0.00,0.00,-0.00,0.00,-0.00,0.00,0.00,0.00,0.00,819,819,819,819
7422,0,0.00,0.00,-0.00,0.00,-0.00,-0.00,0.00,0.00,0.00,0.00,-0.00,0.00,-0.00,0.00,0.00,0.00,0.00,819,819,819,819
7431,0,0.00,0.00,-0.00,0.00,0.00,-0.00,0.00,0.00,0.00,0.00,-0.00,0.00,-0.00,0.00,0.00,0.00,0.00,819,819,819,819
7439,0,0.00,0.00,-0.00,0.00,0.00,0.00,0.00,0.00,0.00,0.00,-0.00,0.00,-0.00,0.00,0.00,0.00,0.00,819,819,819,819
7449,0,0.00,0.00,-0.00,0.00,-0.00,0.00,0.00,0.00,0.00,0.00,-0.00,0.00,-0.00,0.00,0.00,0.00,0.00,819,819,819,819
7457,0,0.00,0.00,-0.00,-0.00,-0.00,-0.00,0.00,0.00,0.00,0.00,0.00,0.00,-0.00,0.00,0.00,0.00,0.00,819,819,819,819
7465,0,0.00,0.00,-0.00,-0.00,-0.00,-0.00,0.00,0.00,0.00,0.00,0.00,0.00,-0.00,0.00,0.00,0.00,0.00,819,819,819,819
7473,0,0.00,0.00,-0.00,0.00,-0.00,0.00,0.00,0.00,0.00,0.00,-0.00,0.00,-0.00,0.00,0.00,0.00,0.00,819,819,819,819
7483,0,0.00,0.00,-0.00,0.00,-0.00,0.00,0.00,0.00,0.00,0.00,-0.00,0.00,-0.00,0.00,0.00,0.00,0.00,819,819,819,819
7492,0,0.00,0.00,-0.00,0.00,0.00,0.00,0.00,0.00,0.00,0.00,-0.00,0.00,-0.00,0.00,0.00,0.00,0.00,819,819,819,819
7502,0,0.00,0.00,-0.00,0.00,-0.00,0.00,0.00,0.00,0.00,0.00,-0.00,0.00,-0.00,0.00,0.00,0.00,0.00,819,819,819,819
7512,0,0.00,0.00,-0.00,0.00,0.00,-0.00,0.00,0.00,0.00,0.00,-0.00,0.00,-0.00,0.00,0.00,0.00,0.00,819,819,819,819
7522,0,0.00,0.00,-0.00,0.00,-0.00,-0.00,0.00,0.00,0.00,0.00,-0.00,-0.00,-0.00,0.00,0.00,0.00,0.00,819,819,819,819
7531,0,0.00,0.00,-0.00,-0.00,-0.00,0.00,0.00,0.00,0.00,0.00,0.00,-0.00,-0.00,0.00,0.00,0.00,0.00,819,819,819,819
7539,0,0.00,0.00,-0.00,0.00,-0.00,0.00,0.00,0.00,0.00,0.00,-0.00,0.00,-0.00,0.00,0.00,0.00,0.00,819,819,819,819
7546,0,0.00,0.00,-0.00,0.00,-0.00,0.00,0.00,0.00,0.00,0.00,-0.00,0.00,-0.00,0.00,0.00,0.00,0.00,819,819,819,819
7554,0,0.00,0.00,-0.00,-0.00,0.00,-0.00,0.00,0.00,0.00,0.00,0.00,0.00,-0.00,0.00,0.00,0.00,0.00,819,819,819,819
7566,0,0.00,0.00,-0.00,0.00,0.00,-0.00,0.00,0.00,0.00,0.00,-0.00,0.00,-0.00,0.00,0.00,0.00,0.00,819,819,819,819
7575,0,0.00,0.00,-0.00,0.00,0.00,0.00,0.00,0.00,0.00,0.00,-0.00,0.00,-0.00,0.00,0.00,0.00,0.00,819,819,819,819
7584,0,0.00,0.00,-0.00,0.00,0.00,-0.00,0.00,0.00,0.00,0.00,-0.00,0.00,-0.00,0.00,0.00,0.00,0.00,819,819,819,819
7592,0,0.00,0.00,-0.00,0.00,0.00,-0.00,0.00,0.00,0.00,0.00,-0.00,0.00,-0.00,0.00,0.00,0.00,0.00,819,819,819,819
7601,0,0.00,0.00,-0.00,0.00,-0.00,-0.00,0.00,0.00,0.00,0.00,-0.00,0.00,-0.00,0.00,0.00,0.00,0.00,819,819,819,819
7610,0,0.00,0.00,-0.00,0.00,-0.00,-0.00,0.00,0.00,0.00,0.00,-0.00,0.00,-0.00,0.00,0.00,0.00,0.00,819,819,819,819
7620,0,0.00,0.00,-0.00,0.00,-0.00,0.00,0.00,0.00,0.00,0.00,-0.00,-0.00,-0.00,0.00,0.00,0.00,0.00,819,819,819,819
7629,0,0.00,0.00,-0.00,0.00,0.00,0.00,0.00,0.00,0.00,0.00,-0.00,0.00,-0.00,0.00,0.00,0.00,0.00,819,819,819,819
7636,0,0.00,0.00,-0.00,0.00,-0.00,-0.00,0.00,0.00,0.00,0.00,-0.00,0.00,-0.00,0.00,0.00,0.00,0.00,819,819,819,819
7644,0,0.00,0.00,-0.00,0.00,-0.00,-0.00,0.00,0.00,0.00,0.00,-0.00,0.00,-0.00,0.00,0.00,0.00,0.00,819,819,819,819
7653,0,0.00,0.00,-0.00,0.00,-0.00,-0.00,0.00,0.00,0.00,0.00,-0.00,0.00,-0.00,0.00,0.00,0.00,0.00,819,819,819,819
7663,0,0.00,0.00,-0.00,0.00,-0.00,0.00,0.00,0.00,0.00,0.00,-0.00,-0.00,-0.00,0.00,0.00,0.00,0.00,819,819,819,819
7672,0,0.00,0.00,-0.00,0.00,-0.00,0.00,0.00,0.00,0.00,0.00,-0.00,-0.00,-0.00,0.00,0.00,0.00,0.00,819,819,819,819
7683,0,0.00,0.00,-0.00,0.00,-0.00,0.00,0.00,0.00,0.00,0.00,-0.00,-0.00,-0.00,0.00,0.00,0.00,0.00,819,819,819,819
7693,0,0.00,0.00,-0.00,0.00,-0.00,0.00,0.00,0.00,0.00,0.00,-0.00,0.00,-0.00,0.00,0.00,0.00,0.00,819,819,819,819
7702,0,0.00,0.00,-0.00,0.00,-0.00,0.00,0.00,0.00,0.00,0.00,-0.00,0.00,-0.00,0.00,0.00,0.00,0.00,819,819,819,819
7712,0,0.00,0.00,-0.00,0.00,-0.00,0.00,0.00,0.00,0.00,0.00,-0.00,0.00,-0.00,0.00,0.00,0.00,0.00,819,819,819,819
7721,0,0.00,0.00,-0.00,0.00,-0.00,-0.00,0.00,0.00,0.00,0.00,-0.00,0.00,-0.00,0.00,0.00,0.00,0.00,819,819,819,819
7731,0,0.00,0.00,-0.00,0.00,-0.00,0.00,0.00,0.00,0.00,0.00,-0.00,-0.00,-0.00,0.00,0.00,0.00,0.00,819,819,819,819
7738,0,0.00,0.00,-0.00,0.00,0.00,0.00,0.00,0.00,0.00,0.00,-0.00,0.00,-0.00,0.00,0.00,0.00,0.00,819,819,819,819
7746,0,0.00,0.00,-0.00,0.00,0.00,-0.00,0.00,0.00,0.00,0.00,-0.00,0.00,-0.00,0.00,0.00,0.00,0.00,819,819,819,819
7754,0,0.00,0.00,-0.00,0.00,-0.00,-0.00,0.00,0.00,0.00,0.00,-0.00,0.00,-0.00,0.00,0.00,0.00,0.00,819,819,819,819
7763,0,0.00,0.00,-0.00,0.00,-0.00,-0.00,0.00,0.00,0.00,0.00,-0.00,0.00,-0.00,0.00,0.00,0.00,0.00,819,819,819,819
7773,0,0.00,0.00,-0.00,-0.00,-0.00,-0.00,0.00,0.00,0.00,0.00,0.00,0.00,-0.00,0.00,0.00,0.00,0.00,819,819,819,819
7783,0,0.00,0.00,-0.00,-0.00,-0.00,0.00,0.00,0.00,0.00,0.00,0.00,0.00,-0.00,0.00,0.00,0.00,0.00,819,819,819,819
7790,0,0.00,0.00,-0.00,0.00,-0.00,-0.00,0.00,0.00,0.00,0.00,-0.00,0.00,-0.00,0.00,0.00,0.00,0.00,819,819,819,819
7799,0,0.00,0.00,-0.00,-0.00,0.00,0.00,0.00,0.00,0.00,0.00,0.00,0.00,-0.00,0.00,0.00,0.00,0.00,819,819,819,819
7806,0,0.00,0.00,-0.00,0.00,-0.00,0.00,0.00,0.00,0.00,0.00,-0.00,0.00,-0.00,0.00,0.00,0.00,0.00,819,819,819,819
7814,0,0.00,0.00,-0.00,0.00,-0.00,0.00,0.00,0.00,0.00,0.00,-0.00,0.00,-0.00,0.00,0.00,0.00,0.00,819,819,819,819
7823,0,0.00,0.00,-0.00,0.00,-0.00,0.00,0.00,0.00,0.00,0.00,-0.00,0.00,-0.00,0.00,0.00,0.00,0.00,819,819,819,819
7833,0,0.00,0.00,-0.00,0.00,-0.00,-0.00,0.00,0.00,0.00,0.00,-0.00,0.00,-0.00,0.00,0.00,0.00,0.00,819,819,819,819
7845,0,0.00,0.00,-0.00,0.00,0.00,-0.00,0.00,0.00,0.00,0.00,-0.00,0.00,-0.00,0.00,0.00,0.00,0.00,819,819,819,819
7855,0,0.00,0.00,-0.00,-0.00,0.00,-0.00,0.00,0.00,0.00,0.00,0.00,0.00,-0.00,0.00,0.00,0.00,0.00,819,819,819,819
7863,0,0.00,0.00,-0.00,-0.00,0.00,-0.00,0.00,0.00,0.00,0.00,0.00,0.00,-0.00,0.00,0.00,0.00,0.00,819,819,819,819
7873,0,0.00,0.00,-0.00,-0.00,0.00,-0.00,0.00,0.00,0.00,0.00,0.00,0.00,-0.00,0.00,0.00,0.00,0.00,819,819,819,819
7883,0,0.00,0.00,-0.00,0.00,-0.00,0.00,0.00,0.00,0.00,0.00,-0.00,-0.00,-0.00,0.00,0.00,0.00,0.00,819,819,819,819
7890,0,0.00,0.00,-0.00,-0.00,0.00,-0.00,0.00,0.00,0.00,0.00,0.00,0.00,-0.00,0.00,0.00,0.00,0.00,819,819,819,819
7899,0,0.00,0.00,-0.00,-0.00,0.00,0.00,0.00,0.00,0.00,0.00,0.00,0.00,-0.00,0.00,0.00,0.00,0.00,819,819,819,819
7906,0,0.00,0.00,-0.00,0.00,-0.00,0.00,0.00,0.00,0.00,0.00,-0.00,-0.00,-0.00,0.00,0.00,0.00,0.00,819,819,819,819
7914,0,0.00,0.00,-0.00,0.00,0.00,0.00,0.00,0.00,0.00,0.00,-0.00,0.00,-0.00,0.00,0.00,0.00,0.00,819,819,819,819
7924,0,0.00,0.00,-0.00,0.00,0.00,0.00,0.00,0.00,0.00,0.00,-0.00,0.00,-0.00,0.00,0.00,0.00,0.00,819,819,819,819
7933,0,0.00,0.00,-0.00,-0.00,0.00,0.00,0.00,0.00,0.00,0.00,0.00,0.00,-0.00,0.00,0.00,0.00,0.00,819,819,819,819
7942,0,0.00,0.00,-0.00,-0.00,-0.00,-0.00,0.00,0.00,0.00,0.00,0.00,-0.00,-0.00,0.00,0.00,0.00,0.00,819,819,819,819
7952,0,0.00,0.00,-0.00,-0.00,-0.00,-0.00,0.00,0.00,0.00,0.00,0.00,0.00,-0.00,0.00,0.00,0.00,0.00,819,819,819,819
7962,0,0.00,0.00,-0.00,0.00,0.00,-0.00,0.00,0.00,0.00,0.00,-0.00,0.00,-0.00,0.00,0.00,0.00,0.00,819,819,819,819
7971,0,0.00,0.00,-0.00,-0.00,0.00,0.00,0.00,0.00,0.00,0.00,0.00,0.00,-0.00,0.00,0.00,0.00,0.00,819,819,819,819
7981,0,0.00,0.00,-0.00,-0.00,-0.00,0.00,0.00,0.00,0.00,0.00,0.00,-0.00,-0.00,0.00,0.00,0.00,0.00,819,819,819,819
7988,0,0.00,0.00,-0.00,-0.00,-0.00,-0.00,0.00,0.00,0.00,0.00,0.00,-0.00,-0.00,0.00,0.00,0.00,0.00,819,819,819,819
7996,0,0.00,0.00,-0.00,-0.00,-0.00,-0.00,0.00,0.00,0.00,0.00,0.00,-0.00,-0.00,0.00,0.00,0.00,0.00,819,819,819,819
8004,0,0.00,0.00,-0.00,-0.00,0.00,0.00,0.00,0.00,0.00,0.00,0.00,0.00,-0.00,0.00,0.00,0.00,0.00,819,819,819,819
8014,0,0.00,0.00,-0.00,-0.00,0.00,0.00,0.00,0.00,0.00,0.00,0.00,0.00,-0.00,0.00,0.00,0.00,0.00,819,819,819,819
8023,0,0.00,0.00,-0.00,0.00,0.00,0.00,0.00,0.00,0.00,0.00,-0.00,0.00,-0.00,0.00,0.00,0.00,0.00,819,819,819,819
8033,0,0.00,0.00,-0.00,0.00,-0.00,-0.00,0.00,0.00,0.00,0.00,-0.00,0.00,-0.00,0.00,0.00,0.00,0.00,819,819,819,819
8042,0,0.00,0.00,-0.00,0.00,-0.00,-0.00,0.00,0.00,0.00,0.00,-0.00,0.00,-0.00,0.00,0.00,0.00,0.00,819,819,819,819
8051,0,0.00,0.00,-0.00,0.00,-0.00,-0.00,0.00,0.00,0.00,0.00,-0.00,0.00,-0.00,0.00,0.00,0.00,0.00,819,819,819,819
8061,0,0.00,0.00,-0.00,0.00,-0.00,-0.00,0.00,0.00,0.00,0.00,-0.00,0.00,-0.00,0.00,0.00,0.00,0.00,819,819,819,819
8073,0,0.00,0.00,-0.00,0.00,-0.00,-0.00,0.00,0.00,0.00,0.00,-0.00,0.00,-0.00,0.00,0.00,0.00,0.00,819,819,819,819
8083,0,0.00,0.00,-0.00,-0.00,-0.00,0.00,0.00,0.00,0.00,0.00,0.00,-0.00,-0.00,0.00,0.00,0.00,0.00,819,819,819,819
8091,0,0.00,0.00,-0.00,-0.00,-0.00,0.00,0.00,0.00,0.00,0.00,0.00,-0.00,-0.00,0.00,0.00,0.00,0.00,819,819,819,819
8099,0,0.00,0.00,-0.00,-0.00,-0.00,0.00,0.00,0.00,0.00,0.00,0.00,0.00,-0.00,0.00,0.00,0.00,0.00,819,819,819,819
8107,0,0.00,0.00,-0.00,0.00,-0.00,-0.00,0.00,0.00,0.00,0.00,-0.00,-0.00,-0.00,0.00,0.00,0.00,0.00,819,819,819,819
8115,0,0.00,0.00,-0.00,-0.00,-0.00,-0.00,0.00,0.00,0.00,0.00,0.00,-0.00,-0.00,0.00,0.00,0.00,0.00,819,819,819,819
8127,0,0.00,0.00,-0.00,-0.00,-0.00,0.00,0.00,0.00,0.00,0.00,0.00,-0.00,-0.00,0.00,0.00,0.00,0.00,819,819,819,819
8136,0,0.00,0.00,-0.00,0.00,-0.00,0.00,0.00,0.00,0.00,0.00,-0.00,0.00,-0.00,0.00,0.00,0.00,0.00,819,819,819,819
8145,0,0.00,0.00,-0.00,0.00,-0.00,-0.00,0.00,0.00,0.00,0.00,-0.00,0.00,-0.00,0.00,0.00,0.00,0.00,819,819,819,819
8154,0,0.00,0.00,-0.00,0.00,-0.00,-0.00,0.00,0.00,0.00,0.00,-0.00,0.00,-0.00,0.00,0.00,0.00,0.00,819,819,819,819
8163,0,0.00,0.00,-0.00,-0.00,-0.00,-0.00,0.00,0.00,0.00,0.00,0.00,0.00,-0.00,0.00,0.00,0.00,0.00,819,819,819,819
8173,0,0.00,0.00,-0.00,0.00,-0.00,-0.00,0.00,0.00,0.00,0.00,-0.00,0.00,-0.00,0.00,0.00,0.00,0.00,819,819,819,819
8183,0,0.00,0.00,-0.00,-0.00,-0.00,0.00,0.00,0.00,0.00,0.00,0.00,0.00,-0.00,0.00,0.00,0.00,0.00,819,819,819,819
8190,0,0.00,0.00,-0.00,0.00,-0.00,0.00,0.00,0.00,0.00,0.00,-0.00,-0.00,-0.00,0.00,0.00,0.00,0.00,819,819,819,819
8198,0,0.00,0.00,-0.00,-0.00,-0.00,0.00,0.00,0.00,0.00,0.00,0.00,-0.00,-0.00,0.00,0.00,0.00,0.00,819,819,819,819
8205,0,0.00,0.00,-0.00,0.00,0.00,0.00,0.00,0.00,0.00,0.00,-0.00,0.00,-0.00,0.00,0.00,0.00,0.00,819,819,819,819
8214,0,0.00,0.00,-0.00,0.00,0.00,0.00,0.00,0.00,0.00,0.00,-0.00,0.00,-0.00,0.00,0.00,0.00,0.00,819,819,819,819
8224,0,0.00,0.00,-0.00,-0.00,0.00,-0.00,0.00,0.00,0.00,0.00,0.00,0.00,-0.00,0.00,0.00,0.00,0.00,819,819,819,819
8235,0,0.00,0.00,-0.00,0.00,0.00,-0.00,0.00,0.00,0.00,0.00,-0.00,0.00,-0.00,0.00,0.00,0.00,0.00,819,819,819,819
8243,0,0.00,0.00,-0.00,0.00,0.00,-0.00,0.00,0.00,0.00,0.00,-0.00,0.00,-0.00,0.00,0.00,0.00,0.00,819,819,819,819
8253,0,0.00,0.00,-0.00,0.00,-0.00,-0.00,0.00,0.00,0.00,0.00,-0.00,-0.00,-0.00,0.00,0.00,0.00,0.00,819,819,819,819
8262,0,0.00,0.00,-0.00,-0.00,0.00,0.00,0.00,0.00,0.00,0.00,0.00,0.00,-0.00,0.00,0.00,0.00,0.00,819,819,819,819
8271,0,0.00,0.00,-0.00,0.00,-0.00,0.00,0.00,0.00,0.00,0.00,-0.00,0.00,-0.00,0.00,0.00,0.00,0.00,819,819,819,819
8280,0,0.00,0.00,-0.00,-0.00,0.00,0.00,0.00,0.00,0.00,0.00,0.00,0.00,-0.00,0.00,0.00,0.00,0.00,819,819,819,819
8288,0,0.00,0.00,-0.00,0.00,-0.00,-0.00,0.00,0.00,0.00,0.00,-0.00,0.00,-0.00,0.00,0.00,0.00,0.00,819,819,819,819
8295,0,0.00,0.00,-0.00,-0.00,-0.00,-0.00,0.00,0.00,0.00,0.00,0.00,0.00,-0.00,0.00,0.00,0.00,0.00,819,819,819,819
8304,0,0.00,0.00,-0.00,0.00,-0.00,-0.00,0.00,0.00,0.00,0.00,-0.00,0.00,-0.00,0.00,0.00,0.00,0.00,819,819,819,819
8314,0,0.00,0.00,-0.00,0.00,-0.00,-0.00,0.00,0.00,0.00,0.00,-0.00,0.00,-0.00,0.00,0.00,0.00,0.00,819,819,819,819
8324,0,0.00,0.00,-0.00,0.00,-0.00,0.00,0.00,0.00,0.00,0.00,-0.00,0.00,-0.00,0.00,0.00,0.00,0.00,819,819,819,819
8333,0,0.00,0.00,-0.00,0.00,-0.00,0.00,0.00,0.00,0.00,0.00,-0.00,0.00,-0.00,0.00,0.00,0.00,0.00,819,819,819,819
8341,0,0.00,0.00,-0.00,-0.00,-0.00,0.00,0.00,0.00,0.00,0.00,0.00,0.00,-0.00,0.00,0.00,0.00,0.00,819,819,819,819
8349,0,0.00,0.00,-0.00,0.00,0.00,0.00,0.00,0.00,0.00,0.00,-0.00,0.00,-0.00,0.00,0.00,0.00,0.00,819,819,819,819
8357,0,0.00,0.00,-0.00,0.00,0.00,-0.00,0.00,0.00,0.00,0.00,-0.00,0.00,-0.00,0.00,0.00,0.00,0.00,819,819,819,819
8365,0,0.00,0.00,-0.00,-0.00,0.00,0.00,0.00,0.00,0.00,0.00,0.00,0.00,-0.00,0.00,0.00,0.00,0.00,819,819,819,819
8374,0,0.00,0.00,-0.00,-0.00,0.00,0.00,0.00,0.00,0.00,0.00,0.00,0.00,-0.00,0.00,0.00,0.00,0.00,819,819,819,819
8384,0,0.00,0.00,-0.00,-0.00,-0.00,-0.00,0.00,0.00,0.00,0.00,0.00,0.00,-0.00,0.00,0.00,0.00,0.00,819,819,819,819
8396,0,0.00,0.00,-0.00,-0.00,-0.00,-0.00,0.00,0.00,0.00,0.00,0.00,-0.00,-0.00,0.00,0.00,0.00,0.00,819,819,819,819
8405,0,0.00,0.00,-0.00,0.00,-0.00,-0.00,0.00,0.00,0.00,0.00,-0.00,-0.00,-0.00,0.00,0.00,0.00,0.00,819,819,819,819
8415,0,0.00,0.00,-0.00,0.00,-0.00,-0.00,0.00,0.00,0.00,0.00,-0.00,-0.00,-0.00,0.00,0.00,0.00,0.00,819,819,819,819
8424,0,0.00,0.00,-0.00,-0.00,0.00,-0.00,0.00,0.00,0.00,0.00,0.00,0.00,-0.00,0.00,0.00,0.00,0.00,819,819,819,819
8434,0,0.00,0.00,-0.00,-0.00,-0.00,0.00,0.00,0.00,0.00,0.00,0.00,0.00,-0.00,0.00,0.00,0.00,0.00,819,819,819,819
8442,0,0.00,0.00,-0.00,0.00,0.00,0.00,0.00,0.00,0.00,0.00,-0.00,0.00,-0.00,0.00,0.00,0.00,0.00,819,819,819,819
8451,0,0.00,0.00,-0.00,-0.00,-0.00,0.00,0.00,0.00,0.00,0.00,0.00,0.00,-0.00,0.00,0.00,0.00,0.00,819,819,819,819
8458,0,0.00,0.00,-0.00,0.00,0.00,-0.00,0.00,0.00,0.00,0.00,-0.00,0.00,-0.00,0.00,0.00,0.00,0.00,819,819,819,819
8466,0,0.00,0.00,-0.00,0.00,0.00,0.00,0.00,0.00,0.00,0.00,-0.00,0.00,-0.00,0.00,0.00,0.00,0.00,819,819,819,819
8475,0,0.00,0.00,-0.00,0.00,0.00,0.00,0.00,0.00,0.00,0.00,-0.00,0.00,-0.00,0.00,0.00,0.00,0.00,819,819,819,819
8485,0,0.00,0.00,-0.00,0.00,0.00,-0.00,0.00,0.00,0.00,0.00,-0.00,0.00,-0.00,0.00,0.00,0.00,0.00,819,819,819,819
8492,0,0.00,0.00,-0.00,-0.00,0.00,0.00,0.00,0.00,0.00,0.00,0.00,0.00,-0.00,0.00,0.00,0.00,0.00,819,819,819,819
8502,0,0.00,0.00,-0.00,-0.00,0.00,0.00,0.00,0.00,0.00,0.00,0.00,0.00,-0.00,0.00,0.00,0.00,0.00,819,819,819,819
8511,0,0.00,0.00,-0.00,-0.00,0.00,-0.00,0.00,0.00,0.00,0.00,0.00,0.00,-0.00,0.00,0.00,0.00,0.00,819,819,819,819
8519,0,0.00,0.00,-0.00,-0.00,0.00,-0.00,0.00,0.00,0.00,0.00,0.00,0.00,-0.00,0.00,0.00,0.00,0.00,819,819,819,819
8526,0,0.00,0.00,-0.00,0.00,0.00,0.00,0.00,0.00,0.00,0.00,-0.00,0.00,-0.00,0.00,0.00,0.00,0.00,819,819,819,819
8535,0,0.00,0.00,-0.00,0.00,0.00,0.00,0.00,0.00,0.00,0.00,-0.00,0.00,-0.00,0.00,0.00,0.00,0.00,819,819,819,819
8545,0,0.00,0.00,-0.00,0.00,0.00,0.00,0.00,0.00,0.00,0.00,-0.00,0.00,-0.00,0.00,0.00,0.00,0.00,819,819,819,819
8554,0,0.00,0.00,-0.00,-0.00,-0.00,0.00,0.00,0.00,0.00,0.00,0.00,0.00,-0.00,0.00,0.00,0.00,0.00,819,819,819,819
8564,0,0.00,0.00,-0.00,0.00,-0.00,0.00,0.00,0.00,0.00,0.00,-0.00,0.00,-0.00,0.00,0.00,0.00,0.00,819,819,819,819
8573,0,0.00,0.00,-0.00,0.00,0.00,0.00,0.00,0.00,0.00,0.00,-0.00,0.00,-0.00,0.00,0.00,0.00,0.00,819,819,819,819
8583,0,0.00,0.00,-0.00,0.00,-0.00,-0.00,0.00,0.00,0.00,0.00,-0.00,0.00,-0.00,0.00,0.00,0.00,0.00,819,819,819,819
8590,0,0.00,0.00,-0.00,0.00,-0.00,-0.00,0.00,0.00,0.00,0.00,-0.00,0.00,-0.00,0.00,0.00,0.00,0.00,819,819,819,819
8598,0,0.00,0.00,-0.00,-0.00,-0.00,0.00,0.00,0.00,0.00,0.00,0.00,0.00,-0.00,0.00,0.00,0.00,0.00,819,819,819,819
8606,0,0.00,0.00,-0.00,0.00,-0.00,-0.00,0.00,0.00,0.00,0.00,-0.00,0.00,-0.00,0.00,0.00,0.00,0.00,819,819,819,819
8615,0,0.00,0.00,-0.00,0.00,0.00,0.00,0.00,0.00,0.00,0.00,-0.00,0.00,-0.00,0.00,0.00,0.00,0.00,819,819,819,819
8625,0,0.00,0.00,-0.00,0.00,0.00,0.00,0.00,0.00,0.00,0.00,-0.00,0.00,-0.00,0.00,0.00,0.00,0.00,819,819,819,819
8635,0,0.00,0.00,-0.00,0.00,0.00,-0.00,0.00,0.00,0.00,0.00,-0.00,0.00,-0.00,0.00,0.00,0.00,0.00,819,819,819,819
8645,0,0.00,0.00,-0.00,0.00,0.00,0.00,0.00,0.00,0.00,0.00,-0.00,0.00,-0.00,0.00,0.00,0.00,0.00,819,819,819,819
8655,0,0.00,0.00,-0.00,0.00,0.00,0.00,0.00,0.00,0.00,0.00,-0.00,0.00,-0.00,0.00,0.00,0.00,0.00,819,819,819,819
8665,0,0.00,0.00,-0.00,0.00,0.00,0.00,0.00,0.00,0.00,0.00,-0.00,0.00,-0.00,0.00,0.00,0.00,0.00,819,819,819,819
8678,0,0.00,0.00,-0.00,0.00,0.00,-0.00,0.00,0.00,0.00,0.00,-0.00,0.00,-0.00,0.00,0.00,0.00,0.00,819,819,819,819
8688,0,0.00,0.00,-0.00,0.00,-0.00,-0.00,0.00,0.00,0.00,0.00,-0.00,-0.00,-0.00,0.00,0.00,0.00,0.00,819,819,819,819
8696,0,0.00,0.00,-0.00,-0.00,0.00,0.00,0.00,0.00,0.00,0.00,0.00,0.00,-0.00,0.00,0.00,0.00,0.00,819,819,819,819
8705,0,0.00,0.00,-0.00,-0.00,0.00,0.00,0.00,0.00,0.00,0.00,0.00,0.00,-0.00,0.00,0.00,0.00,0.00,819,819,819,819
8715,0,0.00,0.00,-0.00,-0.00,0.00,0.00,0.00,0.00,0.00,0.00,0.00,0.00,-0.00,0.00,0.00,0.00,0.00,819,819,819,819
8725,0,0.00,0.00,-0.00,-0.00,-0.00,-0.00,0.00,0.00,0.00,0.00,0.00,-0.00,-0.00,0.00,0.00,0.00,0.00,819,819,819,819
8736,0,0.00,0.00,-0.00,-0.00,0.00,0.00,0.00,0.00,0.00,0.00,0.00,0.00,-0.00,0.00,0.00,0.00,0.00,819,819,819,819
8745,0,0.00,0.00,-0.00,-0.00,0.00,0.00,0.00,0.00,0.00,0.00,0.00,0.00,-0.00,0.00,0.00,0.00,0.00,819,819,819,819
8755,0,0.00,0.00,-0.00,0.00,0.00,-0.00,0.00,0.00,0.00,0.00,-0.00,0.00,-0.00,0.00,0.00,0.00,0.00,819,819,819,819
8765,0,0.00,0.00,-0.00,-0.00,-0.00,-0.00,0.00,0.00,0.00,0.00,0.00,-0.00,-0.00,0.00,0.00,0.00,0.00,819,819,819,819
8776,0,0.00,0.00,-0.00,-0.00,0.00,-0.00,0.00,0.00,0.00,0.00,0.00,0.00,-0.00,0.00,0.00,0.00,0.00,819,819,819,819
8785,0,0.00,0.00,-0.00,-0.00,0.00,-0.00,0.00,0.00,0.00,0.00,0.00,0.00,-0.00,0.00,0.00,0.00,0.00,819,819,819,819
8794,0,0.00,0.00,-0.00,-0.00,-0.00,-0.00,0.00,0.00,0.00,0.00,0.00,0.00,-0.00,0.00,0.00,0.00,0.00,819,819,819,819
8804,0,0.00,0.00,-0.00,-0.00,-0.00,-0.00,0.00,0.00,0.00,0.00,0.00,0.00,-0.00,0.00,0.00,0.00,0.00,819,819,819,819
8814,0,0.00,0.00,-0.00,0.00,-0.00,0.00,0.00,0.00,0.00,0.00,-0.00,0.00,-0.00,0.00,0.00,0.00,0.00,819,819,819,819
8823,0,0.00,0.00,-0.00,-0.00,-0.00,-0.00,0.00,0.00,0.00,0.00,0.00,0.00,-0.00,0.00,0.00,0.00,0.00,819,819,819,819
8833,0,0.00,0.00,-0.00,-0.00,0.00,-0.00,0.00,0.00,0.00,0.00,0.00,0.00,-0.00,0.00,0.00,0.00,0.00,819,819,819,819
8841,0,0.00,0.00,-0.00,0.00,-0.00,0.00,0.00,0.00,0.00,0.00,-0.00,0.00,-0.00,0.00,0.00,0.00,0.00,819,819,819,819
8848,0,0.00,0.00,-0.00,0.00,0.00,0.00,0.00,0.00,0.00,0.00,-0.00,0.00,-0.00,0.00,0.00,0.00,0.00,819,819,819,819
8856,0,0.00,0.00,-0.00,-0.00,0.00,0.00,0.00,0.00,0.00,0.00,0.00,0.00,-0.00,0.00,0.00,0.00,0.00,819,819,819,819
8865,0,0.00,0.00,-0.00,-0.00,0.00,0.00,0.00,0.00,0.00,0.00,0.00,0.00,-0.00,0.00,0.00,0.00,0.00,819,819,819,819
8875,0,0.00,0.00,-0.00,0.00,-0.00,-0.00,0.00,0.00,0.00,0.00,-0.00,-0.00,-0.00,0.00,0.00,0.00,0.00,819,819,819,819
8884,0,0.00,0.00,-0.00,-0.00,-0.00,-0.00,0.00,0.00,0.00,0.00,0.00,0.00,-0.00,0.00,0.00,0.00,0.00,819,819,819,819
8895,0,0.00,0.00,-0.00,0.00,-0.00,0.00,0.00,0.00,0.00,0.00,-0.00,0.00,-0.00,0.00,0.00,0.00,0.00,819,819,819,819
8905,0,0.00,0.00,-0.00,0.00,-0.00,-0.00,0.00,0.00,0.00,0.00,-0.00,0.00,-0.00,0.00,0.00,0.00,0.00,819,819,819,819
8914,0,0.00,0.00,-0.00,0.00,0.00,0.00,0.00,0.00,0.00,0.00,-0.00,0.00,-0.00,0.00,0.00,0.00,0.00,819,819,819,819
8923,0,0.00,0.00,-0.00,0.00,-0.00,0.00,0.00,0.00,0.00,0.00,-0.00,0.00,-0.00,0.00,0.00,0.00,0.00,819,819,819,819
8932,0,0.00,0.00,-0.00,0.00,-0.00,0.00,0.00,0.00,0.00,0.00,-0.00,0.00,-0.00,0.00,0.00,0.00,0.00,819,819,819,819
8940,0,0.00,0.00,-0.00,-0.00,-0.00,0.00,0.00,0.00,0.00,0.00,0.00,0.00,-0.00,0.00,0.00,0.00,0.00,819,819,819,819
8947,0,0.00,0.00,-0.00,0.00,-0.00,-0.00,0.00,0.00,0.00,0.00,-0.00,0.00,-0.00,0.00,0.00,0.00,0.00,819,819,819,819
8956,0,0.00,0.00,-0.00,-0.00,-0.00,0.00,0.00,0.00,0.00,0.00,0.00,0.00,-0.00,0.00,0.00,0.00,0.00,819,819,819,819
8967,0,0.00,0.00,-0.00,-0.00,-0.00,-0.00,0.00,0.00,0.00,0.00,0.00,0.00,-0.00,0.00,0.00,0.00,0.00,819,819,819,819
8977,0,0.00,0.00,-0.00,-0.00,-0.00,-0.00,0.00,0.00,0.00,0.00,0.00,0.00,-0.00,0.00,0.00,0.00,0.00,819,819,819,819
8986,0,0.00,0.00,-0.00,-0.00,-0.00,0.00,0.00,0.00,0.00,0.00,0.00,0.00,-0.00,0.00,0.00,0.00,0.00,819,819,819,819
8995,0,0.00,0.00,-0.00,-0.00,-0.00,0.00,0.00,0.00,0.00,0.00,0.00,0.00,-0.00,0.00,0.00,0.00,0.00,819,819,819,819
9005,0,0.00,0.00,-0.00,0.00,0.00,0.00,0.00,0.00,0.00,0.00,-0.00,0.00,-0.00,0.00,0.00,0.00,0.00,819,819,819,819
9014,0,0.00,0.00,-0.00,-0.00,0.00,-0.00,0.00,0.00,0.00,0.00,0.00,0.00,-0.00,0.00,0.00,0.00,0.00,819,819,819,819
9024,0,0.00,0.00,-0.00,-0.00,0.00,0.00,0.00,0.00,0.00,0.00,0.00,0.00,-0.00,0.00,0.00,0.00,0.00,819,819,819,819
9034,0,0.00,0.00,-0.00,0.00,0.00,-0.00,0.00,0.00,0.00,0.00,-0.00,0.00,-0.00,0.00,0.00,0.00,0.00,819,819,819,819
9041,0,0.00,0.00,-0.00,-0.00,-0.00,-0.00,0.00,0.00,0.00,0.00,0.00,-0.00,-0.00,0.00,0.00,0.00,0.00,819,819,819,819
9049,0,0.00,0.00,-0.00,-0.00,-0.00,-0.00,0.00,0.00,0.00,0.00,0.00,-0.00,-0.00,0.00,0.00,0.00,0.00,819,819,819,819
9057,0,0.00,0.00,-0.00,0.00,-0.00,-0.00,0.00,0.00,0.00,0.00,-0.00,-0.00,-0.00,0.00,0.00,0.00,0.00,819,819,819,819
9066,0,0.00,0.00,-0.00,0.00,-0.00,-0.00,0.00,0.00,0.00,0.00,-0.00,-0.00,-0.00,0.00,0.00,0.00,0.00,819,819,819,819
9075,0,0.00,0.00,-0.00,0.00,-0.00,-0.00,0.00,0.00,0.00,0.00,-0.00,0.00,-0.00,0.00,0.00,0.00,0.00,819,819,819,819
9085,0,0.00,0.00,-0.00,0.00,-0.00,-0.00,0.00,0.00,0.00,0.00,-0.00,0.00,-0.00,0.00,0.00,0.00,0.00,819,819,819,819
9092,0,0.00,0.00,-0.00,-0.00,0.00,-0.00,0.00,0.00,0.00,0.00,0.00,0.00,-0.00,0.00,0.00,0.00,0.00,819,819,819,819
9101,0,0.00,0.00,-0.00,0.00,-0.00,0.00,0.00,0.00,0.00,0.00,-0.00,0.00,-0.00,0.00,0.00,0.00,0.00,819,819,819,819
9108,0,0.00,0.00,-0.00,0.00,-0.00,-0.00,0.00,0.00,0.00,0.00,-0.00,0.00,-0.00,0.00,0.00,0.00,0.00,819,819,819,819
9116,0,0.00,0.00,-0.00,-0.00,0.00,-0.00,0.00,0.00,0.00,0.00,0.00,0.00,-0.00,0.00,0.00,0.00,0.00,819,819,819,819
9126,0,0.00,0.00,-0.00,-0.00,0.00,-0.00,0.00,0.00,0.00,0.00,0.00,0.00,-0.00,0.00,0.00,0.00,0.00,819,819,819,819
9136,0,0.00,0.00,-0.00,-0.00,-0.00,-0.00,0.05,0.00,0.00,0.00,0.00,0.00,-0.00,0.05,0.05,0.05,0.05,857,857,874,857
9144,0,0.00,0.00,-0.00,0.00,0.00,-0.00,0.05,0.00,0.00,0.00,-0.00,0.00,-0.00,0.05,0.05,0.05,0.05,857,857,874,857
9154,0,0.00,0.00,-0.00,-0.00,-0.00,-0.00,0.05,0.00,0.00,0.00,0.00,-0.00,-0.00,0.05,0.05,0.05,0.05,862,862,879,862
9164,0,0.00,0.00,-0.00,0.00,-0.00,0.00,0.05,0.00,0.00,0.00,-0.00,-0.00,-0.00,0.05,0.05,0.05,0.05,862,862,879,862
9176,0,0.00,0.00,-0.00,0.00,-0.00,0.00,0.05,0.00,0.00,0.00,-0.00,-0.00,-0.00,0.05,0.05,0.05,0.05,862,862,879,862
9185,0,0.00,0.00,-0.00,0.00,-0.00,-0.00,0.05,0.00,0.00,0.00,-0.00,0.00,-0.00,0.05,0.05,0.05,0.05,862,862,879,862
9193,0,0.00,0.00,-0.00,-0.00,-0.00,-0.00,0.05,0.00,0.00,0.00,0.00,-0.00,-0.00,0.05,0.05,0.05,0.05,862,862,879,862
9201,0,0.00,0.00,-0.00,0.00,-0.00,-0.00,0.05,0.00,0.00,0.00,-0.00,0.00,-0.00,0.05,0.05,0.05,0.05,862,862,879,862
9209,0,0.00,0.00,-0.00,0.00,0.00,-0.00,0.05,0.00,0.00,0.00,-0.00,0.00,-0.00,0.05,0.05,0.05,0.05,862,862,879,862
9217,0,0.00,0.00,-0.00,-0.00,-0.00,0.00,0.05,0.00,0.00,0.00,0.00,0.00,-0.00,0.05,0.05,0.05,0.05,862,862,879,862
9226,0,0.00,0.00,-0.00,-0.00,-0.00,0.00,0.05,0.00,0.00,0.00,0.00,0.00,-0.00,0.05,0.05,0.05,0.05,862,862,879,862
9236,0,0.00,0.00,-0.00,-0.00,-0.00,0.00,0.05,0.00,0.00,0.00,0.00,0.00,-0.00,0.05,0.05,0.05,0.05,862,862,879,862
9248,0,0.00,0.00,-0.00,-0.00,-0.00,-0.00,0.05,0.00,0.00,0.00,0.00,0.00,-0.00,0.05,0.05,0.05,0.05,862,862,879,862
9257,0,0.00,0.00,-0.00,0.00,-0.00,0.00,0.07,0.00,0.00,0.00,-0.00,0.00,-0.00,0.07,0.07,0.07,0.07,876,876,893,876
9266,0,0.00,0.00,-0.00,0.00,-0.00,0.00,0.07,0.00,0.00,0.00,-0.00,0.00,-0.00,0.07,0.07,0.07,0.07,879,879,896,879
9276,0,0.00,0.00,-0.00,0.00,-0.00,0.00,0.08,0.00,0.00,0.00,-0.00,0.00,-0.00,0.08,0.08,0.08,0.08,883,882,899,882
9286,0,0.00,0.00,-0.00,0.00,0.00,0.00,0.08,0.00,0.00,0.00,-0.00,0.00,-0.00,0.08,0.08,0.08,0.08,884,884,901,884
9295,0,0.00,0.00,-0.00,0.00,0.00,0.00,0.08,0.00,0.00,0.00,-0.00,0.00,-0.00,0.08,0.08,0.08,0.08,884,884,901,884
9304,0,0.00,0.00,-0.00,0.00,0.00,-0.00,0.09,0.00,0.00,0.00,-0.00,0.00,-0.00,0.09,0.09,0.09,0.09,889,889,906,889
9314,0,0.00,0.00,-0.00,0.00,-0.00,0.00,0.09,0.00,0.00,0.00,-0.00,0.00,-0.00,0.09,0.09,0.09,0.09,893,892,909,892
9324,0,0.00,0.00,-0.00,0.00,-0.00,0.00,0.09,0.00,0.00,0.00,-0.00,0.00,-0.00,0.09,0.09,0.09,0.09,895,895,911,895
9334,0,0.00,0.00,-0.00,0.00,0.00,0.00,0.09,0.00,0.00,0.00,-0.00,0.00,-0.00,0.09,0.09,0.09,0.09,895,895,911,895
9342,0,0.00,0.00,-0.00,-0.00,-0.00,0.00,0.10,0.00,0.00,0.00,0.00,0.00,-0.00,0.10,0.10,0.10,0.10,904,904,921,903
9349,0,0.00,0.00,-0.00,-0.00,0.00,0.00,0.11,0.00,0.00,0.00,0.00,0.00,-0.00,0.11,0.11,0.11,0.11,906,906,923,906
9357,0,0.00,0.00,-0.00,0.00,-0.00,0.00,0.11,0.00,0.00,0.00,-0.00,0.00,-0.00,0.11,0.11,0.11,0.11,909,909,925,909
9367,0,0.00,0.00,-0.00,0.00,-0.00,0.00,0.11,0.00,0.00,0.00,-0.00,0.00,-0.00,0.11,0.11,0.11,0.11,911,911,928,911
9376,0,0.00,0.00,-0.00,0.00,-0.00,0.00,0.12,0.00,0.00,0.00,-0.00,0.00,-0.00,0.11,0.12,0.12,0.11,913,913,929,913
9386,0,0.00,0.00,-0.00,0.00,-0.00,0.00,0.12,0.00,0.00,0.00,-0.00,0.00,-0.00,0.11,0.12,0.12,0.11,913,913,929,913
9394,0,0.00,0.00,-0.00,-0.00,0.00,0.00,0.12,0.00,0.00,0.00,0.00,0.00,-0.00,0.11,0.12,0.12,0.11,913,913,929,913
9403,0,0.00,0.00,-0.00,-0.00,0.00,0.00,0.12,0.00,0.00,0.00,0.00,0.00,-0.00,0.12,0.12,0.12,0.12,916,916,933,916
9412,0,0.00,0.00,-0.00,-0.00,-0.00,0.00,0.12,0.00,0.00,0.00,0.00,0.00,-0.00,0.12,0.12,0.12,0.12,916,916,933,916
9420,0,0.00,0.00,-0.00,0.00,0.00,-0.00,0.12,0.00,0.00,0.00,-0.00,0.00,-0.00,0.12,0.12,0.12,0.12,916,916,933,916
9428,0,0.00,0.00,-0.00,0.00,0.00,0.00,0.12,0.00,0.00,0.00,-0.00,0.00,-0.00,0.12,0.12,0.12,0.12,916,916,933,916
9437,0,0.00,0.00,-0.00,-0.00,-0.00,0.00,0.12,0.00,0.00,0.00,0.00,0.00,-0.00,0.12,0.12,0.12,0.12,916,916,933,916
9447,0,0.00,0.00,-0.00,-0.00,-0.00,0.00,0.12,0.00,0.00,0.00,0.00,0.00,-0.00,0.12,0.12,0.12,0.12,916,916,933,916
9456,0,0.00,0.00,-0.00,-0.00,0.00,-0.00,0.12,0.00,0.00,0.00,0.00,0.00,-0.00,0.12,0.12,0.12,0.12,916,916,933,916
9466,0,0.00,0.00,-0.00,0.00,-0.00,0.00,0.12,0.00,0.00,0.00,-0.00,0.00,-0.00,0.12,0.12,0.12,0.12,916,916,933,916
9476,0,0.00,0.00,-0.00,0.00,0.00,-0.00,0.12,0.00,0.00,0.00,-0.00,0.00,-0.00,0.12,0.12,0.12,0.12,917,917,934,916
9486,0,0.00,0.00,-0.00,0.00,0.00,-0.00,0.12,0.00,0.00,0.00,-0.00,0.00,-0.00,0.12,0.12,0.12,0.12,917,917,934,916
9494,0,0.00,0.00,-0.00,0.00,-0.00,0.00,0.12,0.00,0.00,0.00,-0.00,0.00,-0.00,0.12,0.12,0.12,0.12,917,917,934,916
9503,0,0.00,0.00,-0.00,-0.00,-0.00,0.00,0.12,0.00,0.00,0.00,0.00,0.00,-0.00,0.12,0.12,0.12,0.12,917,917,934,916
9510,0,0.00,0.00,-0.00,-0.00,-0.00,-0.00,0.12,0.00,0.00,0.00,0.00,0.00,-0.00,0.12,0.12,0.12,0.12,917,917,934,916
9518,0,0.00,0.00,-0.00,-0.00,-0.00,-0.00,0.12,0.00,0.00,0.00,0.00,0.00,-0.00,0.12,0.12,0.12,0.12,917,917,934,917
9530,0,0.00,0.00,-0.00,0.00,0.00,-0.00,0.12,0.00,0.00,0.00,-0.00,0.00,-0.00,0.12,0.12,0.12,0.12,917,917,934,916
9539,0,0.00,0.00,-0.00,0.00,0.00,-0.00,0.12,0.00,0.00,0.00,-0.00,0.00,-0.00,0.12,0.12,0.12,0.12,917,917,934,916
9550,0,0.00,0.00,-0.00,-0.00,-0.00,-0.00,0.12,0.00,0.00,0.00,0.00,0.00,-0.00,0.12,0.12,0.12,0.12,917,917,934,916
9558,0,0.00,0.00,-0.00,0.00,0.00,-0.00,0.12,0.00,0.00,0.00,-0.00,0.00,-0.00,0.12,0.12,0.12,0.12,918,918,935,917
9567,0,0.00,0.00,-0.00,0.00,0.00,-0.00,0.12,0.00,0.00,0.00,-0.00,0.00,-0.00,0.12,0.12,0.12,0.12,918,918,935,917
9576,0,0.00,0.00,-0.00,0.00,-0.00,-0.00,0.12,0.00,0.00,0.00,-0.00,0.00,-0.00,0.12,0.12,0.12,0.12,918,918,935,917
9586,0,0.00,0.00,-0.00,0.00,0.00,0.00,0.12,0.00,0.00,0.00,-0.00,0.00,-0.00,0.12,0.12,0.12,0.12,918,918,935,917
9593,0,0.00,0.00,-0.00,0.00,0.00,0.00,0.12,0.00,0.00,0.00,-0.00,0.00,-0.00,0.12,0.12,0.12,0.12,918,918,935,917
9601,0,0.00,0.00,-0.00,-0.00,0.00,-0.00,0.12,0.00,0.00,0.00,0.00,0.00,-0.00,0.12,0.12,0.12,0.12,918,918,935,917
9608,0,0.00,0.00,-0.00,-0.00,-0.00,-0.00,0.12,0.00,0.00,0.00,0.00,0.00,-0.00,0.12,0.12,0.12,0.12,918,918,935,917
9617,0,0.00,0.00,-0.00,-0.00,-0.00,-0.00,0.12,0.00,0.00,0.00,0.00,0.00,-0.00,0.12,0.12,0.12,0.12,918,918,935,917
9627,0,0.00,0.00,-0.00,-0.00,-0.00,-0.00,0.12,0.00,0.00,0.00,0.00,0.00,-0.00,0.12,0.12,0.12,0.12,918,918,935,917
9636,0,0.00,-0.00,-0.00,-0.00,-0.00,-0.00,0.12,0.00,0.00,0.00,0.00,0.00,-0.00,0.13,0.12,0.13,0.12,921,921,938,920
9646,0,0.00,-0.00,-0.00,-0.00,-0.00,-0.00,0.12,0.00,0.00,0.00,0.00,0.00,-0.00,0.13,0.12,0.13,0.12,921,921,938,920
9655,0,0.00,-0.00,-0.00,0.00,0.00,-0.00,0.13,0.00,0.00,0.00,-0.00,0.00,-0.00,0.13,0.13,0.13,0.13,926,926,943,925
9665,0,0.00,-0.00,-0.00,-0.00,0.00,-0.00,0.13,0.00,0.00,0.00,0.00,0.00,-0.00,0.13,0.13,0.13,0.13,926,926,943,925
9675,0,0.00,-0.00,-0.00,0.00,0.00,0.00,0.14,0.00,0.00,0.00,-0.00,0.00,-0.00,0.14,0.14,0.14,0.14,933,932,950,931
9684,0,0.00,0.00,-0.00,-0.00,-0.00,-0.00,0.14,0.00,0.00,0.00,0.00,0.00,-0.00,0.14,0.14,0.14,0.14,933,933,950,933
9691,0,0.00,-0.00,-0.00,-0.00,0.00,-0.00,0.14,0.00,0.00,0.00,0.00,0.00,-0.00,0.14,0.14,0.14,0.14,934,933,951,932
9699,0,0.00,-0.00,-0.00,-0.00,-0.00,-0.00,0.14,0.00,0.00,0.00,0.00,0.00,-0.00,0.14,0.14,0.14,0.14,934,933,951,932
9708,0,0.00,-0.00,-0.00,-0.00,-0.00,0.00,0.14,0.00,0.00,0.00,0.00,0.00,-0.00,0.14,0.14,0.14,0.14,934,933,951,932
9717,0,0.00,-0.00,-0.00,-0.00,-0.00,0.00,0.14,0.00,0.00,0.00,0.00,0.00,-0.00,0.14,0.14,0.14,0.14,934,933,951,932
9727,0,0.00,-0.00,-0.00,-0.00,-0.00,0.00,0.14,0.00,0.00,0.00,0.00,0.00,-0.00,0.14,0.14,0.14,0.14,934,933,951,932
9736,0,0.00,-0.00,-0.00,-0.00,0.00,0.00,0.14,0.00,0.00,0.00,0.00,0.00,-0.00,0.14,0.14,0.14,0.14,936,935,954,935
9744,0,0.00,-0.00,-0.00,-0.00,0.00,-0.00,0.14,0.00,0.00,0.00,0.00,0.00,-0.00,0.14,0.14,0.14,0.14,935,935,952,934
9752,0,0.00,0.00,-0.00,-0.00,0.00,-0.00,0.14,0.00,0.00,0.00,0.00,0.00,-0.00,0.14,0.14,0.14,0.14,935,935,952,934
9760,0,0.00,-0.00,-0.00,-0.00,-0.00,-0.00,0.14,0.00,0.00,0.00,0.00,0.00,-0.00,0.14,0.14,0.14,0.14,935,934,953,934
9768,0,0.00,-0.00,-0.00,-0.00,-0.00,-0.00,0.14,0.00,0.00,0.00,0.00,0.00,-0.00,0.14,0.14,0.14,0.14,935,934,953,934
9777,0,0.00,-0.00,-0.00,-0.00,-0.00,-0.00,0.14,0.00,0.00,0.00,0.00,0.00,-0.00,0.14,0.14,0.14,0.14,935,934,953,934
9787,0,0.00,-0.00,-0.00,0.00,-0.00,-0.00,0.14,0.00,0.00,0.00,0.00,0.00,-0.00,0.14,0.14,0.14,0.14,935,934,953,934
9801,0,0.00,-0.00,-0.00,-0.00,0.00,0.00,0.14,0.00,0.00,0.00,0.00,0.00,-0.00,0.14,0.14,0.14,0.14,935,934,953,934
9810,0,0.00,-0.00,-0.00,-0.00,0.00,0.00,0.14,0.00,0.00,0.00,0.00,0.00,-0.00,0.14,0.14,0.14,0.14,935,934,953,934
9818,0,0.00,-0.00,-0.00,-0.00,-0.00,0.00,0.14,0.00,0.00,0.00,0.00,0.00,-0.00,0.14,0.14,0.15,0.14,937,936,954,935
9828,0,0.00,-0.00,-0.00,-0.00,-0.00,-0.00,0.14,0.00,0.00,0.00,0.00,0.00,-0.00,0.14,0.14,0.15,0.14,937,936,955,935
9837,0,0.00,-0.00,-0.00,-0.00,-0.00,-0.00,0.14,0.00,0.00,0.00,0.00,0.00,-0.00,0.14,0.14,0.15,0.14,937,936,955,935
9848,0,0.00,-0.00,-0.00,0.00,-0.00,0.00,0.14,0.00,0.00,0.00,0.00,0.00,-0.00,0.14,0.14,0.15,0.14,937,936,955,935
9857,0,0.00,-0.00,-0.00,0.00,-0.00,0.00,0.14,0.00,0.00,0.00,0.00,0.00,-0.00,0.14,0.14,0.15,0.14,937,936,955,935
9868,0,0.00,-0.00,-0.00,0.00,0.00,-0.00,0.14,0.00,0.00,0.00,0.00,0.00,-0.00,0.14,0.14,0.15,0.14,937,936,955,935
9878,0,0.00,-0.00,-0.00,0.00,0.00,-0.00,0.14,0.00,0.00,0.00,0.00,0.00,-0.00,0.14,0.14,0.14,0.14,936,935,954,935
9887,0,0.00,-0.00,-0.00,0.00,0.00,-0.00,0.14,0.00,0.00,0.00,0.00,0.00,-0.00,0.14,0.14,0.14,0.14,936,935,954,935
9898,0,0.00,-0.00,-0.00,0.00,-0.00,0.00,0.14,0.00,0.00,0.00,0.00,0.00,-0.00,0.14,0.14,0.14,0.14,936,935,954,935
9907,0,0.00,-0.00,-0.00,0.00,-0.00,0.00,0.14,0.00,0.00,0.00,0.00,0.00,-0.00,0.14,0.14,0.14,0.14,936,935,954,935
9917,0,0.00,-0.00,-0.00,-0.00,-0.00,-0.00,0.14,0.00,0.00,0.00,0.00,0.00,-0.00,0.14,0.14,0.15,0.14,936,935,954,935
9927,0,0.00,-0.00,-0.00,0.00,-0.00,0.00,0.14,0.00,0.00,0.00,0.00,0.00,-0.00,0.14,0.14,0.15,0.14,936,935,954,935
9937,0,0.00,-0.00,-0.00,-0.00,-0.00,0.00,0.14,0.00,0.00,0.00,0.00,0.00,-0.00,0.14,0.14,0.15,0.14,936,935,954,935
9944,0,0.00,-0.00,-0.00,0.00,0.00,0.00,0.14,0.00,0.00,0.00,0.00,0.00,-0.00,0.14,0.14,0.15,0.14,937,936,954,936
9953,0,0.00,-0.00,-0.00,-0.00,-0.00,0.00,0.14,0.00,0.00,0.00,0.00,0.00,-0.00,0.14,0.14,0.15,0.14,937,936,954,936
9961,0,0.00,-0.00,-0.00,0.00,-0.00,-0.00,0.14,0.00,0.00,0.00,0.00,0.00,-0.00,0.14,0.14,0.15,0.14,937,936,954,936
9969,0,0.00,-0.00,-0.00,0.00,-0.00,-0.00,0.14,0.00,0.00,0.00,0.00,0.00,-0.00,0.14,0.14,0.15,0.14,937,936,954,936
9978,0,0.00,-0.00,-0.00,-0.00,-0.00,-0.00,0.14,0.00,0.00,0.00,0.00,0.00,-0.00,0.14,0.14,0.15,0.14,937,936,954,936
9988,0,0.00,-0.00,-0.00,-0.00,-0.00,-0.00,0.14,0.00,0.00,0.00,0.00,0.00,-0.00,0.14,0.14,0.15,0.14,937,936,954,936
9996,0,0.00,-0.00,-0.00,-0.00,0.00,0.00,0.14,0.00,0.00,0.00,0.00,0.00,-0.00,0.14,0.14,0.15,0.14,937,936,954,936
10006,0,0.00,-0.00,-0.00,-0.00,-0.00,0.00,0.14,0.00,0.00,0.00,0.00,0.00,-0.00,0.14,0.14,0.15,0.14,937,936,955,935
10015,0,0.00,-0.00,-0.00,-0.00,0.00,0.00,0.14,0.00,0.00,0.00,0.00,0.00,-0.00,0.14,0.14,0.15,0.14,937,936,955,935
10025,0,0.00,-0.00,-0.00,0.00,-0.00,0.00,0.14,0.00,0.00,0.00,0.00,0.00,-0.00,0.14,0.14,0.15,0.14,937,936,955,935
10035,0,0.00,-0.00,-0.00,-0.00,-0.00,0.00,0.14,0.00,0.00,0.00,0.00,0.00,-0.00,0.14,0.14,0.15,0.14,937,936,955,935
10042,0,0.00,-0.00,-0.00,0.00,0.00,0.00,0.14,0.00,0.00,0.00,0.00,0.00,-0.00,0.14,0.14,0.15,0.14,937,936,955,935
10050,0,0.00,-0.00,-0.00,-0.00,0.00,-0.00,0.14,0.00,0.00,0.00,0.00,0.00,-0.00,0.14,0.14,0.15,0.14,937,936,955,935
10059,0,0.00,-0.00,-0.00,0.00,-0.00,0.00,0.14,0.00,0.00,0.00,0.00,0.00,-0.00,0.15,0.14,0.15,0.14,938,937,956,936
10068,0,0.00,-0.00,-0.00,0.00,-0.00,0.00,0.14,0.00,0.00,0.00,0.00,0.00,-0.00,0.15,0.14,0.15,0.14,938,937,956,936
10078,0,0.00,-0.00,-0.00,-0.00,-0.00,-0.00,0.14,0.00,0.00,0.00,0.00,0.00,-0.00,0.15,0.14,0.15,0.14,938,936,956,936
10090,0,0.00,-0.00,-0.00,0.00,-0.00,0.00,0.14,0.00,0.00,0.00,0.00,0.00,-0.00,0.15,0.14,0.15,0.14,938,936,956,936
10099,0,0.00,-0.00,-0.00,-0.00,-0.00,-0.00,0.15,0.00,0.00,0.00,0.00,0.00,-0.00,0.15,0.14,0.15,0.14,939,937,957,937
10108,0,0.00,-0.00,-0.00,-0.00,0.00,-0.00,0.15,0.00,0.00,0.00,0.00,0.00,-0.00,0.15,0.14,0.15,0.14,939,937,957,937
10118,0,0.00,-0.00,-0.00,-0.00,0.00,-0.00,0.15,0.00,0.00,0.00,0.00,0.00,-0.00,0.15,0.14,0.15,0.14,939,937,957,937
10128,0,0.00,-0.00,-0.00,0.00,0.00,-0.00,0.15,0.00,0.00,0.00,0.00,0.00,-0.00,0.15,0.14,0.15,0.14,938,937,957,937
10138,0,0.00,-0.00,-0.00,0.00,0.00,-0.00,0.15,0.00,0.00,0.00,0.00,0.00,-0.00,0.15,0.15,0.15,0.15,944,942,962,942
10147,0,0.00,-0.00,-0.00,0.00,-0.00,0.00,0.15,0.00,0.00,0.00,0.00,0.00,-0.00,0.15,0.15,0.15,0.15,943,942,962,942
10157,0,0.00,-0.00,-0.00,0.00,-0.00,0.00,0.15,0.00,0.00,0.00,0.00,0.00,-0.00,0.15,0.15,0.15,0.15,943,942,962,942
10167,0,0.00,-0.00,-0.00,-0.00,-0.00,0.00,0.15,0.00,0.00,0.00,0.00,0.00,-0.00,0.15,0.15,0.15,0.15,943,942,962,942
10178,0,0.00,-0.00,-0.00,-0.00,-0.00,0.00,0.16,0.00,0.00,0.00,0.00,0.00,-0.00,0.16,0.16,0.16,0.16,951,949,969,949
10188,0,0.00,-0.00,-0.00,-0.00,-0.00,0.00,0.16,0.00,0.00,0.00,0.00,0.00,-0.00,0.16,0.16,0.16,0.16,951,949,969,949
10195,0,0.00,-0.00,-0.00,-0.00,-0.00,0.00,0.16,0.00,0.00,0.00,0.00,0.00,-0.00,0.16,0.16,0.16,0.16,951,949,970,949
10205,0,0.00,-0.00,-0.00,-0.00,-0.00,0.00,0.17,0.00,0.00,0.00,0.00,0.00,-0.00,0.17,0.16,0.17,0.16,956,954,975,954
10214,0,0.00,-0.00,-0.00,-0.00,-0.00,0.00,0.17,0.00,0.00,0.00,0.00,0.00,-0.00,0.17,0.17,0.17,0.17,957,955,975,955
10221,0,0.00,-0.00,-0.00,0.00,-0.00,0.00,0.17,0.00,0.00,0.00,0.00,0.00,-0.00,0.17,0.17,0.17,0.17,957,955,975,955
10229,0,0.00,-0.00,-0.00,-0.00,-0.00,-0.00,0.17,0.00,0.00,0.00,0.00,0.00,-0.00,0.17,0.17,0.17,0.17,957,955,975,955
10238,0,0.00,-0.00,-0.00,-0.00,-0.00,-0.00,0.17,0.00,0.00,0.00,0.00,0.00,-0.00,0.17,0.17,0.17,0.17,959,957,978,957
10247,0,0.00,-0.00,-0.00,-0.00,0.00,0.00,0.17,0.00,0.00,0.00,0.00,0.00,-0.00,0.17,0.17,0.17,0.17,959,957,978,957
10257,0,0.00,-0.00,-0.00,-0.00,0.00,-0.00,0.17,0.00,0.00,0.00,0.00,0.00,-0.00,0.17,0.17,0.17,0.17,959,957,978,957
10267,0,0.00,-0.00,-0.00,0.00,-0.00,0.00,0.17,0.00,0.00,0.00,0.00,0.00,-0.00,0.17,0.17,0.17,0.17,959,957,978,957
10276,0,0.00,-0.00,-0.00,-0.00,-0.00,-0.00,0.18,0.00,0.00,0.00,0.00,0.00,-0.00,0.18,0.17,0.18,0.17,964,962,983,962
10286,0,0.00,-0.00,-0.00,-0.00,-0.00,0.00,0.18,0.00,0.00,0.00,0.00,0.00,-0.00,0.18,0.17,0.18,0.17,964,962,983,962
10293,0,0.00,-0.00,-0.00,-0.00,-0.00,0.00,0.18,0.00,0.00,0.00,0.00,0.00,-0.00,0.18,0.17,0.18,0.17,964,962,983,962
10301,0,0.00,-0.00,0.00,-0.00,0.00,0.00,0.18,0.00,0.00,0.00,0.00,0.00,-0.00,0.18,0.17,0.18,0.17,964,962,983,962
10309,0,0.00,-0.00,0.00,-0.00,-0.00,0.00,0.18,0.00,0.00,0.00,0.00,0.00,-0.00,0.18,0.17,0.18,0.17,965,962,983,962
10319,0,0.00,-0.00,0.00,-0.00,-0.00,0.00,0.18,0.00,0.00,0.00,0.00,0.00,-0.00,0.18,0.17,0.18,0.17,965,962,983,962
10328,0,0.00,-0.00,0.00,-0.00,-0.00,0.00,0.18,0.00,0.00,0.00,0.00,0.00,-0.00,0.18,0.17,0.18,0.17,965,962,983,962
10338,0,0.00,-0.00,0.00,-0.00,-0.00,0.00,0.18,0.00,0.00,0.00,0.00,0.00,-0.00,0.18,0.18,0.18,0.18,965,963,984,963
10348,0,0.00,-0.00,0.00,-0.00,-0.00,-0.00,0.18,0.00,0.00,0.00,0.00,0.00,-0.00,0.18,0.18,0.18,0.18,965,963,984,963
10358,0,0.00,-0.00,0.00,-0.00,0.00,-0.00,0.18,0.00,0.00,0.00,0.00,0.00,-0.00,0.18,0.18,0.18,0.18,965,963,984,963
10367,0,0.00,-0.00,0.00,-0.00,0.00,-0.00,0.18,0.00,0.00,0.00,0.00,0.00,-0.00,0.18,0.18,0.18,0.18,965,962,984,963
10380,0,0.00,-0.00,0.00,-0.00,-0.00,-0.00,0.18,0.00,0.00,0.00,0.00,0.00,-0.00,0.18,0.18,0.18,0.18,965,963,983,963
10389,0,0.00,-0.00,0.00,-0.00,-0.00,-0.00,0.18,0.00,0.00,0.00,0.00,0.00,-0.00,0.18,0.18,0.18,0.18,966,964,984,964
10399,0,0.00,-0.00,0.00,-0.00,-0.00,-0.00,0.18,0.00,0.00,0.00,0.00,0.00,-0.00,0.18,0.18,0.18,0.18,966,963,984,963
10408,0,0.00,-0.00,0.00,-0.00,0.00,-0.00,0.18,0.00,0.00,0.00,0.00,0.00,-0.00,0.18,0.18,0.18,0.18,966,963,985,963
10418,0,0.00,-0.00,0.00,-0.00,0.00,-0.00,0.18,0.00,0.00,0.00,0.00,0.00,-0.00,0.18,0.18,0.18,0.18,966,963,985,963
10428,0,0.00,-0.00,0.00,-0.00,-0.00,0.00,0.18,0.00,0.00,0.00,0.00,0.00,-0.00,0.18,0.18,0.18,0.18,966,963,985,963
10438,0,0.00,-0.00,0.00,-0.00,-0.00,0.00,0.18,0.00,0.00,0.00,0.00,0.00,-0.00,0.18,0.18,0.18,0.18,967,964,985,965
10446,0,0.00,-0.00,0.00,-0.00,-0.00,0.00,0.18,0.00,0.00,0.00,0.00,0.00,-0.00,0.18,0.18,0.18,0.18,968,965,986,965
10456,0,0.00,-0.00,0.00,-0.00,0.00,0.00,0.18,0.00,0.00,0.00,0.00,0.00,-0.00,0.18,0.18,0.18,0.18,968,965,986,965
10466,0,0.00,-0.00,0.00,-0.00,0.00,0.00,0.18,0.00,0.00,0.00,0.00,0.00,-0.00,0.18,0.18,0.18,0.18,968,965,986,965
10476,0,0.00,-0.00,0.00,-0.00,0.00,0.00,0.18,0.00,0.00,0.00,0.00,0.00,-0.00,0.18,0.18,0.19,0.18,969,966,987,966
10485,0,0.00,-0.00,0.00,-0.00,-0.00,-0.00,0.18,0.00,0.00,0.00,0.00,0.00,-0.00,0.18,0.18,0.19,0.18,969,966,987,966
10493,0,0.00,-0.00,0.00,-0.00,-0.00,-0.00,0.18,0.00,0.00,0.00,0.00,0.00,-0.00,0.18,0.18,0.19,0.18,969,966,987,966
10500,0,0.00,-0.00,0.00,-0.00,0.00,-0.00,0.18,0.00,0.00,0.00,0.00,0.00,-0.00,0.18,0.18,0.19,0.18,969,966,987,966
10509,0,0.00,-0.00,0.00,-0.00,0.00,-0.00,0.18,0.00,0.00,0.00,0.00,0.00,-0.00,0.18,0.18,0.19,0.18,969,966,987,966
10519,0,0.00,-0.00,0.00,-0.00,0.00,-0.00,0.18,0.00,0.00,0.00,0.00,0.00,-0.00,0.18,0.18,0.19,0.18,969,966,987,966
10529,0,0.00,-0.00,0.00,-0.00,-0.00,-0.00,0.18,0.00,0.00,0.00,0.00,0.00,-0.00,0.18,0.18,0.19,0.18,969,966,987,966
10538,0,0.00,-0.00,0.00,-0.00,-0.00,-0.00,0.19,0.00,0.00,0.00,0.00,0.00,-0.00,0.19,0.18,0.19,0.18,971,968,990,968
10548,0,0.00,-0.00,0.00,-0.00,-0.00,-0.00,0.19,0.00,0.00,0.00,0.00,0.00,-0.00,0.19,0.18,0.19,0.18,972,969,991,969
10558,0,0.00,-0.00,0.00,-0.00,-0.00,0.00,0.19,0.00,0.00,0.00,0.00,0.00,-0.00,0.19,0.18,0.19,0.18,972,968,991,969
10567,0,0.00,-0.00,0.00,-0.00,0.00,0.00,0.19,0.00,0.00,0.00,0.00,0.00,-0.00,0.19,0.18,0.19,0.18,972,968,991,969
10577,0,0.00,-0.00,0.00,-0.00,0.00,0.00,0.19,0.00,0.00,0.00,0.00,0.00,-0.00,0.19,0.18,0.19,0.19,973,970,991,970
10586,0,0.00,-0.00,0.00,0.00,-0.00,0.00,0.19,0.00,0.00,0.00,0.00,0.00,-0.00,0.19,0.19,0.19,0.19,975,971,993,972
10594,0,0.00,-0.00,0.00,0.00,-0.00,0.00,0.19,0.00,0.00,0.00,0.00,0.00,-0.00,0.19,0.19,0.19,0.19,975,971,993,972
10602,0,0.00,-0.00,0.00,-0.00,0.00,0.00,0.19,0.00,0.00,0.00,0.00,0.00,-0.00,0.19,0.19,0.19,0.19,975,971,993,972
10610,0,0.00,-0.00,0.00,-0.00,0.00,0.00,0.19,0.00,0.00,0.00,0.00,0.00,-0.00,0.19,0.19,0.19,0.19,975,971,993,972
10619,0,0.00,-0.00,0.00,-0.00,0.00,0.00,0.19,0.00,0.00,0.00,0.00,0.00,-0.00,0.19,0.19,0.19,0.19,975,971,993,972
10629,0,0.00,-0.00,0.00,-0.00,-0.00,-0.00,0.19,0.00,0.00,0.00,0.00,0.00,-0.00,0.19,0.19,0.19,0.19,975,972,994,973
10639,0,0.00,-0.00,0.00,-0.00,-0.00,-0.00,0.19,0.00,0.00,0.00,0.00,0.00,-0.00,0.19,0.19,0.19,0.19,976,973,995,973
10649,0,0.00,-0.00,0.00,0.00,-0.00,-0.00,0.19,0.00,0.00,0.00,0.00,0.00,-0.00,0.19,0.19,0.20,0.19,977,974,995,974
10659,0,0.00,-0.00,0.00,0.00,0.00,-0.00,0.19,0.00,0.00,0.00,0.00,0.00,-0.00,0.19,0.19,0.20,0.19,977,974,995,974
10671,0,0.00,-0.00,0.00,-0.00,0.00,0.00,0.19,0.00,0.00,0.00,0.00,0.00,-0.00,0.20,0.19,0.20,0.19,979,975,997,976
10680,0,0.00,-0.00,0.00,-0.00,0.00,0.00,0.19,0.00,0.00,0.00,0.00,0.00,-0.00,0.20,0.19,0.20,0.19,979,975,997,976
10690,0,0.00,-0.00,0.00,-0.00,-0.00,-0.00,0.20,0.00,0.00,0.00,0.00,0.00,-0.00,0.20,0.20,0.21,0.20,986,981,1004,982
10699,0,0.00,-0.00,0.00,-0.00,-0.00,-0.00,0.20,0.00,0.00,0.00,0.00,0.00,-0.00,0.20,0.20,0.21,0.20,986,981,1004,982
10709,0,0.00,-0.00,0.00,0.00,-0.00,-0.00,0.20,0.00,0.00,0.00,0.00,0.00,-0.00,0.20,0.20,0.21,0.20,986,981,1004,982
10719,0,0.00,-0.00,0.00,-0.00,-0.00,0.00,0.20,0.00,0.00,0.00,0.00,0.00,-0.00,0.20,0.20,0.21,0.20,986,981,1004,982
10729,0,0.00,-0.00,0.00,-0.00,-0.00,0.00,0.20,0.00,0.00,0.00,0.00,0.00,-0.00,0.20,0.20,0.21,0.20,986,981,1004,982
10739,0,0.00,-0.00,0.00,-0.00,0.00,0.00,0.20,0.00,0.00,0.00,0.00,0.00,-0.00,0.21,0.20,0.21,0.20,987,983,1005,984
10748,0,0.00,-0.00,0.00,-0.00,0.00,-0.00,0.20,0.00,0.00,0.00,0.00,0.00,-0.00,0.21,0.20,0.21,0.20,987,983,1005,984
10758,0,0.00,-0.00,0.00,0.00,-0.00,-0.00,0.20,0.00,0.00,0.00,0.00,0.00,-0.00,0.21,0.20,0.21,0.20,987,983,1005,984
10768,0,0.00,-0.00,0.00,0.00,-0.00,-0.00,0.20,0.00,0.00,0.00,0.00,0.00,-0.00,0.21,0.20,0.21,0.20,987,983,1005,984
10778,0,0.00,-0.00,0.00,-0.00,0.00,-0.00,0.20,0.00,0.00,0.00,0.00,0.00,-0.00,0.21,0.20,0.21,0.20,987,983,1005,984
10788,0,0.00,-0.00,0.00,-0.00,0.00,-0.00,0.21,0.00,0.00,0.00,0.00,0.00,-0.00,0.21,0.20,0.21,0.20,989,985,1007,986
10795,0,0.00,-0.00,0.00,-0.00,0.00,0.00,0.21,0.00,0.00,0.00,0.00,0.00,-0.00,0.21,0.20,0.21,0.20,989,985,1007,986
10803,0,0.00,-0.00,0.00,-0.00,-0.00,0.00,0.21,0.00,0.00,0.00,0.00,0.00,-0.00,0.21,0.21,0.21,0.21,992,988,1010,989
10811,0,0.00,-0.00,0.00,-0.00,-0.00,0.00,0.21,0.00,0.00,0.00,0.00,0.00,-0.00,0.21,0.21,0.21,0.21,992,988,1010,989
10820,0,0.00,-0.00,0.00,0.00,-0.00,0.00,0.21,0.00,0.00,0.00,0.00,0.00,-0.00,0.21,0.21,0.22,0.21,994,989,1012,990
10830,0,0.00,-0.00,0.00,0.00,-0.00,0.00,0.21,0.00,0.00,0.00,0.00,0.00,-0.00,0.21,0.21,0.22,0.21,994,990,1012,991
10839,0,0.00,-0.00,0.00,0.00,0.00,0.00,0.21,0.00,0.00,0.00,0.00,0.00,-0.00,0.21,0.21,0.22,0.21,995,990,1013,991
10847,0,0.00,-0.00,0.00,0.00,-0.00,0.00,0.21,0.00,0.00,0.00,0.00,0.00,-0.00,0.22,0.21,0.22,0.21,995,990,1013,991
10855,0,0.00,-0.00,0.00,-0.00,-0.00,0.00,0.21,0.00,0.00,0.00,0.00,0.00,-0.00,0.22,0.21,0.22,0.21,995,990,1013,991
10863,0,0.00,-0.00,0.00,-0.00,-0.00,0.00,0.21,0.00,0.00,0.00,0.00,0.00,-0.00,0.22,0.21,0.22,0.21,995,990,1013,991
10871,0,0.00,-0.00,0.00,-0.00,0.00,-0.00,0.21,0.00,0.00,0.00,0.00,0.00,-0.00,0.22,0.21,0.22,0.21,995,990,1013,991
10881,0,0.00,-0.00,0.00,0.00,0.00,-0.00,0.21,0.00,0.00,0.00,0.00,0.00,-0.00,0.22,0.21,0.22,0.21,995,990,1013,991
10890,0,0.00,-0.00,0.00,0.00,0.00,-0.00,0.21,0.00,0.00,0.00,0.00,0.00,-0.00,0.22,0.21,0.22,0.21,996,991,1014,992
10899,0,0.00,-0.00,0.00,0.00,0.00,-0.00,0.21,0.00,0.00,0.00,0.00,0.00,-0.00,0.22,0.21,0.22,0.21,996,991,1014,992
10909,0,0.00,-0.00,0.00,-0.00,0.00,-0.00,0.21,0.00,0.00,0.00,0.00,0.00,-0.00,0.22,0.21,0.22,0.21,996,991,1014,992
10918,0,0.00,-0.00,0.00,-0.00,-0.00,-0.00,0.21,0.00,0.00,0.00,0.00,0.00,-0.00,0.22,0.21,0.22,0.21,996,991,1014,992
10928,0,0.00,-0.00,0.00,-0.00,-0.00,0.00,0.21,0.00,0.00,0.00,0.00,0.00,-0.00,0.22,0.21,0.22,0.21,996,991,1014,992
10938,0,0.00,-0.00,0.00,-0.00,-0.00,-0.00,0.21,0.00,0.00,0.00,0.00,0.00,-0.00,0.22,0.21,0.22,0.21,996,991,1014,992
10950,0,0.00,-0.00,0.00,0.00,0.00,0.00,0.22,0.00,0.00,0.00,0.00,0.00,-0.00,0.22,0.21,0.22,0.21,997,991,1015,993
10960,0,0.00,-0.00,0.00,0.00,-0.00,0.00,0.22,0.00,0.00,0.00,0.00,0.00,-0.00,0.22,0.21,0.22,0.21,997,991,1015,993
10970,0,0.00,-0.00,0.00,-0.00,-0.00,0.00,0.22,0.00,0.00,0.00,0.00,0.00,0.00,0.22,0.21,0.22,0.21,997,992,1014,993
10980,0,0.00,-0.00,0.00,-0.00,-0.00,0.00,0.22,0.00,0.00,0.00,0.00,0.00,0.00,0.22,0.21,0.22,0.21,997,991,1014,993
10989,0,0.00,-0.00,0.00,-0.00,0.00,0.00,0.22,0.00,0.00,0.00,0.00,0.00,0.00,0.22,0.21,0.22,0.21,997,991,1014,993
10997,0,0.00,-0.00,0.00,0.00,0.00,0.00,0.22,0.00,0.00,0.00,0.00,0.00,0.00,0.22,0.21,0.22,0.21,997,991,1014,993
11006,0,0.00,-0.00,0.00,0.00,-0.00,0.00,0.22,0.00,0.00,0.00,0.00,0.00,0.00,0.22,0.21,0.22,0.21,997,991,1014,993
11013,0,0.00,-0.00,0.00,-0.00,0.00,-0.00,0.22,0.00,0.00,0.00,0.00,0.00,0.00,0.22,0.21,0.22,0.21,997,991,1014,993
11021,0,0.00,-0.00,0.00,-0.00,0.00,-0.00,0.22,0.00,0.00,0.00,0.00,0.00,0.00,0.22,0.21,0.22,0.21,997,992,1014,993
11030,0,0.00,-0.00,0.00,-0.00,0.00,-0.00,0.22,0.00,0.00,0.00,0.00,0.00,0.00,0.22,0.21,0.22,0.21,997,992,1014,993
11040,0,0.00,-0.00,0.00,-0.00,0.00,-0.00,0.22,0.00,0.00,0.00,0.00,0.00,0.00,0.22,0.21,0.22,0.21,997,991,1014,993
11049,0,0.00,-0.00,0.00,-0.00,-0.00,-0.00,0.22,0.00,0.00,0.00,0.00,0.00,0.00,0.22,0.21,0.22,0.21,997,991,1014,993
11058,0,0.00,-0.00,0.00,-0.00,-0.00,-0.00,0.22,0.00,0.00,0.00,0.00,0.00,0.00,0.22,0.21,0.22,0.21,997,991,1014,993
11068,0,0.00,-0.00,0.00,-0.00,-0.00,0.00,0.22,0.00,0.00,0.00,0.00,0.00,0.00,0.22,0.21,0.22,0.21,997,991,1014,993
11078,0,0.00,-0.00,0.00,0.00,-0.00,0.00,0.22,0.00,0.00,0.00,0.00,0.00,0.00,0.22,0.21,0.22,0.21,998,992,1015,994
11088,0,0.00,-0.00,0.00,-0.00,-0.00,0.00,0.22,0.00,0.00,0.00,0.00,0.00,0.00,0.22,0.21,0.22,0.21,998,992,1015,994
11095,0,0.00,-0.00,0.00,-0.00,0.00,0.00,0.22,0.00,0.00,0.00,0.00,0.00,0.00,0.22,0.21,0.22,0.21,998,992,1015,994
11103,0,0.00,-0.00,0.00,0.00,0.00,0.00,0.22,0.00,0.00,0.00,0.00,0.00,0.00,0.22,0.21,0.22,0.21,998,992,1015,994
11111,0,0.00,-0.00,0.00,0.00,-0.00,0.00,0.22,0.00,0.00,0.00,0.00,0.00,0.00,0.22,0.21,0.22,0.21,998,992,1015,994
11120,0,0.00,-0.00,0.00,-0.00,-0.00,-0.00,0.22,0.00,0.00,0.00,0.00,0.00,0.00,0.22,0.21,0.22,0.21,999,993,1016,994
11130,0,0.00,-0.00,0.00,-0.00,-0.00,-0.00,0.22,0.00,0.00,0.00,0.00,0.00,0.00,0.22,0.21,0.22,0.22,998,993,1016,995
11140,0,0.00,-0.00,0.00,-0.00,0.00,-0.00,0.22,0.00,0.00,0.00,0.00,0.00,0.00,0.22,0.21,0.22,0.22,998,993,1016,995
11149,0,0.00,-0.00,0.00,0.00,0.00,-0.00,0.22,0.00,0.00,0.00,0.00,0.00,0.00,0.22,0.21,0.22,0.22,998,993,1016,995
11158,0,0.00,-0.00,0.00,0.00,-0.00,-0.00,0.22,0.00,0.00,0.00,0.00,0.00,0.00,0.22,0.21,0.22,0.22,998,993,1016,995
11168,0,0.00,-0.00,0.00,0.00,-0.00,-0.00,0.22,0.00,0.00,0.00,0.00,0.00,0.00,0.22,0.21,0.22,0.22,998,993,1016,995
11177,0,0.00,0.00,0.00,-0.00,0.00,-0.00,0.22,0.00,0.00,0.00,0.00,0.00,0.00,0.22,0.21,0.22,0.22,999,994,1016,996
11185,0,0.00,0.00,0.00,-0.00,0.00,-0.00,0.22,0.00,0.00,0.00,0.00,0.00,0.00,0.22,0.21,0.22,0.22,999,994,1016,996
11193,0,0.00,0.00,0.00,0.00,-0.00,0.00,0.22,0.00,0.00,0.00,0.00,0.00,0.00,0.22,0.21,0.22,0.22,999,994,1016,996
11201,0,0.00,0.00,0.00,-0.00,-0.00,0.00,0.22,0.00,0.00,0.00,0.00,0.00,0.00,0.22,0.21,0.22,0.22,999,994,1016,996
11211,0,0.00,0.00,0.00,-0.00,-0.00,0.00,0.22,0.00,0.00,0.00,0.00,0.00,0.00,0.22,0.21,0.22,0.22,999,994,1016,996
11220,0,0.00,0.00,0.00,-0.00,0.00,0.00,0.22,0.00,0.00,0.00,0.00,0.00,0.00,0.22,0.21,0.22,0.22,999,994,1016,996
11232,0,0.00,0.00,0.00,-0.00,-0.00,0.00,0.22,0.00,0.00,0.00,0.00,0.00,0.00,0.22,0.21,0.22,0.22,999,994,1016,996
11242,0,0.00,0.00,0.00,-0.00,-0.00,0.00,0.22,0.00,0.00,0.00,0.00,0.00,0.00,0.22,0.21,0.22,0.22,999,994,1016,996
11251,0,0.00,0.00,0.00,-0.00,0.00,0.00,0.22,0.00,0.00,0.00,0.00,0.00,0.00,0.22,0.21,0.22,0.22,998,995,1016,997
11260,0,0.00,0.00,0.00,-0.00,0.00,0.00,0.22,0.00,0.00,0.00,0.00,0.00,0.00,0.22,0.22,0.23,0.22,1003,999,1020,1001
11270,0,0.00,0.00,0.00,0.00,0.00,-0.00,0.22,0.00,0.00,0.00,0.00,0.00,0.00,0.22,0.22,0.23,0.22,1003,999,1020,1001
11280,0,0.00,0.00,0.00,0.00,-0.00,-0.00,0.22,0.00,0.00,0.00,0.00,0.00,0.00,0.23,0.22,0.23,0.22,1003,1000,1020,1002
11290,0,0.00,0.00,0.00,0.00,0.00,-0.00,0.22,0.00,0.00,0.00,0.00,0.00,0.00,0.23,0.22,0.23,0.22,1003,1000,1020,1002
11299,0,0.00,0.00,0.00,-0.00,-0.00,-0.00,0.22,0.00,0.00,0.00,0.00,0.00,0.00,0.23,0.22,0.23,0.22,1004,1000,1021,1002
11308,0,0.00,0.00,0.00,-0.00,-0.00,0.00,0.22,0.00,0.00,0.00,0.00,0.00,0.00,0.23,0.22,0.23,0.22,1004,1001,1021,1003
11318,0,0.00,0.00,0.00,0.00,0.00,-0.00,0.22,0.00,0.00,0.00,0.00,0.00,0.00,0.23,0.22,0.23,0.23,1003,1001,1020,1003
11328,0,0.00,0.00,0.00,0.00,0.00,0.00,0.22,0.00,0.00,0.00,0.00,0.00,0.00,0.23,0.22,0.23,0.23,1003,1001,1020,1003
11338,0,0.00,0.00,0.00,0.00,-0.00,0.00,0.23,0.00,0.00,0.00,0.00,0.00,0.00,0.23,0.23,0.23,0.23,1007,1005,1024,1007
11346,0,0.00,0.00,0.00,-0.00,-0.00,0.00,0.23,0.00,0.00,0.00,0.00,0.00,0.00,0.23,0.23,0.23,0.23,1007,1005,1024,1007
11354,0,0.00,0.00,0.00,-0.00,-0.00,0.00,0.23,0.00,0.00,0.00,0.00,0.00,0.00,0.23,0.23,0.23,0.23,1007,1005,1024,1007
11362,0,0.00,0.00,0.00,0.00,0.00,0.00,0.23,0.00,0.00,0.00,0.00,0.00,0.00,0.23,0.23,0.23,0.23,1007,1005,1024,1007
11371,0,0.00,0.00,0.00,0.00,0.00,-0.00,0.23,0.00,0.00,0.00,0.00,0.00,0.00,0.23,0.23,0.23,0.23,1007,1005,1023,1007
11381,0,0.00,0.00,0.00,0.00,0.00,-0.00,0.23,0.00,0.00,0.00,0.00,0.00,0.00,0.23,0.23,0.23,0.23,1007,1005,1023,1007
11391,0,0.00,0.00,0.00,-0.00,0.00,-0.00,0.23,0.00,0.00,0.00,0.00,0.00,0.00,0.23,0.23,0.23,0.23,1007,1005,1023,1007
11400,0,0.00,0.00,0.00,-0.00,0.00,0.00,0.24,0.00,0.00,0.00,0.00,0.00,0.00,0.24,0.24,0.24,0.24,1016,1014,1033,1017
11410,0,0.00,0.00,0.00,-0.00,-0.00,-0.00,0.24,0.00,0.00,0.00,0.00,0.00,0.00,0.24,0.24,0.24,0.24,1017,1015,1034,1018
11420,0,0.00,0.00,0.00,-0.00,-0.00,-0.00,0.24,0.00,0.00,0.00,0.00,0.00,0.00,0.24,0.24,0.24,0.24,1017,1015,1034,1018
11430,0,0.00,0.00,0.00,-0.00,-0.00,0.00,0.24,0.00,0.00,0.00,0.00,0.00,0.00,0.24,0.24,0.24,0.24,1017,1015,1034,1018
11440,0,0.00,0.00,0.00,0.00,0.00,0.00,0.24,0.00,0.00,0.00,0.00,0.00,0.00,0.24,0.24,0.24,0.24,1017,1015,1034,1018
11448,0,-0.00,0.00,0.00,0.00,0.00,0.00,0.24,0.00,0.00,0.00,0.00,0.00,0.00,0.24,0.24,0.24,0.24,1017,1015,1034,1017
11455,0,-0.00,0.00,0.00,-0.00,0.00,0.00,0.24,0.00,0.00,0.00,0.00,0.00,0.00,0.24,0.24,0.24,0.24,1018,1015,1034,1017
11463,0,-0.00,0.00,0.00,-0.00,-0.00,0.00,0.24,0.00,0.00,0.00,0.00,0.00,0.00,0.24,0.24,0.24,0.24,1018,1015,1034,1017
11472,0,-0.00,0.00,0.00,-0.00,-0.00,-0.00,0.24,0.00,0.00,0.00,0.00,0.00,0.00,0.24,0.24,0.24,0.24,1018,1015,1034,1017
11481,0,-0.00,0.00,0.00,-0.00,-0.00,-0.00,0.24,0.00,0.00,0.00,0.00,0.00,0.00,0.24,0.24,0.24,0.24,1017,1015,1034,1018
11491,0,-0.00,0.00,0.00,-0.00,-0.00,-0.00,0.24,0.00,0.00,0.00,0.00,0.00,0.00,0.24,0.24,0.24,0.24,1017,1015,1034,1018
11500,0,-0.00,0.00,0.00,-0.00,0.00,-0.00,0.24,0.00,0.00,0.00,0.00,0.00,0.00,0.24,0.24,0.24,0.24,1017,1015,1034,1018
11510,0,-0.00,0.00,0.00,0.00,0.00,-0.00,0.24,0.00,0.00,0.00,0.00,0.00,0.00,0.24,0.24,0.24,0.24,1017,1015,1034,1018
11522,0,-0.00,0.00,0.00,-0.00,0.00,0.00,0.24,0.00,0.00,0.00,0.00,0.00,0.00,0.24,0.24,0.24,0.24,1017,1015,1034,1018
11532,0,-0.00,0.00,0.00,-0.00,-0.00,0.00,0.24,0.00,0.00,0.00,0.00,0.00,0.00,0.24,0.24,0.24,0.24,1018,1016,1034,1018
11542,0,-0.00,0.00,0.00,0.00,-0.00,-0.00,0.24,0.00,0.00,0.00,0.00,0.00,0.00,0.24,0.24,0.24,0.24,1018,1016,1034,1018
11551,0,-0.00,0.00,0.00,0.00,-0.00,-0.00,0.24,0.00,0.00,0.00,0.00,0.00,0.00,0.24,0.24,0.24,0.24,1018,1016,1034,1018
11560,0,-0.00,0.00,0.00,0.00,0.00,-0.00,0.24,0.00,0.00,0.00,0.00,0.00,0.00,0.24,0.24,0.24,0.24,1018,1016,1034,1018
11570,0,-0.00,0.00,0.00,0.00,0.00,-0.00,0.24,0.00,0.00,0.00,0.00,0.00,0.00,0.24,0.24,0.24,0.24,1018,1016,1034,1018
11579,0,-0.00,0.00,0.00,-0.00,0.00,-0.00,0.24,0.00,0.00,0.00,0.00,0.00,0.00,0.24,0.24,0.24,0.24,1018,1016,1034,1018
11589,0,-0.00,0.00,0.00,-0.00,0.00,-0.00,0.24,0.00,0.00,0.00,0.00,0.00,0.00,0.24,0.24,0.24,0.24,1018,1016,1034,1018
11597,0,-0.00,0.00,0.00,0.00,-0.00,-0.00,0.24,0.00,0.00,0.00,0.00,0.00,0.00,0.24,0.24,0.24,0.24,1018,1016,1034,1019
11604,0,-0.00,0.00,0.00,0.00,0.00,-0.00,0.24,0.00,0.00,0.00,0.00,0.00,0.00,0.24,0.24,0.24,0.24,1018,1016,1034,1019
11612,0,-0.00,0.00,0.00,0.00,-0.00,0.00,0.24,0.00,0.00,0.00,0.00,0.00,0.00,0.24,0.24,0.24,0.24,1018,1016,1034,1019
11621,0,-0.00,0.00,0.00,-0.00,-0.00,0.00,0.24,0.00,0.00,0.00,0.00,0.00,0.00,0.24,0.24,0.24,0.25,1019,1017,1035,1019
11631,0,-0.00,0.00,0.00,-0.00,-0.00,0.00,0.24,0.00,0.00,0.00,0.00,-0.00,0.00,0.24,0.24,0.24,0.25,1019,1017,1035,1020
11641,0,-0.00,0.00,0.00,-0.00,-0.00,0.00,0.24,0.00,0.00,0.00,0.00,0.00,0.00,0.24,0.24,0.24,0.25,1019,1017,1035,1019
11651,0,-0.00,0.00,0.00,-0.00,-0.00,0.00,0.24,0.00,0.00,0.00,0.00,0.00,0.00,0.24,0.24,0.24,0.25,1019,1017,1035,1019
11661,0,-0.00,0.00,0.00,-0.00,0.00,-0.00,0.24,0.00,0.00,0.00,0.00,0.00,0.00,0.24,0.24,0.24,0.25,1019,1017,1035,1019
11671,0,-0.00,0.00,0.00,0.00,0.00,0.00,0.24,0.00,0.00,0.00,0.00,0.00,0.00,0.24,0.24,0.24,0.25,1019,1017,1035,1019
11680,0,-0.00,0.00,0.00,0.00,-0.00,0.00,0.25,0.00,0.00,0.00,0.00,0.00,0.00,0.25,0.24,0.24,0.25,1020,1018,1035,1020
11691,0,-0.00,0.00,0.00,-0.00,0.00,-0.00,0.25,0.00,0.00,0.00,0.00,0.00,0.00,0.25,0.24,0.24,0.25,1020,1018,1035,1020
11699,0,-0.00,0.00,0.00,-0.00,0.00,0.00,0.25,0.00,0.00,0.00,0.00,0.00,0.00,0.25,0.24,0.25,0.25,1021,1019,1036,1021
11709,0,-0.00,0.00,0.00,-0.00,-0.00,-0.00,0.25,0.00,0.00,0.00,0.00,0.00,0.00,0.25,0.24,0.25,0.25,1021,1019,1036,1021
11719,0,-0.00,0.00,0.00,-0.00,-0.00,-0.00,0.25,0.00,0.00,0.00,0.00,0.00,0.00,0.25,0.25,0.25,0.25,1022,1021,1038,1023
11729,0,-0.00,0.00,0.00,0.00,-0.00,-0.00,0.25,0.00,0.00,0.00,0.00,0.00,0.00,0.25,0.25,0.25,0.25,1022,1021,1038,1023
11738,0,-0.00,0.00,0.00,-0.00,0.00,-0.00,0.25,0.00,0.00,0.00,0.00,0.00,0.00,0.25,0.25,0.25,0.25,1025,1023,1040,1025
