t,is_crashed,roll,pitch,yaw,throttle,roll_pid_out,pitch_pid_out,yaw_pid_out,motor_fl,motor_bl,motor_fr,motor_br,pwm_fl,pwm_bl,pwm_fr,pwm_br
7073,0,-0.02,-0.06,0.27,-1.00,0.00,0.00,-0.03,0.00,0.00,0.00,0.00,819,819,819,819
7080,0,-0.02,-0.06,0.27,-1.00,0.14,0.20,-0.20,0.00,0.00,0.00,0.00,819,819,819,819
7087,0,-0.02,-0.06,0.27,-1.00,0.17,0.20,-0.20,0.00,0.00,0.00,0.00,819,819,819,819
7092,0,-0.02,-0.06,0.27,-1.00,0.16,0.20,-0.20,0.00,0.00,0.00,0.00,819,819,819,819
7098,0,-0.02,-0.06,0.27,-1.00,0.14,0.20,-0.20,0.00,0.00,0.00,0.00,819,819,819,819
7104,0,-0.01,-0.07,0.27,-1.00,0.13,0.20,-0.20,0.00,0.00,0.00,0.00,819,819,819,819
7109,0,-0.01,-0.07,0.27,-1.00,0.10,0.20,-0.20,0.00,0.00,0.00,0.00,819,819,819,819
7115,0,-0.01,-0.07,0.27,-1.00,0.10,0.20,-0.20,0.00,0.00,0.00,0.00,819,819,819,819
7120,0,-0.00,-0.07,0.27,-1.00,0.07,0.20,-0.20,0.00,0.00,0.00,0.00,819,819,819,819
7127,0,-0.00,-0.07,0.27,-1.00,0.06,0.20,-0.20,0.00,0.00,0.00,0.00,819,819,819,819
7132,0,-0.00,-0.07,0.27,-1.00,0.05,0.20,-0.20,0.00,0.00,0.00,0.00,819,819,819,819
7139,0,-0.00,-0.07,0.27,-1.00,0.05,0.20,-0.20,0.00,0.00,0.00,0.00,819,819,819,819
7145,0,-0.00,-0.07,0.27,-1.00,0.03,0.20,-0.20,0.00,0.00,0.00,0.00,819,819,819,819
7151,0,-0.00,-0.07,0.27,-1.00,0.04,0.20,-0.20,0.00,0.00,0.00,0.00,819,819,819,819
7156,0,-0.00,-0.07,0.27,-1.00,0.04,0.20,-0.20,0.00,0.00,0.00,0.00,819,819,819,819
7162,0,-0.00,-0.08,0.27,-1.00,0.04,0.20,-0.20,0.00,0.00,0.00,0.00,819,819,819,819
7168,0,-0.00,-0.08,0.27,-1.00,0.04,0.20,-0.20,0.00,0.00,0.00,0.00,819,819,819,819
7174,0,-0.00,-0.08,0.27,-1.00,0.04,0.20,-0.20,0.00,0.00,0.00,0.00,819,819,819,819
7180,0,-0.00,-0.08,0.27,-1.00,0.06,0.20,-0.20,0.00,0.00,0.00,0.00,819,819,819,819
7186,0,-0.00,-0.08,0.27,-1.00,0.05,0.20,-0.20,0.00,0.00,0.00,0.00,819,819,819,819
7192,0,-0.00,-0.08,0.27,-1.00,0.07,0.20,-0.20,0.00,0.00,0.00,0.00,819,819,819,819
7199,0,-0.00,-0.08,0.27,-1.00,0.06,0.20,-0.20,0.00,0.00,0.00,0.00,819,819,819,819
7204,0,-0.00,-0.08,0.27,-1.00,0.08,0.20,-0.20,0.00,0.00,0.00,0.00,819,819,819,819
7210,0,-0.00,-0.08,0.27,-1.00,0.08,0.20,-0.20,0.00,0.00,0.00,0.00,819,819,819,819
7215,0,-0.00,-0.08,0.27,-1.00,0.08,0.20,-0.20,0.00,0.00,0.00,0.00,819,819,819,819
7221,0,-0.01,-0.07,0.27,-1.00,0.09,0.20,-0.20,0.00,0.00,0.00,0.00,819,819,819,819
7230,0,-0.01,-0.07,0.27,-1.00,0.05,0.20,-0.20,0.00,0.00,0.00,0.00,819,819,819,819
7238,0,-0.01,-0.07,0.27,-1.00,0.06,0.20,-0.20,0.00,0.00,0.00,0.00,819,819,819,819
7245,0,-0.01,-0.07,0.27,-1.00,0.08,0.20,-0.20,0.00,0.00,0.00,0.00,819,819,819,819
7250,0,-0.01,-0.07,0.27,-1.00,0.10,0.20,-0.20,0.00,0.00,0.00,0.00,819,819,819,819
7256,0,-0.01,-0.07,0.27,-1.00,0.10,0.20,-0.20,0.00,0.00,0.00,0.00,819,819,819,819
7261,0,-0.01,-0.07,0.27,-1.00,0.11,0.20,-0.20,0.00,0.00,0.00,0.00,819,819,819,819
7267,0,-0.01,-0.07,0.27,-1.00,0.11,0.20,-0.20,0.00,0.00,0.00,0.00,819,819,819,819
7273,0,-0.01,-0.07,0.27,-1.00,0.11,0.20,-0.20,0.00,0.00,0.00,0.00,819,819,819,819
7279,0,-0.01,-0.07,0.27,-1.00,0.11,0.20,-0.20,0.00,0.00,0.00,0.00,819,819,819,819
7285,0,-0.01,-0.07,0.27,-1.00,0.11,0.20,-0.20,0.00,0.00,0.00,0.00,819,819,819,819
7291,0,-0.02,-0.07,0.27,-1.00,0.14,0.20,-0.20,0.00,0.00,0.00,0.00,819,819,819,819
7298,0,-0.02,-0.07,0.27,-1.00,0.12,0.20,-0.20,0.00,0.00,0.00,0.00,819,819,819,819
7303,0,-0.01,-0.06,0.27,-1.00,0.13,0.20,-0.20,0.00,0.00,0.00,0.00,819,819,819,819
7309,0,-0.01,-0.06,0.27,-1.00,0.12,0.20,-0.20,0.00,0.00,0.00,0.00,819,819,819,819
7314,0,-0.01,-0.06,0.27,-1.00,0.12,0.20,-0.20,0.00,0.00,0.00,0.00,819,819,819,819
7320,0,-0.01,-0.06,0.26,-1.00,0.10,0.20,-0.20,0.00,0.00,0.00,0.00,819,819,819,819
7326,0,-0.01,-0.06,0.26,-1.00,0.09,0.20,-0.20,0.00,0.00,0.00,0.00,819,819,819,819
7332,0,-0.01,-0.06,0.26,-1.00,0.09,0.20,-0.20,0.00,0.00,0.00,0.00,819,819,819,819
7338,0,-0.01,-0.06,0.26,-1.00,0.08,0.20,-0.20,0.00,0.00,0.00,0.00,819,819,819,819
7344,0,-0.00,-0.06,0.26,-1.00,0.06,0.20,-0.20,0.00,0.00,0.00,0.00,819,819,819,819
7350,0,-0.00,-0.06,0.26,-1.00,0.05,0.20,-0.20,0.00,0.00,0.00,0.00,819,819,819,819
7355,0,-0.00,-0.06,0.26,-1.00,0.05,0.20,-0.20,0.00,0.00,0.00,0.00,819,819,819,819
7361,0,-0.00,-0.06,0.26,-1.00,0.04,0.20,-0.20,0.00,0.00,0.00,0.00,819,819,819,819
7366,0,-0.00,-0.06,0.26,-1.00,0.04,0.20,-0.20,0.00,0.00,0.00,0.00,819,819,819,819
7371,0,-0.00,-0.07,0.26,-1.00,0.03,0.20,-0.20,0.00,0.00,0.00,0.00,819,819,819,819
7378,0,-0.00,-0.07,0.26,-1.00,0.03,0.20,-0.20,0.00,0.00,0.00,0.00,819,819,819,819
7384,0,-0.00,-0.07,0.26,-1.00,0.02,0.20,-0.20,0.00,0.00,0.00,0.00,819,819,819,819
7389,0,-0.00,-0.07,0.26,-1.00,0.02,0.20,-0.20,0.00,0.00,0.00,0.00,819,819,819,819
7396,0,-0.00,-0.07,0.26,-1.00,0.02,0.20,-0.20,0.00,0.00,0.00,0.00,819,819,819,819
7401,0,-0.00,-0.07,0.26,-1.00,0.01,0.20,-0.20,0.00,0.00,0.00,0.00,819,819,819,819
7407,0,-0.00,-0.07,0.26,-1.00,0.01,0.20,-0.20,0.00,0.00,0.00,0.00,819,819,819,819
7414,0,0.00,-0.07,0.26,-1.00,0.00,0.20,-0.20,0.00,0.00,0.00,0.00,819,819,819,819
7420,0,0.00,-0.07,0.25,-1.00,-0.01,0.20,-0.20,0.00,0.00,0.00,0.00,819,819,819,819
7426,0,0.00,-0.07,0.25,-1.00,-0.00,0.20,-0.20,0.00,0.00,0.00,0.00,819,819,819,819
7432,0,0.00,-0.08,0.25,-1.00,-0.04,0.20,-0.20,0.00,0.00,0.00,0.00,819,819,819,819
7438,0,0.00,-0.08,0.25,-1.00,-0.04,0.20,-0.20,0.00,0.00,0.00,0.00,819,819,819,819
7444,0,0.00,-0.08,0.25,-1.00,-0.06,0.20,-0.20,0.00,0.00,0.00,0.00,819,819,819,819
7450,0,0.01,-0.08,0.25,-1.00,-0.09,0.20,-0.20,0.00,0.00,0.00,0.00,819,819,819,819
7456,0,0.01,-0.08,0.25,-1.00,-0.09,0.20,-0.20,0.00,0.00,0.00,0.00,819,819,819,819
7461,0,0.01,-0.08,0.25,-1.00,-0.11,0.20,-0.20,0.00,0.00,0.00,0.00,819,819,819,819
7467,0,0.01,-0.08,0.25,-1.00,-0.11,0.20,-0.20,0.00,0.00,0.00,0.00,819,819,819,819
7472,0,0.01,-0.08,0.25,-1.00,-0.12,0.20,-0.20,0.00,0.00,0.00,0.00,819,819,819,819
7479,0,0.01,-0.08,0.25,-1.00,-0.10,0.20,-0.20,0.00,0.00,0.00,0.00,819,819,819,819
7485,0,0.01,-0.08,0.25,-1.00,-0.11,0.20,-0.20,0.00,0.00,0.00,0.00,819,819,819,819
7491,0,0.01,-0.09,0.25,-1.00,-0.12,0.20,-0.20,0.00,0.00,0.00,0.00,819,819,819,819
7497,0,0.01,-0.09,0.25,-1.00,-0.10,0.20,-0.20,0.00,0.00,0.00,0.00,819,819,819,819
7503,0,0.01,-0.09,0.25,-1.00,-0.12,0.20,-0.20,0.00,0.00,0.00,0.00,819,819,819,819
7508,0,0.01,-0.09,0.25,-1.00,-0.12,0.20,-0.20,0.00,0.00,0.00,0.00,819,819,819,819
7514,0,0.01,-0.09,0.25,-1.00,-0.11,0.20,-0.20,0.00,0.00,0.00,0.00,819,819,819,819
7520,0,0.01,-0.09,0.25,-1.00,-0.10,0.20,-0.20,0.00,0.00,0.00,0.00,819,819,819,819
7526,0,0.01,-0.09,0.25,-1.00,-0.10,0.20,-0.20,0.00,0.00,0.00,0.00,819,819,819,819
7532,0,0.01,-0.09,0.25,-1.00,-0.12,0.20,-0.20,0.00,0.00,0.00,0.00,819,819,819,819
7538,0,0.01,-0.09,0.25,-1.00,-0.10,0.20,-0.20,0.00,0.00,0.00,0.00,819,819,819,819
7545,0,0.01,-0.09,0.25,-1.00,-0.09,0.20,-0.20,0.00,0.00,0.00,0.00,819,819,819,819
7550,0,0.01,-0.09,0.25,-1.00,-0.10,0.20,-0.20,0.00,0.00,0.00,0.00,819,819,819,819
7556,0,0.01,-0.09,0.25,-1.00,-0.10,0.20,-0.20,0.00,0.00,0.00,0.00,819,819,819,819
7562,0,0.00,-0.09,0.25,-1.00,-0.08,0.20,-0.20,0.00,0.00,0.00,0.00,819,819,819,819
7567,0,0.00,-0.09,0.25,-1.00,-0.08,0.20,-0.20,0.00,0.00,0.00,0.00,819,819,819,819
7573,0,0.00,-0.09,0.25,-1.00,-0.06,0.20,-0.20,0.00,0.00,0.00,0.00,819,819,819,819
7579,0,0.00,-0.09,0.25,-1.00,-0.05,0.20,-0.20,0.00,0.00,0.00,0.00,819,819,819,819
7586,0,0.00,-0.09,0.25,-1.00,-0.04,0.20,-0.20,0.00,0.00,0.00,0.00,819,819,819,819
7591,0,0.00,-0.09,0.25,-1.00,-0.04,0.20,-0.20,0.00,0.00,0.00,0.00,819,819,819,819
7601,0,0.00,-0.09,0.25,-1.00,-0.02,0.20,-0.20,0.00,0.00,0.00,0.00,819,819,819,819
7607,0,0.00,-0.09,0.25,-1.00,-0.04,0.20,-0.20,0.00,0.00,0.00,0.00,819,819,819,819
7613,0,0.00,-0.09,0.25,-1.00,-0.02,0.20,-0.20,0.00,0.00,0.00,0.00,819,819,819,819
7618,0,0.00,-0.09,0.25,-1.00,-0.02,0.20,-0.20,0.00,0.00,0.00,0.00,819,819,819,819
7624,0,0.00,-0.09,0.25,-1.00,0.00,0.20,-0.20,0.00,0.00,0.00,0.00,819,819,819,819
7630,0,0.00,-0.09,0.25,-1.00,0.00,0.20,-0.20,0.00,0.00,0.00,0.00,819,819,819,819
7636,0,-0.00,-0.09,0.25,-1.00,0.00,0.20,-0.20,0.00,0.00,0.00,0.00,819,819,819,819
7642,0,-0.00,-0.08,0.25,-1.00,0.02,0.20,-0.20,0.00,0.00,0.00,0.00,819,819,819,819
7648,0,-0.00,-0.08,0.25,-1.00,0.02,0.20,-0.20,0.00,0.00,0.00,0.00,819,819,819,819
7654,0,-0.00,-0.08,0.25,-1.00,0.03,0.20,-0.20,0.00,0.00,0.00,0.00,819,819,819,819
7660,0,-0.00,-0.08,0.25,-1.00,0.03,0.20,-0.20,0.00,0.00,0.00,0.00,819,819,819,819
7665,0,-0.00,-0.08,0.25,-1.00,0.02,0.20,-0.20,0.00,0.00,0.00,0.00,819,819,819,819
7670,0,-0.00,-0.08,0.25,-1.00,0.02,0.20,-0.20,0.00,0.00,0.00,0.00,819,819,819,819
7677,0,-0.00,-0.08,0.25,-1.00,0.02,0.20,-0.20,0.00,0.00,0.00,0.00,819,819,819,819
7682,0,-0.00,-0.08,0.25,-1.00,0.01,0.20,-0.20,0.00,0.00,0.00,0.00,819,819,819,819
7688,0,-0.00,-0.08,0.25,-1.00,0.00,0.20,-0.20,0.00,0.00,0.00,0.00,819,819,819,819
7694,0,-0.00,-0.08,0.25,-1.00,0.01,0.20,-0.20,0.00,0.00,0.00,0.00,819,819,819,819
7700,0,-0.00,-0.08,0.25,-1.00,0.00,0.20,-0.20,0.00,0.00,0.00,0.00,819,819,819,819
7706,0,0.00,-0.08,0.25,-1.00,0.00,0.20,-0.20,0.00,0.00,0.00,0.00,819,819,819,819
7711,0,0.00,-0.08,0.25,-1.00,0.00,0.20,-0.20,0.00,0.00,0.00,0.00,819,819,819,819
7717,0,0.00,-0.08,0.25,-1.00,0.00,0.20,-0.20,0.00,0.00,0.00,0.00,819,819,819,819
7722,0,0.00,-0.08,0.24,-1.00,0.00,0.20,-0.20,0.00,0.00,0.00,0.00,819,819,819,819
7729,0,0.00,-0.08,0.24,-1.00,0.00,0.20,-0.20,0.00,0.00,0.00,0.00,819,819,819,819
7735,0,0.00,-0.08,0.24,-1.00,-0.00,0.20,-0.20,0.00,0.00,0.00,0.00,819,819,819,819
7741,0,0.00,-0.08,0.24,-1.00,-0.03,0.20,-0.20,0.00,0.00,0.00,0.00,819,819,819,819
7747,0,0.00,-0.08,0.24,-1.00,-0.03,0.20,-0.20,0.00,0.00,0.00,0.00,819,819,819,819
7753,0,0.00,-0.08,0.24,-1.00,-0.06,0.20,-0.20,0.00,0.00,0.00,0.00,819,819,819,819
7758,0,0.00,-0.08,0.24,-1.00,-0.06,0.20,-0.20,0.00,0.00,0.00,0.00,819,819,819,819
7764,0,0.01,-0.08,0.24,-1.00,-0.09,0.20,-0.20,0.00,0.00,0.00,0.00,819,819,819,819
7770,0,0.01,-0.08,0.24,-1.00,-0.08,0.20,-0.20,0.00,0.00,0.00,0.00,819,819,819,819
7776,0,0.01,-0.08,0.24,-1.00,-0.11,0.20,-0.20,0.00,0.00,0.00,0.00,819,819,819,819
7784,0,0.02,-0.08,0.24,-1.00,-0.12,0.20,-0.20,0.00,0.00,0.00,0.00,819,819,819,819
7790,0,0.02,-0.08,0.24,-1.00,-0.14,0.20,-0.20,0.00,0.00,0.00,0.00,819,819,819,819
7797,0,0.02,-0.08,0.24,-1.00,-0.17,0.20,-0.20,0.00,0.00,0.00,0.00,819,819,819,819
7802,0,0.02,-0.08,0.24,-1.00,-0.20,0.20,-0.20,0.00,0.00,0.00,0.00,819,819,819,819
7808,0,0.02,-0.08,0.24,-1.00,-0.20,0.20,-0.20,0.00,0.00,0.00,0.00,819,819,819,819
7813,0,0.03,-0.08,0.24,-1.00,-0.20,0.20,-0.20,0.00,0.00,0.00,0.00,819,819,819,819
7819,0,0.03,-0.08,0.24,-1.00,-0.20,0.20,-0.20,0.00,0.00,0.00,0.00,819,819,819,819
7825,0,0.03,-0.09,0.24,-1.00,-0.20,0.20,-0.20,0.00,0.00,0.00,0.00,819,819,819,819
7831,0,0.03,-0.09,0.24,-1.00,-0.20,0.20,-0.20,0.00,0.00,0.00,0.00,819,819,819,819
7837,0,0.03,-0.09,0.24,-1.00,-0.20,0.20,-0.20,0.00,0.00,0.00,0.00,819,819,819,819
7843,0,0.03,-0.09,0.24,-1.00,-0.20,0.20,-0.20,0.00,0.00,0.00,0.00,819,819,819,819
7849,0,0.03,-0.09,0.24,-1.00,-0.20,0.20,-0.20,0.00,0.00,0.00,0.00,819,819,819,819
7855,0,0.03,-0.08,0.24,-1.00,-0.20,0.20,-0.20,0.00,0.00,0.00,0.00,819,819,819,819
7861,0,0.03,-0.08,0.24,-1.00,-0.20,0.20,-0.20,0.00,0.00,0.00,0.00,819,819,819,819
7866,0,0.03,-0.08,0.23,-1.00,-0.20,0.20,-0.20,0.00,0.00,0.00,0.00,819,819,819,819
7872,0,0.03,-0.08,0.23,-1.00,-0.20,0.20,-0.20,0.00,0.00,0.00,0.00,819,819,819,819
7878,0,0.03,-0.08,0.23,-1.00,-0.20,0.20,-0.20,0.00,0.00,0.00,0.00,819,819,819,819
7884,0,0.03,-0.08,0.23,-1.00,-0.20,0.20,-0.20,0.00,0.00,0.00,0.00,819,819,819,819
7890,0,0.03,-0.08,0.23,-1.00,-0.20,0.20,-0.20,0.00,0.00,0.00,0.00,819,819,819,819
7897,0,0.03,-0.07,0.23,-1.00,-0.20,0.20,-0.20,0.00,0.00,0.00,0.00,819,819,819,819
7903,0,0.03,-0.07,0.23,-1.00,-0.20,0.20,-0.20,0.00,0.00,0.00,0.00,819,819,819,819
7908,0,0.03,-0.07,0.23,-1.00,-0.20,0.20,-0.20,0.00,0.00,0.00,0.00,819,819,819,819
7914,0,0.02,-0.07,0.23,-1.00,-0.20,0.20,-0.20,0.00,0.00,0.00,0.00,819,819,819,819
7919,0,0.02,-0.07,0.23,-1.00,-0.20,0.20,-0.20,0.00,0.00,0.00,0.00,819,819,819,819
7925,0,0.02,-0.07,0.23,-1.00,-0.17,0.20,-0.20,0.00,0.00,0.00,0.00,819,819,819,819
7931,0,0.02,-0.07,0.23,-1.00,-0.17,0.20,-0.20,0.00,0.00,0.00,0.00,819,819,819,819
7937,0,0.02,-0.06,0.23,-1.00,-0.14,0.20,-0.20,0.00,0.00,0.00,0.00,819,819,819,819
7942,0,0.02,-0.06,0.23,-1.00,-0.14,0.20,-0.20,0.00,0.00,0.00,0.00,819,819,819,819
7949,0,0.02,-0.06,0.23,-1.00,-0.11,0.20,-0.20,0.00,0.00,0.00,0.00,819,819,819,819
7955,0,0.01,-0.06,0.23,-1.00,-0.13,0.20,-0.20,0.00,0.00,0.00,0.00,819,819,819,819
7961,0,0.01,-0.06,0.23,-1.00,-0.13,0.20,-0.20,0.00,0.00,0.00,0.00,819,819,819,819
7968,0,0.01,-0.06,0.23,-1.00,-0.10,0.20,-0.20,0.00,0.00,0.00,0.00,819,819,819,819
7973,0,0.01,-0.06,0.23,-1.00,-0.13,0.20,-0.20,0.00,0.00,0.00,0.00,819,819,819,819
7980,0,0.01,-0.06,0.23,-1.00,-0.11,0.20,-0.20,0.00,0.00,0.00,0.00,819,819,819,819
7986,0,0.01,-0.06,0.23,-1.00,-0.11,0.20,-0.20,0.00,0.00,0.00,0.00,819,819,819,819
7991,0,0.01,-0.06,0.23,-1.00,-0.13,0.20,-0.20,0.00,0.00,0.00,0.00,819,819,819,819
7998,0,0.01,-0.06,0.23,-1.00,-0.11,0.20,-0.20,0.00,0.00,0.00,0.00,819,819,819,819
8004,0,0.02,-0.06,0.23,-1.00,-0.14,0.20,-0.20,0.00,0.00,0.00,0.00,819,819,819,819
8009,0,0.02,-0.06,0.23,-1.00,-0.14,0.20,-0.20,0.00,0.00,0.00,0.00,819,819,819,819
8015,0,0.02,-0.06,0.23,-1.00,-0.15,0.20,-0.20,0.00,0.00,0.00,0.00,819,819,819,819
8021,0,0.02,-0.06,0.23,-1.00,-0.14,0.20,-0.20,0.00,0.00,0.00,0.00,819,819,819,819
8027,0,0.02,-0.06,0.23,-1.00,-0.14,0.20,-0.20,0.00,0.00,0.00,0.00,819,819,819,819
8033,0,0.02,-0.06,0.23,-1.00,-0.16,0.20,-0.20,0.00,0.00,0.00,0.00,819,819,819,819
8039,0,0.02,-0.06,0.23,-1.00,-0.14,0.20,-0.20,0.00,0.00,0.00,0.00,819,819,819,819
8045,0,0.02,-0.06,0.23,-1.00,-0.14,0.20,-0.20,0.00,0.00,0.00,0.00,819,819,819,819
8051,0,0.02,-0.06,0.24,-1.00,-0.15,0.20,-0.20,0.00,0.00,0.00,0.00,819,819,819,819
8057,0,0.02,-0.06,0.24,-1.00,-0.17,0.20,-0.20,0.00,0.00,0.00,0.00,819,819,819,819
8062,0,0.02,-0.07,0.24,-1.00,-0.19,0.20,-0.20,0.00,0.00,0.00,0.00,819,819,819,819
8068,0,0.02,-0.07,0.24,-1.00,-0.19,0.20,-0.20,0.00,0.00,0.00,0.00,819,819,819,819
8074,0,0.02,-0.07,0.24,-1.00,-0.20,0.20,-0.20,0.00,0.00,0.00,0.00,819,819,819,819
8080,0,0.02,-0.07,0.24,-1.00,-0.19,0.20,-0.20,0.00,0.00,0.00,0.00,819,819,819,819
8087,0,0.03,-0.07,0.24,-1.00,-0.20,0.20,-0.20,0.00,0.00,0.00,0.00,819,819,819,819
8092,0,0.03,-0.07,0.24,-1.00,-0.20,0.20,-0.20,0.00,0.00,0.00,0.00,819,819,819,819
8099,0,0.03,-0.07,0.24,-1.00,-0.20,0.20,-0.20,0.00,0.00,0.00,0.00,819,819,819,819
8104,0,0.03,-0.07,0.24,-1.00,-0.20,0.20,-0.20,0.00,0.00,0.00,0.00,819,819,819,819
8110,0,0.03,-0.07,0.24,-1.00,-0.20,0.20,-0.20,0.00,0.00,0.00,0.00,819,819,819,819
8115,0,0.03,-0.07,0.24,-1.00,-0.20,0.20,-0.20,0.00,0.00,0.00,0.00,819,819,819,819
8121,0,0.03,-0.07,0.24,-1.00,-0.20,0.20,-0.20,0.00,0.00,0.00,0.00,819,819,819,819
8128,0,0.03,-0.08,0.24,-1.00,-0.20,0.20,-0.20,0.00,0.00,0.00,0.00,819,819,819,819
8133,0,0.04,-0.08,0.24,-1.00,-0.20,0.20,-0.20,0.00,0.00,0.00,0.00,819,819,819,819
8140,0,0.04,-0.08,0.24,-1.00,-0.20,0.20,-0.20,0.00,0.00,0.00,0.00,819,819,819,819
8146,0,0.04,-0.08,0.24,-1.00,-0.20,0.20,-0.20,0.00,0.00,0.00,0.00,819,819,819,819
8153,0,0.05,-0.08,0.24,-1.00,-0.20,0.20,-0.20,0.00,0.00,0.00,0.00,819,819,819,819
8159,0,0.05,-0.08,0.24,-1.00,-0.20,0.20,-0.20,0.00,0.00,0.00,0.00,819,819,819,819
8164,0,0.06,-0.08,0.24,-1.00,-0.20,0.20,-0.20,0.00,0.00,0.00,0.00,819,819,819,819
8170,0,0.06,-0.08,0.24,-1.00,-0.20,0.20,-0.20,0.00,0.00,0.00,0.00,819,819,819,819
8177,0,0.06,-0.09,0.24,-1.00,-0.20,0.20,-0.20,0.00,0.00,0.00,0.00,819,819,819,819
8182,0,0.07,-0.09,0.24,-1.00,-0.20,0.20,-0.20,0.00,0.00,0.00,0.00,819,819,819,819
8189,0,0.07,-0.09,0.24,-1.00,-0.20,0.20,-0.20,0.00,0.00,0.00,0.00,819,819,819,819
8194,0,0.07,-0.09,0.24,-1.00,-0.20,0.20,-0.20,0.00,0.00,0.00,0.00,819,819,819,819
8201,0,0.07,-0.09,0.24,-1.00,-0.20,0.20,-0.20,0.00,0.00,0.00,0.00,819,819,819,819
8206,0,0.07,-0.09,0.24,-1.00,-0.20,0.20,-0.20,0.00,0.00,0.00,0.00,819,819,819,819
8212,0,0.07,-0.09,0.24,-1.00,-0.20,0.20,-0.20,0.00,0.00,0.00,0.00,819,819,819,819
8217,0,0.07,-0.09,0.24,-1.00,-0.20,0.20,-0.20,0.00,0.00,0.00,0.00,819,819,819,819
8223,0,0.07,-0.09,0.24,-1.00,-0.20,0.20,-0.20,0.00,0.00,0.00,0.00,819,819,819,819
8229,0,0.07,-0.09,0.24,-1.00,-0.20,0.20,-0.20,0.00,0.00,0.00,0.00,819,819,819,819
8234,0,0.07,-0.08,0.24,-1.00,-0.20,0.20,-0.20,0.00,0.00,0.00,0.00,819,819,819,819
8243,0,0.07,-0.08,0.24,-1.00,-0.20,0.20,-0.20,0.00,0.00,0.00,0.00,819,819,819,819
8249,0,0.07,-0.08,0.24,-1.00,-0.20,0.20,-0.20,0.00,0.00,0.00,0.00,819,819,819,819
8254,0,0.07,-0.08,0.24,-1.00,-0.20,0.20,-0.20,0.00,0.00,0.00,0.00,819,819,819,819
8260,0,0.07,-0.08,0.24,-1.00,-0.20,0.20,-0.20,0.00,0.00,0.00,0.00,819,819,819,819
8265,0,0.07,-0.08,0.24,-1.00,-0.20,0.20,-0.20,0.00,0.00,0.00,0.00,819,819,819,819
8270,0,0.07,-0.08,0.24,-1.00,-0.20,0.20,-0.20,0.00,0.00,0.00,0.00,819,819,819,819
8276,0,0.07,-0.08,0.24,-1.00,-0.20,0.20,-0.20,0.00,0.00,0.00,0.00,819,819,819,819
8282,0,0.07,-0.08,0.24,-1.00,-0.20,0.20,-0.20,0.00,0.00,0.00,0.00,819,819,819,819
8288,0,0.07,-0.08,0.24,-1.00,-0.20,0.20,-0.20,0.00,0.00,0.00,0.00,819,819,819,819
8294,0,0.07,-0.08,0.24,-1.00,-0.20,0.20,-0.20,0.00,0.00,0.00,0.00,819,819,819,819
8301,0,0.07,-0.08,0.24,-1.00,-0.20,0.20,-0.20,0.00,0.00,0.00,0.00,819,819,819,819
8306,0,0.07,-0.08,0.24,-1.00,-0.20,0.20,-0.20,0.00,0.00,0.00,0.00,819,819,819,819
8312,0,0.07,-0.08,0.24,-1.00,-0.20,0.20,-0.20,0.00,0.00,0.00,0.00,819,819,819,819
8317,0,0.07,-0.08,0.24,-1.00,-0.20,0.20,-0.20,0.00,0.00,0.00,0.00,819,819,819,819
8323,0,0.07,-0.08,0.24,-1.00,-0.20,0.20,-0.20,0.00,0.00,0.00,0.00,819,819,819,819
8331,0,0.07,-0.08,0.24,-1.00,-0.20,0.20,-0.20,0.00,0.00,0.00,0.00,819,819,819,819
8338,0,0.07,-0.08,0.24,-1.00,-0.20,0.20,-0.20,0.00,0.00,0.00,0.00,819,819,819,819
8343,0,0.07,-0.08,0.24,-1.00,-0.20,0.20,-0.20,0.00,0.00,0.00,0.00,819,819,819,819
8350,0,0.07,-0.08,0.24,-1.00,-0.20,0.20,-0.20,0.00,0.00,0.00,0.00,819,819,819,819
8355,0,0.07,-0.08,0.24,-1.00,-0.20,0.20,-0.20,0.00,0.00,0.00,0.00,819,819,819,819
8361,0,0.07,-0.08,0.24,-1.00,-0.20,0.20,-0.20,0.00,0.00,0.00,0.00,819,819,819,819
8366,0,0.07,-0.08,0.25,-1.00,-0.20,0.20,-0.20,0.00,0.00,0.00,0.00,819,819,819,819
8372,0,0.07,-0.08,0.25,-1.00,-0.20,0.20,-0.20,0.00,0.00,0.00,0.00,819,819,819,819
8379,0,0.07,-0.08,0.25,-1.00,-0.20,0.20,-0.20,0.00,0.00,0.00,0.00,819,819,819,819
8384,0,0.07,-0.09,0.25,-1.00,-0.20,0.20,-0.20,0.00,0.00,0.00,0.00,819,819,819,819
8391,0,0.07,-0.09,0.25,-1.00,-0.20,0.20,-0.20,0.00,0.00,0.00,0.00,819,819,819,819
8397,0,0.07,-0.09,0.25,-1.00,-0.20,0.20,-0.20,0.00,0.00,0.00,0.00,819,819,819,819
8403,0,0.07,-0.09,0.26,-1.00,-0.20,0.20,-0.20,0.00,0.00,0.00,0.00,819,819,819,819
8408,0,0.07,-0.09,0.26,-1.00,-0.20,0.20,-0.20,0.00,0.00,0.00,0.00,819,819,819,819
8414,0,0.07,-0.09,0.26,-1.00,-0.20,0.20,-0.20,0.00,0.00,0.00,0.00,819,819,819,819
8419,0,0.07,-0.09,0.26,-1.00,-0.20,0.20,-0.20,0.00,0.00,0.00,0.00,819,819,819,819
8425,0,0.07,-0.10,0.27,-1.00,-0.20,0.20,-0.20,0.00,0.00,0.00,0.00,819,819,819,819
8431,0,0.07,-0.10,0.27,-1.00,-0.20,0.20,-0.20,0.00,0.00,0.00,0.00,819,819,819,819
8438,0,0.07,-0.10,0.27,-1.00,-0.20,0.20,-0.20,0.00,0.00,0.00,0.00,819,819,819,819
8444,0,0.07,-0.10,0.27,-1.00,-0.20,0.20,-0.20,0.00,0.00,0.00,0.00,819,819,819,819
8450,0,0.07,-0.10,0.27,-1.00,-0.20,0.20,-0.20,0.00,0.00,0.00,0.00,819,819,819,819
8456,0,0.08,-0.11,0.27,-1.00,-0.20,0.20,-0.20,0.00,0.00,0.00,0.00,819,819,819,819
8461,0,0.08,-0.11,0.27,-1.00,-0.20,0.20,-0.20,0.00,0.00,0.00,0.00,819,819,819,819
8467,0,0.08,-0.11,0.28,-1.00,-0.20,0.20,-0.20,0.00,0.00,0.00,0.00,819,819,819,819
8473,0,0.07,-0.11,0.28,-1.00,-0.20,0.20,-0.20,0.00,0.00,0.00,0.00,819,819,819,819
8479,0,0.07,-0.11,0.28,-1.00,-0.20,0.20,-0.20,0.00,0.00,0.00,0.00,819,819,819,819
8485,0,0.07,-0.11,0.29,-1.00,-0.20,0.20,-0.20,0.00,0.00,0.00,0.00,819,819,819,819
8491,0,0.07,-0.11,0.29,-1.00,-0.20,0.20,-0.20,0.00,0.00,0.00,0.00,819,819,819,819
8497,0,0.07,-0.11,0.29,-1.00,-0.20,0.20,-0.20,0.00,0.00,0.00,0.00,819,819,819,819
8503,0,0.07,-0.11,0.29,-1.00,-0.20,0.20,-0.20,0.00,0.00,0.00,0.00,819,819,819,819
8508,0,0.07,-0.11,0.29,-1.00,-0.20,0.20,-0.20,0.00,0.00,0.00,0.00,819,819,819,819
8515,0,0.06,-0.11,0.29,-1.00,-0.20,0.20,-0.20,0.00,0.00,0.00,0.00,819,819,819,819
8520,0,0.06,-0.11,0.29,-1.00,-0.20,0.20,-0.20,0.00,0.00,0.00,0.00,819,819,819,819
8526,0,0.06,-0.11,0.29,-1.00,-0.20,0.20,-0.20,0.00,0.00,0.00,0.00,819,819,819,819
8532,0,0.06,-0.11,0.29,-1.00,-0.20,0.20,-0.20,0.00,0.00,0.00,0.00,819,819,819,819
8538,0,0.06,-0.11,0.29,-1.00,-0.20,0.20,-0.20,0.00,0.00,0.00,0.00,819,819,819,819
8543,0,0.06,-0.11,0.29,-1.00,-0.20,0.20,-0.20,0.00,0.00,0.00,0.00,819,819,819,819
8550,0,0.06,-0.11,0.29,-1.00,-0.20,0.20,-0.20,0.00,0.00,0.00,0.00,819,819,819,819
8555,0,0.06,-0.11,0.29,-1.00,-0.20,0.20,-0.20,0.00,0.00,0.00,0.00,819,819,819,819
8560,0,0.06,-0.11,0.29,-1.00,-0.20,0.20,-0.20,0.00,0.00,0.00,0.00,819,819,819,819
8565,0,0.06,-0.11,0.29,-1.00,-0.20,0.20,-0.20,0.00,0.00,0.00,0.00,819,819,819,819
8571,0,0.06,-0.11,0.29,-1.00,-0.20,0.20,-0.20,0.00,0.00,0.00,0.00,819,819,819,819
8577,0,0.06,-0.11,0.29,-1.00,-0.20,0.20,-0.20,0.00,0.00,0.00,0.00,819,819,819,819
8583,0,0.06,-0.11,0.29,-1.00,-0.20,0.20,-0.20,0.00,0.00,0.00,0.00,819,819,819,819
8589,0,0.07,-0.11,0.28,-1.00,-0.20,0.20,-0.20,0.00,0.00,0.00,0.00,819,819,819,819
8595,0,0.07,-0.11,0.28,-1.00,-0.20,0.20,-0.20,0.00,0.00,0.00,0.00,819,819,819,819
8601,0,0.07,-0.11,0.28,-1.00,-0.20,0.20,-0.20,0.00,0.00,0.00,0.00,819,819,819,819
8607,0,0.07,-0.12,0.28,-1.00,-0.20,0.20,-0.20,0.00,0.00,0.00,0.00,819,819,819,819
8613,0,0.07,-0.12,0.28,-1.00,-0.20,0.20,-0.20,0.00,0.00,0.00,0.00,819,819,819,819
8618,0,0.07,-0.12,0.28,-1.00,-0.20,0.20,-0.20,0.00,0.00,0.00,0.00,819,819,819,819
8624,0,0.07,-0.11,0.27,-1.00,-0.20,0.20,-0.20,0.00,0.00,0.00,0.00,819,819,819,819
8630,0,0.07,-0.11,0.27,-1.00,-0.20,0.20,-0.20,0.00,0.00,0.00,0.00,819,819,819,819
8636,0,0.07,-0.11,0.27,-1.00,-0.20,0.20,-0.20,0.00,0.00,0.00,0.00,819,819,819,819
8642,0,0.07,-0.11,0.27,-1.00,-0.20,0.20,-0.20,0.00,0.00,0.00,0.00,819,819,819,819
8734,0,0.04,-0.10,0.25,-1.00,-0.03,0.07,-0.16,0.00,0.00,0.00,0.00,819,819,819,819
8743,0,0.04,-0.10,0.25,-1.00,-0.20,0.20,-0.20,0.00,0.00,0.00,0.00,819,819,819,819
8749,0,0.04,-0.10,0.24,-1.00,-0.20,0.20,-0.20,0.00,0.00,0.00,0.00,819,819,819,819
8755,0,0.04,-0.10,0.24,-1.00,-0.20,0.20,-0.20,0.00,0.00,0.00,0.00,819,819,819,819
8761,0,0.04,-0.10,0.24,-1.00,-0.20,0.20,-0.20,0.00,0.00,0.00,0.00,819,819,819,819
8766,0,0.04,-0.10,0.24,-1.00,-0.20,0.20,-0.20,0.00,0.00,0.00,0.00,819,819,819,819
8772,0,0.04,-0.10,0.24,-1.00,-0.20,0.20,-0.20,0.00,0.00,0.00,0.00,819,819,819,819
8778,0,0.04,-0.10,0.24,-1.00,-0.20,0.20,-0.20,0.00,0.00,0.00,0.00,819,819,819,819
8783,0,0.04,-0.10,0.24,-1.00,-0.20,0.20,-0.20,0.00,0.00,0.00,0.00,819,819,819,819
8790,0,0.04,-0.10,0.24,-1.00,-0.20,0.20,-0.20,0.00,0.00,0.00,0.00,819,819,819,819
8795,0,0.04,-0.10,0.24,-1.00,-0.20,0.20,-0.20,0.00,0.00,0.00,0.00,819,819,819,819
8802,0,0.04,-0.10,0.24,-1.00,-0.20,0.20,-0.20,0.00,0.00,0.00,0.00,819,819,819,819
8808,0,0.03,-0.10,0.24,-1.00,-0.20,0.20,-0.20,0.00,0.00,0.00,0.00,819,819,819,819
8813,0,0.03,-0.10,0.24,-1.00,-0.20,0.20,-0.20,0.00,0.00,0.00,0.00,819,819,819,819
8819,0,0.03,-0.10,0.24,-1.00,-0.20,0.20,-0.20,0.00,0.00,0.00,0.00,819,819,819,819
8824,0,0.03,-0.10,0.24,-1.00,-0.20,0.20,-0.20,0.00,0.00,0.00,0.00,819,819,819,819
8831,0,0.03,-0.10,0.24,-1.00,-0.20,0.20,-0.20,0.00,0.00,0.00,0.00,819,819,819,819
8837,0,0.03,-0.09,0.24,-1.00,-0.20,0.20,-0.20,0.00,0.00,0.00,0.00,819,819,819,819
8843,0,0.03,-0.09,0.24,-1.00,-0.20,0.20,-0.20,0.00,0.00,0.00,0.00,819,819,819,819
8850,0,0.03,-0.09,0.23,-1.00,-0.20,0.20,-0.20,0.00,0.00,0.00,0.00,819,819,819,819
8855,0,0.02,-0.09,0.23,-1.00,-0.20,0.20,-0.20,0.00,0.00,0.00,0.00,819,819,819,819
8861,0,0.02,-0.09,0.23,-1.00,-0.20,0.20,-0.20,0.00,0.00,0.00,0.00,819,819,819,819
8866,0,0.02,-0.09,0.23,-1.00,-0.20,0.20,-0.20,0.00,0.00,0.00,0.00,819,819,819,819
8872,0,0.02,-0.09,0.23,-1.00,-0.20,0.20,-0.20,0.00,0.00,0.00,0.00,819,819,819,819
8878,0,0.02,-0.09,0.23,-1.00,-0.17,0.20,-0.20,0.00,0.00,0.00,0.00,819,819,819,819
8884,0,0.02,-0.09,0.23,-1.00,-0.16,0.20,-0.20,0.00,0.00,0.00,0.00,819,819,819,819
8890,0,0.02,-0.09,0.23,-1.00,-0.15,0.20,-0.20,0.00,0.00,0.00,0.00,819,819,819,819
8895,0,0.02,-0.09,0.23,-1.00,-0.15,0.20,-0.20,0.00,0.00,0.00,0.00,819,819,819,819
8902,0,0.02,-0.09,0.23,-1.00,-0.13,0.20,-0.20,0.00,0.00,0.00,0.00,819,819,819,819
8907,0,0.01,-0.09,0.23,-1.00,-0.13,0.20,-0.20,0.00,0.00,0.00,0.00,819,819,819,819
8913,0,0.01,-0.09,0.23,-1.00,-0.12,0.20,-0.20,0.00,0.00,0.00,0.00,819,819,819,819
8922,0,0.01,-0.08,0.23,-1.00,-0.07,0.20,-0.20,0.00,0.00,0.00,0.00,819,819,819,819
8928,0,0.00,-0.08,0.23,-1.00,-0.07,0.20,-0.20,0.00,0.00,0.00,0.00,819,819,819,819
8934,0,0.00,-0.08,0.23,-1.00,-0.07,0.20,-0.20,0.00,0.00,0.00,0.00,819,819,819,819
8940,0,0.00,-0.08,0.23,-1.00,-0.05,0.20,-0.20,0.00,0.00,0.00,0.00,819,819,819,819
8945,0,0.00,-0.08,0.22,-1.00,-0.05,0.20,-0.20,0.00,0.00,0.00,0.00,819,819,819,819
8952,0,0.00,-0.08,0.22,-1.00,-0.04,0.20,-0.20,0.00,0.00,0.00,0.00,819,819,819,819
8957,0,0.00,-0.08,0.22,-1.00,-0.07,0.20,-0.20,0.00,0.00,0.00,0.00,819,819,819,819
8963,0,0.00,-0.08,0.22,-1.00,-0.07,0.20,-0.20,0.00,0.00,0.00,0.00,819,819,819,819
8968,0,0.01,-0.08,0.22,-1.00,-0.11,0.20,-0.20,0.00,0.00,0.00,0.00,819,819,819,819
8974,0,0.02,-0.08,0.21,-1.00,-0.15,0.20,-0.20,0.00,0.00,0.00,0.00,819,819,819,819
8981,0,0.02,-0.08,0.21,-1.00,-0.14,0.20,-0.20,0.00,0.00,0.00,0.00,819,819,819,819
8986,0,0.02,-0.08,0.21,-1.00,-0.19,0.20,-0.20,0.00,0.00,0.00,0.00,819,819,819,819
8993,0,0.02,-0.08,0.21,-1.00,-0.16,0.20,-0.20,0.00,0.00,0.00,0.00,819,819,819,819
8999,0,0.02,-0.08,0.21,-1.00,-0.18,0.20,-0.20,0.00,0.00,0.00,0.00,819,819,819,819
9005,0,0.03,-0.08,0.20,-1.00,-0.20,0.20,-0.20,0.00,0.00,0.00,0.00,819,819,819,819
9010,0,0.03,-0.08,0.20,-1.00,-0.20,0.20,-0.20,0.00,0.00,0.00,0.00,819,819,819,819
9016,0,0.03,-0.08,0.20,-1.00,-0.20,0.20,-0.20,0.00,0.00,0.00,0.00,819,819,819,819
9021,0,0.03,-0.08,0.20,-1.00,-0.20,0.20,-0.20,0.00,0.00,0.00,0.00,819,819,819,819
9026,0,0.03,-0.08,0.19,-1.00,-0.20,0.20,-0.20,0.00,0.00,0.00,0.00,819,819,819,819
9033,0,0.03,-0.08,0.19,-1.00,-0.20,0.20,-0.20,0.00,0.00,0.00,0.00,819,819,819,819
9039,0,0.04,-0.08,0.19,-1.00,-0.20,0.20,-0.20,0.00,0.00,0.00,0.00,819,819,819,819
9045,0,0.04,-0.08,0.19,-1.00,-0.20,0.20,-0.20,0.00,0.00,0.00,0.00,819,819,819,819
9051,0,0.04,-0.08,0.19,-1.00,-0.20,0.20,-0.20,0.00,0.00,0.00,0.00,819,819,819,819
9057,0,0.04,-0.07,0.19,-1.00,-0.20,0.20,-0.20,0.00,0.00,0.00,0.00,819,819,819,819
9062,0,0.04,-0.07,0.19,-1.00,-0.20,0.20,-0.20,0.00,0.00,0.00,0.00,819,819,819,819
9068,0,0.05,-0.07,0.18,-1.00,-0.20,0.20,-0.20,0.00,0.00,0.00,0.00,819,819,819,819
9074,0,0.05,-0.07,0.18,-1.00,-0.20,0.20,-0.20,0.00,0.00,0.00,0.00,819,819,819,819
9080,0,0.06,-0.07,0.18,-1.00,-0.20,0.20,-0.20,0.00,0.00,0.00,0.00,819,819,819,819
9086,0,0.07,-0.07,0.18,-1.00,-0.20,0.20,-0.20,0.00,0.00,0.00,0.00,819,819,819,819
9093,0,0.07,-0.07,0.18,-1.00,-0.20,0.20,-0.20,0.00,0.00,0.00,0.00,819,819,819,819
9099,0,0.07,-0.07,0.18,-1.00,-0.20,0.20,-0.20,0.00,0.00,0.00,0.00,819,819,819,819
9106,0,0.07,-0.07,0.18,-1.00,-0.20,0.20,-0.20,0.00,0.00,0.00,0.00,819,819,819,819
9112,0,0.07,-0.07,0.18,-1.00,-0.20,0.20,-0.20,0.00,0.00,0.00,0.00,819,819,819,819
9117,0,0.08,-0.07,0.17,-1.00,-0.20,0.20,-0.20,0.00,0.00,0.00,0.00,819,819,819,819
9123,0,0.08,-0.07,0.17,-1.00,-0.20,0.20,-0.20,0.00,0.00,0.00,0.00,819,819,819,819
9129,0,0.09,-0.07,0.17,-1.00,-0.20,0.20,-0.20,0.00,0.00,0.00,0.00,819,819,819,819
9135,0,0.09,-0.07,0.17,-1.00,-0.20,0.20,-0.20,0.00,0.00,0.00,0.00,819,819,819,819
9142,0,0.09,-0.07,0.17,-1.00,-0.20,0.20,-0.20,0.00,0.00,0.00,0.00,819,819,819,819
9147,0,0.10,-0.07,0.17,-1.00,-0.20,0.20,-0.20,0.00,0.00,0.00,0.00,819,819,819,819
9154,0,0.10,-0.07,0.17,-1.00,-0.20,0.20,-0.20,0.00,0.00,0.00,0.00,819,819,819,819
9159,0,0.10,-0.07,0.17,-1.00,-0.20,0.20,-0.20,0.00,0.00,0.00,0.00,819,819,819,819
9165,0,0.10,-0.07,0.17,-1.00,-0.20,0.20,-0.20,0.00,0.00,0.00,0.00,819,819,819,819
9170,0,0.10,-0.07,0.17,-1.00,-0.20,0.20,-0.20,0.00,0.00,0.00,0.00,819,819,819,819
9175,0,0.10,-0.07,0.17,-1.00,-0.20,0.20,-0.20,0.00,0.00,0.00,0.00,819,819,819,819
9181,0,0.10,-0.07,0.17,-1.00,-0.20,0.20,-0.20,0.00,0.00,0.00,0.00,819,819,819,819
9187,0,0.10,-0.07,0.17,-1.00,-0.20,0.20,-0.20,0.00,0.00,0.00,0.00,819,819,819,819
9193,0,0.10,-0.07,0.17,-1.00,-0.20,0.20,-0.20,0.00,0.00,0.00,0.00,819,819,819,819
9199,0,0.09,-0.07,0.17,-1.00,-0.20,0.20,-0.20,0.00,0.00,0.00,0.00,819,819,819,819
9205,0,0.09,-0.07,0.17,-1.00,-0.20,0.20,-0.20,0.00,0.00,0.00,0.00,819,819,819,819
9210,0,0.09,-0.07,0.17,-1.00,-0.20,0.20,-0.20,0.00,0.00,0.00,0.00,819,819,819,819
9216,0,0.08,-0.08,0.17,-1.00,-0.20,0.20,-0.20,0.00,0.00,0.00,0.00,819,819,819,819
9221,0,0.08,-0.08,0.17,-1.00,-0.20,0.20,-0.20,0.00,0.00,0.00,0.00,819,819,819,819
9226,0,0.08,-0.08,0.17,-1.00,-0.20,0.20,-0.20,0.00,0.00,0.00,0.00,819,819,819,819
9233,0,0.08,-0.08,0.17,-1.00,-0.20,0.20,-0.20,0.00,0.00,0.00,0.00,819,819,819,819
9238,0,0.07,-0.08,0.17,-1.00,-0.20,0.20,-0.20,0.00,0.00,0.00,0.00,819,819,819,819
9244,0,0.07,-0.08,0.17,-1.00,-0.20,0.20,-0.20,0.00,0.00,0.00,0.00,819,819,819,819
9251,0,0.07,-0.08,0.17,-1.00,-0.20,0.20,-0.20,0.00,0.00,0.00,0.00,819,819,819,819
9256,0,0.06,-0.08,0.17,-1.00,-0.20,0.20,-0.20,0.00,0.00,0.00,0.00,819,819,819,819
9262,0,0.06,-0.08,0.17,-1.00,-0.20,0.20,-0.20,0.00,0.00,0.00,0.00,819,819,819,819
9267,0,0.06,-0.08,0.17,-1.00,-0.20,0.20,-0.20,0.00,0.00,0.00,0.00,819,819,819,819
9273,0,0.06,-0.08,0.17,-1.00,-0.20,0.20,-0.20,0.00,0.00,0.00,0.00,819,819,819,819
9279,0,0.06,-0.08,0.17,-1.00,-0.20,0.20,-0.20,0.00,0.00,0.00,0.00,819,819,819,819
9287,0,0.05,-0.08,0.18,-1.00,-0.20,0.20,-0.20,0.00,0.00,0.00,0.00,819,819,819,819
9293,0,0.05,-0.08,0.18,-1.00,-0.20,0.20,-0.20,0.00,0.00,0.00,0.00,819,819,819,819
9299,0,0.05,-0.08,0.18,-1.00,-0.20,0.20,-0.20,0.00,0.00,0.00,0.00,819,819,819,819
9305,0,0.05,-0.08,0.18,-1.00,-0.20,0.20,-0.20,0.00,0.00,0.00,0.00,819,819,819,819
9311,0,0.05,-0.08,0.18,-1.00,-0.20,0.20,-0.20,0.00,0.00,0.00,0.00,819,819,819,819
9316,0,0.04,-0.08,0.18,-1.00,-0.20,0.20,-0.20,0.00,0.00,0.00,0.00,819,819,819,819
9322,0,0.04,-0.08,0.18,-1.00,-0.20,0.20,-0.20,0.00,0.00,0.00,0.00,819,819,819,819
9328,0,0.04,-0.08,0.18,-1.00,-0.20,0.20,-0.20,0.00,0.00,0.00,0.00,819,819,819,819
9334,0,0.04,-0.08,0.18,-1.00,-0.20,0.20,-0.20,0.00,0.00,0.00,0.00,819,819,819,819
9340,0,0.04,-0.08,0.18,-1.00,-0.20,0.20,-0.20,0.00,0.00,0.00,0.00,819,819,819,819
9346,0,0.03,-0.08,0.18,-1.00,-0.20,0.20,-0.20,0.00,0.00,0.00,0.00,819,819,819,819
9353,0,0.03,-0.08,0.18,-1.00,-0.20,0.20,-0.20,0.00,0.00,0.00,0.00,819,819,819,819
9358,0,0.03,-0.08,0.19,-1.00,-0.20,0.20,-0.20,0.00,0.00,0.00,0.00,819,819,819,819
9364,0,0.03,-0.08,0.19,-1.00,-0.20,0.20,-0.20,0.00,0.00,0.00,0.00,819,819,819,819
9369,0,0.03,-0.08,0.19,-1.00,-0.20,0.20,-0.20,0.00,0.00,0.00,0.00,819,819,819,819
9375,0,0.03,-0.08,0.19,-1.00,-0.20,0.20,-0.20,0.00,0.00,0.00,0.00,819,819,819,819
9382,0,0.02,-0.08,0.19,-1.00,-0.17,0.20,-0.20,0.00,0.00,0.00,0.00,819,819,819,819
9387,0,0.02,-0.08,0.19,-1.00,-0.18,0.20,-0.20,0.00,0.00,0.00,0.00,819,819,819,819
9394,0,0.02,-0.08,0.19,-1.00,-0.15,0.20,-0.20,0.00,0.00,0.00,0.00,819,819,819,819
9400,0,0.02,-0.08,0.19,-1.00,-0.16,0.20,-0.20,0.00,0.00,0.00,0.00,819,819,819,819
9406,0,0.02,-0.08,0.19,-1.00,-0.20,0.20,-0.20,0.00,0.00,0.00,0.00,819,819,819,819
9411,0,0.02,-0.08,0.19,-1.00,-0.20,0.20,-0.20,0.00,0.00,0.00,0.00,819,819,819,819
9417,0,0.03,-0.08,0.19,-1.00,-0.20,0.20,-0.20,0.00,0.00,0.00,0.00,819,819,819,819
9423,0,0.03,-0.08,0.19,-1.00,-0.20,0.20,-0.20,0.00,0.00,0.00,0.00,819,819,819,819
9428,0,0.03,-0.07,0.19,-1.00,-0.20,0.20,-0.20,0.00,0.00,0.00,0.00,819,819,819,819
9435,0,0.03,-0.07,0.19,-1.00,-0.20,0.20,-0.20,0.00,0.00,0.00,0.00,819,819,819,819
9441,0,0.04,-0.07,0.19,-1.00,-0.20,0.20,-0.20,0.00,0.00,0.00,0.00,819,819,819,819
9447,0,0.04,-0.07,0.19,-1.00,-0.20,0.20,-0.20,0.00,0.00,0.00,0.00,819,819,819,819
9453,0,0.04,-0.07,0.19,-1.00,-0.20,0.20,-0.20,0.00,0.00,0.00,0.00,819,819,819,819
9459,0,0.04,-0.06,0.19,-1.00,-0.20,0.20,-0.20,0.00,0.00,0.00,0.00,819,819,819,819
9464,0,0.04,-0.06,0.19,-1.00,-0.20,0.20,-0.20,0.00,0.00,0.00,0.00,819,819,819,819
9472,0,0.05,-0.06,0.19,-1.00,-0.20,0.20,-0.20,0.00,0.00,0.00,0.00,819,819,819,819
9477,0,0.05,-0.05,0.19,-1.00,-0.20,0.20,-0.20,0.00,0.00,0.00,0.00,819,819,819,819
9484,0,0.05,-0.05,0.19,-1.00,-0.20,0.20,-0.20,0.00,0.00,0.00,0.00,819,819,819,819
9489,0,0.06,-0.05,0.19,-1.00,-0.20,0.20,-0.20,0.00,0.00,0.00,0.00,819,819,819,819
9495,0,0.06,-0.05,0.19,-1.00,-0.20,0.20,-0.20,0.00,0.00,0.00,0.00,819,819,819,819
9505,0,0.06,-0.04,0.19,-1.00,-0.20,0.20,-0.20,0.00,0.00,0.00,0.00,819,819,819,819
9510,0,0.07,-0.04,0.19,-1.00,-0.20,0.20,-0.20,0.00,0.00,0.00,0.00,819,819,819,819
9516,0,0.07,-0.04,0.19,-1.00,-0.20,0.20,-0.20,0.00,0.00,0.00,0.00,819,819,819,819
9521,0,0.07,-0.04,0.19,-1.00,-0.20,0.20,-0.20,0.00,0.00,0.00,0.00,819,819,819,819
9526,0,0.07,-0.03,0.19,-1.00,-0.20,0.20,-0.20,0.00,0.00,0.00,0.00,819,819,819,819
9533,0,0.07,-0.03,0.19,-1.00,-0.20,0.20,-0.20,0.00,0.00,0.00,0.00,819,819,819,819
9538,0,0.07,-0.03,0.19,-1.00,-0.20,0.20,-0.20,0.00,0.00,0.00,0.00,819,819,819,819
9544,0,0.07,-0.03,0.19,-1.00,-0.20,0.20,-0.20,0.00,0.00,0.00,0.00,819,819,819,819
9551,0,0.08,-0.03,0.19,-1.00,-0.20,0.20,-0.20,0.00,0.00,0.00,0.00,819,819,819,819
9557,0,0.08,-0.03,0.19,-1.00,-0.20,0.20,-0.20,0.00,0.00,0.00,0.00,819,819,819,819
9562,0,0.08,-0.03,0.19,-1.00,-0.20,0.20,-0.20,0.00,0.00,0.00,0.00,819,819,819,819
9568,0,0.08,-0.03,0.19,-1.00,-0.20,0.20,-0.20,0.00,0.00,0.00,0.00,819,819,819,819
9573,0,0.08,-0.03,0.19,-1.00,-0.20,0.20,-0.20,0.00,0.00,0.00,0.00,819,819,819,819
9579,0,0.07,-0.03,0.19,-1.00,-0.20,0.20,-0.20,0.00,0.00,0.00,0.00,819,819,819,819
9585,0,0.07,-0.03,0.19,-1.00,-0.20,0.20,-0.20,0.00,0.00,0.00,0.00,819,819,819,819
9592,0,0.07,-0.03,0.19,-1.00,-0.20,0.20,-0.20,0.00,0.00,0.00,0.00,819,819,819,819
9597,0,0.07,-0.03,0.19,-1.00,-0.20,0.20,-0.20,0.00,0.00,0.00,0.00,819,819,819,819
9604,0,0.07,-0.03,0.19,-1.00,-0.20,0.20,-0.20,0.00,0.00,0.00,0.00,819,819,819,819
9610,0,0.07,-0.03,0.19,-1.00,-0.20,0.20,-0.20,0.00,0.00,0.00,0.00,819,819,819,819
9615,0,0.07,-0.03,0.19,-1.00,-0.20,0.20,-0.20,0.00,0.00,0.00,0.00,819,819,819,819
9621,0,0.07,-0.03,0.19,-1.00,-0.20,0.20,-0.20,0.00,0.00,0.00,0.00,819,819,819,819
9626,0,0.07,-0.03,0.19,-1.00,-0.20,0.20,-0.20,0.00,0.00,0.00,0.00,819,819,819,819
9633,0,0.07,-0.03,0.19,-1.00,-0.20,0.20,-0.20,0.00,0.00,0.00,0.00,819,819,819,819
9639,0,0.07,-0.03,0.19,-1.00,-0.20,0.20,-0.20,0.00,0.00,0.00,0.00,819,819,819,819
9645,0,0.07,-0.03,0.19,-1.00,-0.20,0.20,-0.20,0.00,0.00,0.00,0.00,819,819,819,819
9653,0,0.07,-0.03,0.19,-1.00,-0.20,0.17,-0.20,0.00,0.00,0.00,0.00,819,819,819,819
9659,0,0.08,-0.03,0.18,-1.00,-0.20,0.20,-0.20,0.00,0.00,0.00,0.00,819,819,819,819
9664,0,0.08,-0.03,0.18,-1.00,-0.20,0.20,-0.20,0.00,0.00,0.00,0.00,819,819,819,819
9670,0,0.08,-0.03,0.18,-1.00,-0.20,0.20,-0.20,0.00,0.00,0.00,0.00,819,819,819,819
9676,0,0.08,-0.03,0.18,-1.00,-0.20,0.20,-0.20,0.00,0.00,0.00,0.00,819,819,819,819
9683,0,0.08,-0.03,0.18,-1.00,-0.20,0.20,-0.20,0.00,0.00,0.00,0.00,819,819,819,819
9688,0,0.08,-0.03,0.18,-1.00,-0.20,0.20,-0.20,0.00,0.00,0.00,0.00,819,819,819,819
9695,0,0.08,-0.03,0.18,-1.00,-0.20,0.20,-0.20,0.00,0.00,0.00,0.00,819,819,819,819
9701,0,0.08,-0.03,0.18,-1.00,-0.20,0.20,-0.20,0.00,0.00,0.00,0.00,819,819,819,819
9707,0,0.08,-0.03,0.18,-1.00,-0.20,0.20,-0.20,0.00,0.00,0.00,0.00,819,819,819,819
9712,0,0.08,-0.03,0.18,-1.00,-0.20,0.20,-0.20,0.00,0.00,0.00,0.00,819,819,819,819
9718,0,0.08,-0.03,0.18,-1.00,-0.20,0.20,-0.20,0.00,0.00,0.00,0.00,819,819,819,819
9724,0,0.08,-0.03,0.18,-1.00,-0.20,0.20,-0.20,0.00,0.00,0.00,0.00,819,819,819,819
9729,0,0.08,-0.03,0.18,-1.00,-0.20,0.20,-0.20,0.00,0.00,0.00,0.00,819,819,819,819
9736,0,0.08,-0.03,0.18,-1.00,-0.20,0.19,-0.20,0.00,0.00,0.00,0.00,819,819,819,819
9742,0,0.08,-0.02,0.18,-1.00,-0.20,0.19,-0.20,0.00,0.00,0.00,0.00,819,819,819,819
9748,0,0.08,-0.02,0.18,-1.00,-0.20,0.20,-0.20,0.00,0.00,0.00,0.00,819,819,819,819
9754,0,0.08,-0.02,0.18,-1.00,-0.20,0.18,-0.20,0.00,0.00,0.00,0.00,819,819,819,819
9760,0,0.09,-0.02,0.19,-1.00,-0.20,0.20,-0.20,0.00,0.00,0.00,0.00,819,819,819,819
9765,0,0.09,-0.02,0.19,-1.00,-0.20,0.20,-0.20,0.00,0.00,0.00,0.00,819,819,819,819
9770,0,0.09,-0.02,0.19,-1.00,-0.20,0.19,-0.20,0.00,0.00,0.00,0.00,819,819,819,819
9776,0,0.09,-0.02,0.19,-1.00,-0.20,0.18,-0.20,0.00,0.00,0.00,0.00,819,819,819,819
9783,0,0.10,-0.02,0.19,-1.00,-0.20,0.16,-0.20,0.00,0.00,0.00,0.00,819,819,819,819
9788,0,0.11,-0.02,0.19,-1.00,-0.20,0.20,-0.20,0.00,0.00,0.00,0.00,819,819,819,819
9795,0,0.11,-0.02,0.19,-1.00,-0.20,0.16,-0.20,0.00,0.00,0.00,0.00,819,819,819,819
9800,0,0.11,-0.02,0.19,-1.00,-0.20,0.20,-0.20,0.00,0.00,0.00,0.00,819,819,819,819
9806,0,0.11,-0.02,0.19,-1.00,-0.20,0.20,-0.20,0.00,0.00,0.00,0.00,819,819,819,819
9812,0,0.11,-0.03,0.19,-1.00,-0.20,0.20,-0.20,0.00,0.00,0.00,0.00,819,819,819,819
9817,0,0.11,-0.03,0.19,-1.00,-0.20,0.20,-0.20,0.00,0.00,0.00,0.00,819,819,819,819
9822,0,0.11,-0.03,0.19,-1.00,-0.20,0.20,-0.20,0.00,0.00,0.00,0.00,819,819,819,819
9828,0,0.11,-0.03,0.19,-1.00,-0.20,0.20,-0.20,0.00,0.00,0.00,0.00,819,819,819,819
9836,0,0.11,-0.03,0.19,-1.00,-0.20,0.19,-0.20,0.00,0.00,0.00,0.00,819,819,819,819
9843,0,0.10,-0.03,0.20,-1.00,-0.20,0.20,-0.20,0.00,0.00,0.00,0.00,819,819,819,819
9848,0,0.10,-0.03,0.20,-1.00,-0.20,0.20,-0.20,0.00,0.00,0.00,0.00,819,819,819,819
9855,0,0.10,-0.03,0.20,-1.00,-0.20,0.20,-0.20,0.00,0.00,0.00,0.00,819,819,819,819
9860,0,0.10,-0.03,0.20,-1.00,-0.20,0.20,-0.20,0.00,0.00,0.00,0.00,819,819,819,819
9866,0,0.10,-0.03,0.20,-1.00,-0.20,0.20,-0.20,0.00,0.00,0.00,0.00,819,819,819,819
9872,0,0.09,-0.03,0.20,-1.00,-0.20,0.20,-0.20,0.00,0.00,0.00,0.00,819,819,819,819
9877,0,0.09,-0.03,0.21,-1.00,-0.20,0.20,-0.20,0.00,0.00,0.00,0.00,819,819,819,819
9884,0,0.09,-0.03,0.21,-1.00,-0.20,0.20,-0.20,0.00,0.00,0.00,0.00,819,819,819,819
9889,0,0.09,-0.03,0.21,-1.00,-0.20,0.20,-0.20,0.00,0.00,0.00,0.00,819,819,819,819
9896,0,0.09,-0.03,0.21,-1.00,-0.20,0.20,-0.20,0.00,0.00,0.00,0.00,819,819,819,819
9902,0,0.08,-0.04,0.21,-1.00,-0.20,0.20,-0.20,0.00,0.00,0.00,0.00,819,819,819,819
9908,0,0.08,-0.04,0.21,-1.00,-0.20,0.20,-0.20,0.00,0.00,0.00,0.00,819,819,819,819
9913,0,0.08,-0.04,0.21,-1.00,-0.20,0.20,-0.20,0.00,0.00,0.00,0.00,819,819,819,819
9919,0,0.08,-0.04,0.21,-1.00,-0.20,0.20,-0.20,0.00,0.00,0.00,0.00,819,819,819,819
9924,0,0.08,-0.04,0.21,-1.00,-0.20,0.20,-0.20,0.00,0.00,0.00,0.00,819,819,819,819
9931,0,0.08,-0.04,0.21,-1.00,-0.20,0.20,-0.20,0.00,0.00,0.00,0.00,819,819,819,819
9937,0,0.08,-0.04,0.21,-1.00,-0.20,0.20,-0.20,0.00,0.00,0.00,0.00,819,819,819,819
9943,0,0.08,-0.04,0.22,-1.00,-0.20,0.20,-0.20,0.00,0.00,0.00,0.00,819,819,819,819
9949,0,0.08,-0.04,0.22,-1.00,-0.20,0.20,-0.20,0.00,0.00,0.00,0.00,819,819,819,819
9955,0,0.08,-0.04,0.22,-1.00,-0.20,0.20,-0.20,0.00,0.00,0.00,0.00,819,819,819,819
9961,0,0.08,-0.04,0.22,-1.00,-0.20,0.20,-0.20,0.00,0.00,0.00,0.00,819,819,819,819
9967,0,0.08,-0.04,0.22,-1.00,-0.20,0.20,-0.20,0.00,0.00,0.00,0.00,819,819,819,819
9972,0,0.08,-0.04,0.22,-1.00,-0.20,0.20,-0.20,0.00,0.00,0.00,0.00,819,819,819,819
9978,0,0.08,-0.03,0.22,-1.00,-0.20,0.20,-0.20,0.00,0.00,0.00,0.00,819,819,819,819
9984,0,0.08,-0.03,0.22,-1.00,-0.20,0.20,-0.20,0.00,0.00,0.00,0.00,819,819,819,819
9990,0,0.08,-0.03,0.22,-1.00,-0.20,0.20,-0.20,0.00,0.00,0.00,0.00,819,819,819,819
9996,0,0.08,-0.03,0.22,-1.00,-0.20,0.20,-0.20,0.00,0.00,0.00,0.00,819,819,819,819
10003,0,0.07,-0.03,0.22,-1.00,-0.20,0.20,-0.20,0.00,0.00,0.00,0.00,819,819,819,819
10009,0,0.07,-0.02,0.22,-1.00,-0.20,0.20,-0.20,0.00,0.00,0.00,0.00,819,819,819,819
10014,0,0.07,-0.02,0.22,-1.00,-0.20,0.20,-0.20,0.00,0.00,0.00,0.00,819,819,819,819
10022,0,0.07,-0.02,0.22,-1.00,-0.20,0.13,-0.20,0.00,0.00,0.00,0.00,819,819,819,819
10027,0,0.07,-0.02,0.22,-1.00,-0.20,0.16,-0.20,0.00,0.00,0.00,0.00,819,819,819,819
10034,0,0.07,-0.02,0.22,-1.00,-0.20,0.14,-0.20,0.00,0.00,0.00,0.00,819,819,819,819
10039,0,0.07,-0.02,0.22,-1.00,-0.20,0.16,-0.20,0.00,0.00,0.00,0.00,819,819,819,819
10046,0,0.07,-0.02,0.22,-1.00,-0.20,0.14,-0.20,0.00,0.00,0.00,0.00,819,819,819,819
10052,0,0.08,-0.02,0.22,-1.00,-0.20,0.14,-0.20,0.00,0.00,0.00,0.00,819,819,819,819
10058,0,0.08,-0.02,0.22,-1.00,-0.20,0.15,-0.20,0.00,0.00,0.00,0.00,819,819,819,819
10063,0,0.08,-0.02,0.22,-1.00,-0.20,0.15,-0.20,0.00,0.00,0.00,0.00,819,819,819,819
10069,0,0.08,-0.02,0.22,-1.00,-0.20,0.15,-0.20,0.00,0.00,0.00,0.00,819,819,819,819
10074,0,0.08,-0.02,0.22,-1.00,-0.20,0.15,-0.20,0.00,0.00,0.00,0.00,819,819,819,819
10080,0,0.09,-0.02,0.22,-1.00,-0.20,0.14,-0.20,0.00,0.00,0.00,0.00,819,819,819,819
10086,0,0.09,-0.02,0.22,-1.00,-0.20,0.12,-0.20,0.00,0.00,0.00,0.00,819,819,819,819
10093,0,0.09,-0.01,0.21,-1.00,-0.20,0.11,-0.20,0.00,0.00,0.00,0.00,819,819,819,819
10098,0,0.09,-0.01,0.21,-1.00,-0.20,0.12,-0.20,0.00,0.00,0.00,0.00,819,819,819,819
10104,0,0.09,-0.01,0.21,-1.00,-0.20,0.11,-0.20,0.00,0.00,0.00,0.00,819,819,819,819
10109,0,0.10,-0.01,0.21,-1.00,-0.20,0.13,-0.20,0.00,0.00,0.00,0.00,819,819,819,819
10115,0,0.10,-0.01,0.21,-1.00,-0.20,0.12,-0.20,0.00,0.00,0.00,0.00,819,819,819,819
10120,0,0.10,-0.01,0.21,-1.00,-0.20,0.12,-0.20,0.00,0.00,0.00,0.00,819,819,819,819
10126,0,0.10,-0.01,0.21,-1.00,-0.20,0.12,-0.20,0.00,0.00,0.00,0.00,819,819,819,819
10132,0,0.10,-0.01,0.21,-1.00,-0.20,0.11,-0.20,0.00,0.00,0.00,0.00,819,819,819,819
10138,0,0.10,-0.01,0.21,-1.00,-0.20,0.12,-0.20,0.00,0.00,0.00,0.00,819,819,819,819
10144,0,0.10,-0.01,0.21,-1.00,-0.20,0.10,-0.20,0.00,0.00,0.00,0.00,819,819,819,819
10150,0,0.11,-0.01,0.21,-1.00,-0.20,0.13,-0.20,0.00,0.00,0.00,0.00,819,819,819,819
10156,0,0.11,-0.01,0.21,-1.00,-0.20,0.11,-0.20,0.00,0.00,0.00,0.00,819,819,819,819
10162,0,0.11,-0.01,0.20,-1.00,-0.20,0.13,-0.20,0.00,0.00,0.00,0.00,819,819,819,819
10168,0,0.11,-0.01,0.20,-1.00,-0.20,0.12,-0.20,0.00,0.00,0.00,0.00,819,819,819,819
10173,0,0.11,-0.02,0.20,-1.00,-0.20,0.14,-0.20,0.00,0.00,0.00,0.00,819,819,819,819
10179,0,0.11,-0.02,0.20,-1.00,-0.20,0.15,-0.20,0.00,0.00,0.00,0.00,819,819,819,819
10185,0,0.11,-0.02,0.20,-1.00,-0.20,0.13,-0.20,0.00,0.00,0.00,0.00,819,819,819,819
10191,0,0.11,-0.02,0.20,-1.00,-0.20,0.16,-0.20,0.00,0.00,0.00,0.00,819,819,819,819
10197,0,0.11,-0.02,0.20,-1.00,-0.20,0.14,-0.20,0.00,0.00,0.00,0.00,819,819,819,819
10205,0,0.11,-0.02,0.20,-1.00,-0.20,0.11,-0.20,0.00,0.00,0.00,0.00,819,819,819,819
10211,0,0.11,-0.02,0.20,-1.00,-0.20,0.17,-0.20,0.00,0.00,0.00,0.00,819,819,819,819
10217,0,0.11,-0.02,0.20,-1.00,-0.20,0.17,-0.20,0.00,0.00,0.00,0.00,819,819,819,819
10222,0,0.11,-0.02,0.20,-1.00,-0.20,0.18,-0.20,0.00,0.00,0.00,0.00,819,819,819,819
10228,0,0.11,-0.02,0.20,-1.00,-0.20,0.18,-0.20,0.00,0.00,0.00,0.00,819,819,819,819
10234,0,0.11,-0.02,0.20,-1.00,-0.20,0.15,-0.20,0.00,0.00,0.00,0.00,819,819,819,819
10240,0,0.11,-0.02,0.20,-1.00,-0.20,0.18,-0.20,0.00,0.00,0.00,0.00,819,819,819,819
10246,0,0.11,-0.02,0.20,-1.00,-0.20,0.15,-0.20,0.00,0.00,0.00,0.00,819,819,819,819
10253,0,0.11,-0.02,0.21,-1.00,-0.20,0.15,-0.20,0.00,0.00,0.00,0.00,819,819,819,819
10258,0,0.11,-0.02,0.21,-1.00,-0.20,0.17,-0.20,0.00,0.00,0.00,0.00,819,819,819,819
10264,0,0.11,-0.02,0.21,-1.00,-0.20,0.17,-0.20,0.00,0.00,0.00,0.00,819,819,819,819
10269,0,0.11,-0.02,0.21,-1.00,-0.20,0.16,-0.20,0.00,0.00,0.00,0.00,819,819,819,819
10275,0,0.11,-0.02,0.21,-1.00,-0.20,0.16,-0.20,0.00,0.00,0.00,0.00,819,819,819,819
10281,0,0.11,-0.02,0.21,-1.00,-0.20,0.14,-0.20,0.00,0.00,0.00,0.00,819,819,819,819
10287,0,0.11,-0.02,0.21,-1.00,-0.20,0.12,-0.20,0.00,0.00,0.00,0.00,819,819,819,819
10294,0,0.11,-0.01,0.21,-1.00,-0.20,0.10,-0.20,0.00,0.00,0.00,0.00,819,819,819,819
10299,0,0.11,-0.01,0.21,-1.00,-0.20,0.10,-0.20,0.00,0.00,0.00,0.00,819,819,819,819
10306,0,0.11,-0.01,0.21,-1.00,-0.20,0.08,-0.20,0.00,0.00,0.00,0.00,819,819,819,819
10311,0,0.12,-0.00,0.21,-1.00,-0.20,0.08,-0.20,0.00,0.00,0.00,0.00,819,819,819,819
10317,0,0.12,-0.00,0.21,-1.00,-0.20,0.08,-0.20,0.00,0.00,0.00,0.00,819,819,819,819
10322,0,0.12,-0.00,0.22,-1.00,-0.20,0.06,-0.20,0.00,0.00,0.00,0.00,819,819,819,819
10328,0,0.12,-0.00,0.22,-1.00,-0.20,0.04,-0.20,0.00,0.00,0.00,0.00,819,819,819,819
10335,0,0.12,-0.00,0.22,-1.00,-0.20,0.03,-0.20,0.00,0.00,0.00,0.00,819,819,819,819
10340,0,0.12,-0.00,0.22,-1.00,-0.20,0.03,-0.20,0.00,0.00,0.00,0.00,819,819,819,819
10346,0,0.12,-0.00,0.22,-1.00,-0.20,0.03,-0.20,0.00,0.00,0.00,0.00,819,819,819,819
10352,0,0.12,-0.00,0.22,-1.00,-0.20,0.02,-0.20,0.00,0.00,0.00,0.00,819,819,819,819
10358,0,0.12,-0.00,0.22,-1.00,-0.20,0.02,-0.20,0.00,0.00,0.00,0.00,819,819,819,819
10363,0,0.13,-0.00,0.21,-1.00,-0.20,0.00,-0.20,0.00,0.00,0.00,0.00,819,819,819,819
10368,0,0.13,0.00,0.21,-1.00,-0.20,-0.02,-0.20,0.00,0.00,0.00,0.00,819,819,819,819
10374,0,0.13,0.00,0.21,-1.00,-0.20,-0.02,-0.20,0.00,0.00,0.00,0.00,819,819,819,819
10380,0,0.13,0.00,0.21,-1.00,-0.20,-0.05,-0.20,0.00,0.00,0.00,0.00,819,819,819,819
10388,0,0.13,0.00,0.21,-1.00,-0.20,-0.03,-0.20,0.00,0.00,0.00,0.00,819,819,819,819
10394,0,0.13,0.00,0.21,-1.00,-0.20,-0.06,-0.20,0.00,0.00,0.00,0.00,819,819,819,819
10399,0,0.13,0.00,0.21,-1.00,-0.20,-0.08,-0.20,0.00,0.00,0.00,0.00,819,819,819,819
10406,0,0.13,0.00,0.21,-1.00,-0.20,-0.07,-0.20,0.00,0.00,0.00,0.00,819,819,819,819
10411,0,0.14,0.01,0.21,-1.00,-0.20,-0.09,-0.20,0.00,0.00,0.00,0.00,819,819,819,819
10416,0,0.14,0.01,0.21,-1.00,-0.20,-0.09,-0.20,0.00,0.00,0.00,0.00,819,819,819,819
10422,0,0.14,0.01,0.21,-1.00,-0.20,-0.10,-0.20,0.00,0.00,0.00,0.00,819,819,819,819
10428,0,0.14,0.01,0.21,-1.00,-0.20,-0.09,-0.20,0.00,0.00,0.00,0.00,819,819,819,819
10435,0,0.14,0.01,0.21,-1.00,-0.20,-0.08,-0.20,0.00,0.00,0.00,0.00,819,819,819,819
10440,0,0.15,0.01,0.21,-1.00,-0.20,-0.10,-0.20,0.00,0.00,0.00,0.00,819,819,819,819
10447,0,0.15,0.01,0.21,-1.00,-0.20,-0.08,-0.20,0.00,0.00,0.00,0.00,819,819,819,819
10454,0,0.15,0.01,0.21,-1.00,-0.20,-0.08,-0.20,0.00,0.00,0.00,0.00,819,819,819,819
10459,0,0.15,0.01,0.21,-1.00,-0.20,-0.09,-0.20,0.00,0.00,0.00,0.00,819,819,819,819
10465,0,0.15,0.01,0.21,-1.00,-0.20,-0.09,-0.20,0.00,0.00,0.00,0.00,819,819,819,819
10470,0,0.15,0.00,0.21,-1.00,-0.20,-0.08,-0.20,0.00,0.00,0.00,0.00,819,819,819,819
10476,0,0.15,0.00,0.21,-1.00,-0.20,-0.08,-0.20,0.00,0.00,0.00,0.00,819,819,819,819
10482,0,0.15,0.00,0.21,-1.00,-0.20,-0.07,-0.20,0.00,0.00,0.00,0.00,819,819,819,819
10488,0,0.15,0.00,0.21,-1.00,-0.20,-0.06,-0.20,0.00,0.00,0.00,0.00,819,819,819,819
10495,0,0.14,0.00,0.21,-1.00,-0.20,-0.04,-0.20,0.00,0.00,0.00,0.00,819,819,819,819
10500,0,0.14,0.00,0.21,-1.00,-0.20,-0.04,-0.20,0.00,0.00,0.00,0.00,819,819,819,819
10507,0,0.14,0.00,0.21,-1.00,-0.20,-0.03,-0.20,0.00,0.00,0.00,0.00,819,819,819,819
10512,0,0.14,0.00,0.21,-1.00,-0.20,-0.02,-0.20,0.00,0.00,0.00,0.00,819,819,819,819
10518,0,0.14,0.00,0.21,-1.00,-0.20,-0.02,-0.20,0.00,0.00,0.00,0.00,819,819,819,819
10524,0,0.14,0.00,0.21,-1.00,-0.20,-0.01,-0.20,0.00,0.00,0.00,0.00,819,819,819,819
10529,0,0.14,-0.00,0.21,-1.00,-0.20,0.00,-0.20,0.00,0.00,0.00,0.00,819,819,819,819
10536,0,0.14,-0.00,0.21,-1.00,-0.20,0.00,-0.20,0.00,0.00,0.00,0.00,819,819,819,819
10541,0,0.14,-0.00,0.21,-1.00,-0.20,0.01,-0.20,0.00,0.00,0.00,0.00,819,819,819,819
10548,0,0.14,-0.00,0.21,-1.00,-0.20,0.00,-0.20,0.00,0.00,0.00,0.00,819,819,819,819
10554,0,0.13,-0.00,0.21,-1.00,-0.20,0.03,-0.20,0.00,0.00,0.00,0.00,819,819,819,819
10560,0,0.13,-0.00,0.21,-1.00,-0.20,0.04,-0.20,0.00,0.00,0.00,0.00,819,819,819,819
10566,0,0.13,-0.00,0.21,-1.00,-0.20,0.04,-0.20,0.00,0.00,0.00,0.00,819,819,819,819
10573,0,0.13,-0.00,0.21,-1.00,-0.20,0.04,-0.20,0.00,0.00,0.00,0.00,819,819,819,819
10579,0,0.13,-0.00,0.21,-1.00,-0.20,0.07,-0.20,0.00,0.00,0.00,0.00,819,819,819,819
10585,0,0.13,-0.00,0.21,-1.00,-0.20,0.06,-0.20,0.00,0.00,0.00,0.00,819,819,819,819
10591,0,0.12,-0.00,0.21,-1.00,-0.20,0.08,-0.20,0.00,0.00,0.00,0.00,819,819,819,819
10598,0,0.12,-0.00,0.21,-1.00,-0.20,0.07,-0.20,0.00,0.00,0.00,0.00,819,819,819,819
10604,0,0.12,-0.01,0.21,-1.00,-0.20,0.08,-0.20,0.00,0.00,0.00,0.00,819,819,819,819
10610,0,0.12,-0.01,0.21,-1.00,-0.20,0.10,-0.20,0.00,0.00,0.00,0.00,819,819,819,819
10615,0,0.12,-0.01,0.21,-1.00,-0.20,0.10,-0.20,0.00,0.00,0.00,0.00,819,819,819,819
10621,0,0.11,-0.01,0.21,-1.00,-0.20,0.11,-0.20,0.00,0.00,0.00,0.00,819,819,819,819
10626,0,0.11,-0.01,0.21,-1.00,-0.20,0.11,-0.20,0.00,0.00,0.00,0.00,819,819,819,819
10632,0,0.11,-0.01,0.21,-1.00,-0.20,0.13,-0.20,0.00,0.00,0.00,0.00,819,819,819,819
10638,0,0.11,-0.01,0.21,-1.00,-0.20,0.11,-0.20,0.00,0.00,0.00,0.00,819,819,819,819
10645,0,0.10,-0.02,0.21,-1.00,-0.20,0.12,-0.20,0.00,0.00,0.00,0.00,819,819,819,819
10650,0,0.10,-0.02,0.21,-1.00,-0.20,0.15,-0.20,0.00,0.00,0.00,0.00,819,819,819,819
10656,0,0.10,-0.02,0.21,-1.00,-0.20,0.13,-0.20,0.00,0.00,0.00,0.00,819,819,819,819
10662,0,0.10,-0.02,0.21,-1.00,-0.20,0.17,-0.20,0.00,0.00,0.00,0.00,819,819,819,819
10670,0,0.09,-0.02,0.21,-1.00,-0.20,0.12,-0.20,0.00,0.00,0.00,0.00,819,819,819,819
10676,0,0.09,-0.02,0.21,-1.00,-0.20,0.19,-0.20,0.00,0.00,0.00,0.00,819,819,819,819
10681,0,0.09,-0.02,0.21,-1.00,-0.20,0.20,-0.20,0.00,0.00,0.00,0.00,819,819,819,819
10687,0,0.09,-0.02,0.21,-1.00,-0.20,0.18,-0.20,0.00,0.00,0.00,0.00,819,819,819,819
10693,0,0.09,-0.02,0.21,-1.00,-0.20,0.20,-0.20,0.00,0.00,0.00,0.00,819,819,819,819
10699,0,0.09,-0.02,0.21,-1.00,-0.20,0.19,-0.20,0.00,0.00,0.00,0.00,819,819,819,819
10705,0,0.08,-0.02,0.21,-1.00,-0.20,0.19,-0.20,0.00,0.00,0.00,0.00,819,819,819,819
10711,0,0.08,-0.03,0.21,-1.00,-0.20,0.20,-0.20,0.00,0.00,0.00,0.00,819,819,819,819
10716,0,0.08,-0.03,0.21,-1.00,-0.20,0.20,-0.20,0.00,0.00,0.00,0.00,819,819,819,819
10722,0,0.08,-0.03,0.21,-1.00,-0.20,0.20,-0.20,0.00,0.00,0.00,0.00,819,819,819,819
10727,0,0.08,-0.03,0.21,-1.00,-0.20,0.20,-0.20,0.00,0.00,0.00,0.00,819,819,819,819
10733,0,0.08,-0.03,0.21,-1.00,-0.20,0.20,-0.20,0.00,0.00,0.00,0.00,819,819,819,819
10739,0,0.08,-0.03,0.21,-1.00,-0.20,0.20,-0.20,0.00,0.00,0.00,0.00,819,819,819,819
10746,0,0.08,-0.03,0.21,-1.00,-0.20,0.20,-0.20,0.00,0.00,0.00,0.00,819,819,819,819
10753,0,0.08,-0.03,0.21,-1.00,-0.20,0.16,-0.20,0.00,0.00,0.00,0.00,819,819,819,819
10759,0,0.08,-0.03,0.20,-1.00,-0.20,0.20,-0.20,0.00,0.00,0.00,0.00,819,819,819,819
10765,0,0.08,-0.03,0.20,-1.00,-0.20,0.20,-0.20,0.00,0.00,0.00,0.00,819,819,819,819
10771,0,0.08,-0.03,0.20,-1.00,-0.20,0.20,-0.20,0.00,0.00,0.00,0.00,819,819,819,819
10776,0,0.08,-0.03,0.20,-1.00,-0.20,0.20,-0.20,0.00,0.00,0.00,0.00,819,819,819,819
10782,0,0.08,-0.02,0.20,-1.00,-0.20,0.20,-0.20,0.00,0.00,0.00,0.00,819,819,819,819
10788,0,0.08,-0.02,0.20,-1.00,-0.20,0.19,-0.20,0.00,0.00,0.00,0.00,819,819,819,819
10795,0,0.08,-0.02,0.20,-1.00,-0.20,0.19,-0.20,0.00,0.00,0.00,0.00,819,819,819,819
10800,0,0.08,-0.02,0.20,-1.00,-0.20,0.20,-0.20,0.00,0.00,0.00,0.00,819,819,819,819
10807,0,0.08,-0.02,0.20,-1.00,-0.20,0.18,-0.20,0.00,0.00,0.00,0.00,819,819,819,819
10812,0,0.08,-0.02,0.20,-1.00,-0.20,0.20,-0.20,0.00,0.00,0.00,0.00,819,819,819,819
10818,0,0.08,-0.02,0.20,-1.00,-0.20,0.20,-0.20,0.00,0.00,0.00,0.00,819,819,819,819
10824,0,0.08,-0.02,0.20,-1.00,-0.20,0.20,-0.20,0.00,0.00,0.00,0.00,819,819,819,819
10829,0,0.08,-0.02,0.20,-1.00,-0.20,0.20,-0.20,0.00,0.00,0.00,0.00,819,819,819,819
10836,0,0.08,-0.02,0.20,-1.00,-0.20,0.19,-0.20,0.00,0.00,0.00,0.00,819,819,819,819
10841,0,0.08,-0.03,0.20,-1.00,-0.20,0.20,-0.20,0.00,0.00,0.00,0.00,819,819,819,819
10848,0,0.08,-0.03,0.20,-1.00,-0.20,0.19,-0.20,0.00,0.00,0.00,0.00,819,819,819,819
10854,0,0.08,-0.03,0.20,-1.00,-0.20,0.20,-0.20,0.00,0.00,0.00,0.00,819,819,819,819
10860,0,0.08,-0.03,0.20,-1.00,-0.20,0.20,-0.20,0.00,0.00,0.00,0.00,819,819,819,819
10866,0,0.08,-0.03,0.20,-1.00,-0.20,0.20,-0.20,0.00,0.00,0.00,0.00,819,819,819,819
10871,0,0.08,-0.03,0.20,-1.00,-0.20,0.20,-0.20,0.00,0.00,0.00,0.00,819,819,819,819
10877,0,0.08,-0.03,0.20,-1.00,-0.20,0.20,-0.20,0.00,0.00,0.00,0.00,819,819,819,819
10882,0,0.08,-0.03,0.20,-1.00,-0.20,0.20,-0.20,0.00,0.00,0.00,0.00,819,819,819,819
10889,0,0.08,-0.03,0.20,-1.00,-0.20,0.20,-0.20,0.00,0.00,0.00,0.00,819,819,819,819
10895,0,0.08,-0.03,0.20,-1.00,-0.20,0.20,-0.20,0.00,0.00,0.00,0.00,819,819,819,819
10901,0,0.08,-0.03,0.20,-1.00,-0.20,0.20,-0.20,0.00,0.00,0.00,0.00,819,819,819,819
10908,0,0.08,-0.03,0.20,-1.00,-0.20,0.20,-0.20,0.00,0.00,0.00,0.00,819,819,819,819
10913,0,0.08,-0.03,0.20,-1.00,-0.20,0.20,-0.20,0.00,0.00,0.00,0.00,819,819,819,819
10919,0,0.08,-0.03,0.20,-1.00,-0.20,0.20,-0.20,0.00,0.00,0.00,0.00,819,819,819,819
10924,0,0.08,-0.03,0.20,-1.00,-0.20,0.20,-0.20,0.00,0.00,0.00,0.00,819,819,819,819
10929,0,0.08,-0.03,0.20,-1.00,-0.20,0.20,-0.20,0.00,0.00,0.00,0.00,819,819,819,819
10937,0,0.08,-0.03,0.20,-1.00,-0.20,0.18,-0.20,0.00,0.00,0.00,0.00,819,819,819,819
10943,0,0.08,-0.03,0.20,-1.00,-0.20,0.20,-0.20,0.00,0.00,0.00,0.00,819,819,819,819
10949,0,0.08,-0.03,0.20,-1.00,-0.20,0.20,-0.20,0.00,0.00,0.00,0.00,819,819,819,819
10955,0,0.08,-0.03,0.20,-1.00,-0.20,0.20,-0.20,0.00,0.00,0.00,0.00,819,819,819,819
10961,0,0.08,-0.03,0.20,-1.00,-0.20,0.20,-0.20,0.00,0.00,0.00,0.00,819,819,819,819
10966,0,0.08,-0.03,0.20,-1.00,-0.20,0.20,-0.20,0.00,0.00,0.00,0.00,819,819,819,819
10972,0,0.08,-0.03,0.20,-1.00,-0.20,0.20,-0.20,0.00,0.00,0.00,0.00,819,819,819,819
10977,0,0.08,-0.03,0.20,-1.00,-0.20,0.20,-0.20,0.00,0.00,0.00,0.00,819,819,819,819
10982,0,0.08,-0.03,0.20,-1.00,-0.20,0.20,-0.20,0.00,0.00,0.00,0.00,819,819,819,819
10989,0,0.08,-0.03,0.20,-1.00,-0.20,0.20,-0.20,0.00,0.00,0.00,0.00,819,819,819,819
10994,0,0.08,-0.03,0.20,-1.00,-0.20,0.20,-0.20,0.00,0.00,0.00,0.00,819,819,819,819
11000,0,0.08,-0.03,0.20,-1.00,-0.20,0.20,-0.20,0.00,0.00,0.00,0.00,819,819,819,819
11006,0,0.08,-0.03,0.20,-1.00,-0.20,0.20,-0.20,0.00,0.00,0.00,0.00,819,819,819,819
11012,0,0.08,-0.03,0.20,-1.00,-0.20,0.20,-0.20,0.00,0.00,0.00,0.00,819,819,819,819
11018,0,0.08,-0.03,0.20,-1.00,-0.20,0.20,-0.20,0.00,0.00,0.00,0.00,819,819,819,819
11023,0,0.08,-0.03,0.20,-1.00,-0.20,0.20,-0.20,0.00,0.00,0.00,0.00,819,819,819,819
11029,0,0.08,-0.03,0.20,-1.00,-0.20,0.20,-0.20,0.00,0.00,0.00,0.00,819,819,819,819
11035,0,0.08,-0.03,0.20,-1.00,-0.20,0.20,-0.20,0.00,0.00,0.00,0.00,819,819,819,819
11041,0,0.08,-0.03,0.20,-1.00,-0.20,0.20,-0.20,0.00,0.00,0.00,0.00,819,819,819,819
11047,0,0.08,-0.03,0.20,-1.00,-0.20,0.20,-0.20,0.00,0.00,0.00,0.00,819,819,819,819
11053,0,0.08,-0.03,0.20,-1.00,-0.20,0.20,-0.20,0.00,0.00,0.00,0.00,819,819,819,819
11060,0,0.08,-0.03,0.20,-1.00,-0.20,0.20,-0.20,0.00,0.00,0.00,0.00,819,819,819,819
11065,0,0.08,-0.03,0.20,-1.00,-0.20,0.20,-0.20,0.00,0.00,0.00,0.00,819,819,819,819
11071,0,0.08,-0.03,0.20,-1.00,-0.20,0.20,-0.20,0.00,0.00,0.00,0.00,819,819,819,819
11076,0,0.08,-0.03,0.20,-1.00,-0.20,0.20,-0.20,0.00,0.00,0.00,0.00,819,819,819,819
11082,0,0.08,-0.03,0.20,-1.00,-0.20,0.20,-0.20,0.00,0.00,0.00,0.00,819,819,819,819
11088,0,0.08,-0.03,0.20,-1.00,-0.20,0.20,-0.20,0.00,0.00,0.00,0.00,819,819,819,819
11094,0,0.08,-0.04,0.20,-1.00,-0.20,0.20,-0.20,0.00,0.00,0.00,0.00,819,819,819,819
11100,0,0.08,-0.04,0.20,-1.00,-0.20,0.20,-0.20,0.00,0.00,0.00,0.00,819,819,819,819
11107,0,0.08,-0.04,0.20,-1.00,-0.20,0.20,-0.20,0.00,0.00,0.00,0.00,819,819,819,819
11112,0,0.08,-0.04,0.20,-1.00,-0.20,0.20,-0.20,0.00,0.00,0.00,0.00,819,819,819,819
11120,0,0.08,-0.04,0.20,-1.00,-0.20,0.20,-0.20,0.00,0.00,0.00,0.00,819,819,819,819
11127,0,0.08,-0.04,0.20,-1.00,-0.20,0.20,-0.20,0.00,0.00,0.00,0.00,819,819,819,819
11132,0,0.08,-0.04,0.20,-1.00,-0.20,0.20,-0.20,0.00,0.00,0.00,0.00,819,819,819,819
11139,0,0.08,-0.04,0.20,-1.00,-0.20,0.20,-0.20,0.00,0.00,0.00,0.00,819,819,819,819
11144,0,0.08,-0.04,0.20,-1.00,-0.20,0.20,-0.20,0.00,0.00,0.00,0.00,819,819,819,819
11150,0,0.08,-0.04,0.20,-1.00,-0.20,0.20,-0.20,0.00,0.00,0.00,0.00,819,819,819,819
11157,0,0.08,-0.03,0.20,-1.00,-0.20,0.20,-0.20,0.00,0.00,0.00,0.00,819,819,819,819
11162,0,0.08,-0.03,0.20,-1.00,-0.20,0.20,-0.20,0.00,0.00,0.00,0.00,819,819,819,819
11168,0,0.08,-0.03,0.20,-1.00,-0.20,0.20,-0.20,0.00,0.00,0.00,0.00,819,819,819,819
11174,0,0.08,-0.03,0.20,-1.00,-0.20,0.20,-0.20,0.00,0.00,0.00,0.00,819,819,819,819
11179,0,0.08,-0.03,0.20,-1.00,-0.20,0.20,-0.20,0.00,0.00,0.00,0.00,819,819,819,819
11185,0,0.08,-0.03,0.20,-1.00,-0.20,0.20,-0.20,0.00,0.00,0.00,0.00,819,819,819,819
11190,0,0.08,-0.03,0.20,-1.00,-0.20,0.20,-0.20,0.00,0.00,0.00,0.00,819,819,819,819
11197,0,0.08,-0.03,0.20,-1.00,-0.20,0.20,-0.20,0.00,0.00,0.00,0.00,819,819,819,819
11203,0,0.08,-0.03,0.20,-1.00,-0.20,0.20,-0.20,0.00,0.00,0.00,0.00,819,819,819,819
11209,0,0.08,-0.03,0.20,-1.00,-0.20,0.20,-0.20,0.00,0.00,0.00,0.00,819,819,819,819
11214,0,0.08,-0.03,0.20,-1.00,-0.20,0.20,-0.20,0.00,0.00,0.00,0.00,819,819,819,819
11220,0,0.08,-0.03,0.20,-1.00,-0.20,0.20,-0.20,0.00,0.00,0.00,0.00,819,819,819,819
11226,0,0.08,-0.03,0.20,-1.00,-0.20,0.20,-0.20,0.00,0.00,0.00,0.00,819,819,819,819
11231,0,0.08,-0.03,0.20,-1.00,-0.20,0.20,-0.20,0.00,0.00,0.00,0.00,819,819,819,819
11237,0,0.08,-0.03,0.20,-1.00,-0.20,0.20,-0.20,0.00,0.00,0.00,0.00,819,819,819,819
11243,0,0.09,-0.03,0.20,-1.00,-0.20,0.20,-0.20,0.00,0.00,0.00,0.00,819,819,819,819
11249,0,0.09,-0.03,0.20,-1.00,-0.20,0.20,-0.20,0.00,0.00,0.00,0.00,819,819,819,819
11254,0,0.09,-0.03,0.20,-1.00,-0.20,0.20,-0.20,0.00,0.00,0.00,0.00,819,819,819,819
11260,0,0.09,-0.03,0.20,-1.00,-0.20,0.20,-0.20,0.00,0.00,0.00,0.00,819,819,819,819
11266,0,0.09,-0.03,0.20,-1.00,-0.20,0.20,-0.20,0.00,0.00,0.00,0.00,819,819,819,819
11271,0,0.09,-0.03,0.20,-1.00,-0.20,0.20,-0.20,0.00,0.00,0.00,0.00,819,819,819,819
11277,0,0.09,-0.03,0.20,-1.00,-0.20,0.20,-0.20,0.00,0.00,0.00,0.00,819,819,819,819
11283,0,0.09,-0.03,0.20,-1.00,-0.20,0.20,-0.20,0.00,0.00,0.00,0.00,819,819,819,819
11290,0,0.09,-0.03,0.20,-1.00,-0.20,0.20,-0.20,0.00,0.00,0.00,0.00,819,819,819,819
11296,0,0.09,-0.03,0.20,-1.00,-0.20,0.20,-0.20,0.00,0.00,0.00,0.00,819,819,819,819
11303,0,0.09,-0.03,0.20,-1.00,-0.20,0.20,-0.20,0.00,0.00,0.00,0.00,819,819,819,819
11310,0,0.09,-0.03,0.20,-1.00,-0.20,0.20,-0.20,0.00,0.00,0.00,0.00,819,819,819,819
11315,0,0.09,-0.03,0.20,-1.00,-0.20,0.20,-0.20,0.00,0.00,0.00,0.00,819,819,819,819
11321,0,0.09,-0.03,0.20,-1.00,-0.20,0.20,-0.20,0.00,0.00,0.00,0.00,819,819,819,819
11326,0,0.09,-0.03,0.20,-1.00,-0.20,0.20,-0.20,0.00,0.00,0.00,0.00,819,819,819,819
11332,0,0.09,-0.03,0.20,-1.00,-0.20,0.20,-0.20,0.00,0.00,0.00,0.00,819,819,819,819
11339,0,0.09,-0.03,0.20,-1.00,-0.20,0.20,-0.20,0.00,0.00,0.00,0.00,819,819,819,819
11344,0,0.08,-0.04,0.20,-1.00,-0.20,0.20,-0.20,0.00,0.00,0.00,0.00,819,819,819,819
11351,0,0.08,-0.04,0.20,-1.00,-0.20,0.20,-0.20,0.00,0.00,0.00,0.00,819,819,819,819
11357,0,0.08,-0.04,0.20,-1.00,-0.20,0.20,-0.20,0.00,0.00,0.00,0.00,819,819,819,819
11363,0,0.08,-0.04,0.20,-1.00,-0.20,0.20,-0.20,0.00,0.00,0.00,0.00,819,819,819,819
11368,0,0.08,-0.04,0.20,-1.00,-0.20,0.20,-0.20,0.00,0.00,0.00,0.00,819,819,819,819
11374,0,0.08,-0.04,0.20,-1.00,-0.20,0.20,-0.20,0.00,0.00,0.00,0.00,819,819,819,819
11379,0,0.08,-0.04,0.20,-1.00,-0.20,0.20,-0.20,0.00,0.00,0.00,0.00,819,819,819,819
11385,0,0.08,-0.04,0.20,-1.00,-0.20,0.20,-0.20,0.00,0.00,0.00,0.00,819,819,819,819
11391,0,0.08,-0.04,0.20,-1.00,-0.20,0.20,-0.20,0.00,0.00,0.00,0.00,819,819,819,819
11397,0,0.08,-0.04,0.20,-1.00,-0.20,0.20,-0.20,0.00,0.00,0.00,0.00,819,819,819,819
11403,0,0.08,-0.04,0.20,-1.00,-0.20,0.20,-0.20,0.00,0.00,0.00,0.00,819,819,819,819
11410,0,0.08,-0.04,0.20,-1.00,-0.20,0.20,-0.20,0.00,0.00,0.00,0.00,819,819,819,819
11415,0,0.08,-0.04,0.20,-1.00,-0.20,0.20,-0.20,0.00,0.00,0.00,0.00,819,819,819,819
11421,0,0.08,-0.04,0.20,-1.00,-0.20,0.20,-0.20,0.00,0.00,0.00,0.00,819,819,819,819
