t,is_crashed,roll,pitch,yaw,p,q,r,throttle,p_cmd,q_cmd,r_cmd,roll_cmd,pitch_cmd,yaw_cmd,roll_pid_out,pitch_pid_out,yaw_pid_out,motor_fl,motor_bl,motor_fr,motor_br,pwm_fl,pwm_bl,pwm_fr,pwm_br
7074,0,2.125000,-2.062500,-0.125000,0.18,-0.24,-0.296875,0.007000,0.000000,0.000000,0.000000,0.000000,0.000000,0.000000,0.000000,0.000000,0.000000,0.000000,0.000000,0.000000,0.000000,0,0,0,0
7086,0,0.000000,0.000000,-0.125000,-8.68,8.42,0.103906,0.007000,0.000000,0.000000,0.000000,0.000000,0.000000,0.000000,0.000000,0.000000,0.000000,0.000000,0.000000,0.000000,0.000000,819,819,819,819
7096,0,0.000000,0.000000,-0.125000,0.06,-0.06,0.123945,0.007000,0.000000,0.000000,0.000000,0.000000,0.000000,0.000000,0.000000,0.000000,0.000000,0.000000,0.000000,0.000000,0.000000,819,819,819,819
7106,0,0.000000,0.000000,-0.125000,0.00,-0.06,0.362447,0.007000,0.000000,0.000000,0.000000,0.000000,0.000000,0.000000,0.000000,0.000000,0.000000,0.000000,0.000000,0.000000,0.000000,819,819,819,819
7116,0,0.000000,0.000000,-0.125000,0.06,-0.12,0.255622,0.007000,0.000000,0.000000,0.000000,0.000000,0.000000,0.000000,0.000000,0.000000,0.000000,0.000000,0.000000,0.000000,0.000000,819,819,819,819
7125,0,0.000000,0.000000,-0.125000,0.12,-0.18,0.369031,0.007000,0.000000,0.000000,0.000000,0.000000,0.000000,0.000000,0.000000,0.000000,0.000000,0.000000,0.000000,0.000000,0.000000,819,819,819,819
7135,0,0.000000,0.000000,-0.125000,0.06,-0.06,-0.040923,0.007000,0.000000,0.000000,0.000000,0.000000,0.000000,0.000000,0.000000,0.000000,0.000000,0.000000,0.000000,0.000000,0.000000,819,819,819,819
7145,0,0.000000,0.000000,-0.125000,0.00,-0.12,-0.239546,0.007000,0.000000,0.000000,0.000000,0.000000,0.000000,0.000000,0.000000,0.000000,0.000000,0.000000,0.000000,0.000000,0.000000,819,819,819,819
7155,0,0.000000,0.000000,-0.125000,0.18,0.12,-0.130727,0.007000,0.000000,0.000000,0.000000,0.000000,0.000000,0.000000,0.000000,0.000000,0.000000,0.000000,0.000000,0.000000,0.000000,819,819,819,819
7165,0,0.000000,0.000000,-0.125000,0.06,-0.12,-0.125286,0.007000,0.000000,0.000000,0.000000,0.000000,0.000000,0.000000,0.000000,0.000000,0.000000,0.000000,0.000000,0.000000,0.000000,819,819,819,819
7175,0,0.000000,0.000000,-0.125000,0.00,0.18,-0.065639,0.007000,0.000000,0.000000,0.000000,0.000000,0.000000,0.000000,0.000000,0.000000,0.000000,0.000000,0.000000,0.000000,0.000000,819,819,819,819
7185,0,0.000000,0.000000,-0.125000,0.12,0.18,0.056093,0.007000,0.000000,0.000000,0.000000,0.000000,0.000000,0.000000,0.000000,0.000000,0.000000,0.000000,0.000000,0.000000,0.000000,819,819,819,819
7195,0,0.000000,0.000000,-0.125000,0.12,0.06,0.121555,0.007000,0.000000,0.000000,0.000000,0.000000,0.000000,0.000000,0.000000,0.000000,0.000000,0.000000,0.000000,0.000000,0.000000,819,819,819,819
7205,0,0.000000,0.000000,-0.125000,-0.12,0.30,0.243578,0.007000,0.000000,0.000000,0.000000,0.000000,0.000000,0.000000,0.000000,0.000000,0.000000,0.000000,0.000000,0.000000,0.000000,819,819,819,819
7215,0,0.000000,0.000000,-0.125000,0.00,0.36,0.309054,0.007000,0.000000,0.000000,0.000000,0.000000,0.000000,0.000000,0.000000,0.000000,0.000000,0.000000,0.000000,0.000000,0.000000,819,819,819,819
7225,0,0.000000,0.000000,-0.125000,0.12,0.18,0.252953,0.007000,0.000000,0.000000,0.000000,0.000000,0.000000,0.000000,0.000000,0.000000,0.000000,0.000000,0.000000,0.000000,0.000000,819,819,819,819
7235,0,0.000000,0.000000,-0.125000,0.00,0.18,0.190773,0.007000,0.000000,0.000000,0.000000,0.000000,0.000000,0.000000,0.000000,0.000000,0.000000,0.000000,0.000000,0.000000,0.000000,819,819,819,819
7245,0,0.000000,0.000000,-0.125000,0.06,0.06,0.009539,0.007000,0.000000,0.000000,0.000000,0.000000,0.000000,0.000000,0.000000,0.000000,0.000000,0.000000,0.000000,0.000000,0.000000,819,819,819,819
7255,0,0.000000,0.000000,-0.125000,0.06,0.18,-0.177648,0.007000,0.000000,0.000000,0.000000,0.000000,0.000000,0.000000,0.000000,0.000000,0.000000,0.000000,0.000000,0.000000,0.000000,819,819,819,819
7265,0,0.000000,0.000000,-0.125000,0.06,0.00,-0.246382,0.007000,0.000000,0.000000,0.000000,0.000000,0.000000,0.000000,0.000000,0.000000,0.000000,0.000000,0.000000,0.000000,0.000000,819,819,819,819
7275,0,0.000000,0.000000,-0.125000,0.00,-0.06,-0.249819,0.007000,0.000000,0.000000,0.000000,0.000000,0.000000,0.000000,0.000000,0.000000,0.000000,0.000000,0.000000,0.000000,0.000000,819,819,819,819
7285,0,0.000000,0.000000,-0.125000,0.12,-0.12,-0.249991,0.007000,0.000000,0.000000,0.000000,0.000000,0.000000,0.000000,0.000000,0.000000,0.000000,0.000000,0.000000,0.000000,0.000000,819,819,819,819
7301,0,0.000000,0.000000,-0.125000,0.12,-0.24,-0.131250,0.007000,0.000000,0.000000,0.000000,0.000000,0.000000,0.000000,0.000000,0.000000,0.000000,0.000000,0.000000,0.000000,0.000000,819,819,819,819
7314,0,0.000000,0.000000,-0.125000,-0.06,-0.18,-0.006562,0.007000,0.000000,0.000000,0.000000,0.000000,0.000000,0.000000,0.000000,0.000000,0.000000,0.000000,0.000000,0.000000,0.000000,819,819,819,819
7326,0,0.000000,0.000000,-0.125000,0.06,-0.18,-0.000328,0.007000,0.000000,0.000000,0.000000,0.000000,0.000000,0.000000,0.000000,0.000000,0.000000,0.000000,0.000000,0.000000,0.000000,819,819,819,819
7336,0,0.000000,0.000000,-0.125000,0.12,-0.18,0.059359,0.007000,0.000000,0.000000,0.000000,0.000000,0.000000,0.000000,0.000000,0.000000,0.000000,0.000000,0.000000,0.000000,0.000000,819,819,819,819
7346,0,0.000000,0.000000,-0.125000,0.00,0.06,0.181093,0.007000,0.000000,0.000000,0.000000,0.000000,0.000000,0.000000,0.000000,0.000000,0.000000,0.000000,0.000000,0.000000,0.000000,819,819,819,819
7356,0,0.000000,0.000000,-0.125000,0.00,0.06,0.068430,0.007000,0.000000,0.000000,0.000000,0.000000,0.000000,0.000000,0.000000,0.000000,0.000000,0.000000,0.000000,0.000000,0.000000,819,819,819,819
7366,0,0.000000,0.000000,-0.125000,0.00,0.12,-0.055954,0.007000,0.000000,0.000000,0.000000,0.000000,0.000000,0.000000,0.000000,0.000000,0.000000,0.000000,0.000000,0.000000,0.000000,819,819,819,819
7375,0,0.000000,0.000000,-0.125000,0.12,0.18,-0.240298,0.007000,0.000000,0.000000,0.000000,0.000000,0.000000,0.000000,0.000000,0.000000,0.000000,0.000000,0.000000,0.000000,0.000000,819,819,819,819
7386,0,0.000000,0.000000,-0.125000,0.12,-0.18,-0.071390,0.007000,0.000000,0.000000,0.000000,0.000000,0.000000,0.000000,0.000000,0.000000,0.000000,0.000000,0.000000,0.000000,0.000000,819,819,819,819
7395,0,0.062500,0.000000,-0.125000,0.31,0.36,-1.309819,0.007000,0.000000,0.000000,0.000000,0.000000,0.000000,0.000000,0.000000,0.000000,0.000000,0.000000,0.000000,0.000000,0.000000,819,819,819,819
7405,0,0.062500,0.000000,-0.125000,-0.12,0.59,-0.718616,0.007000,0.000000,0.000000,0.000000,0.000000,0.000000,0.000000,0.000000,0.000000,0.000000,0.000000,0.000000,0.000000,0.000000,819,819,819,819
7415,0,0.062500,0.000000,-0.125000,0.00,0.65,-0.095306,0.007000,0.000000,0.000000,0.000000,0.000000,0.000000,0.000000,0.000000,0.000000,0.000000,0.000000,0.000000,0.000000,0.000000,819,819,819,819
7425,0,0.062500,0.000000,-0.125000,0.18,0.59,-0.301640,0.007000,0.000000,0.000000,0.000000,0.000000,0.000000,0.000000,0.000000,0.000000,0.000000,0.000000,0.000000,0.000000,0.000000,819,819,819,819
7436,0,0.062500,0.000000,-0.125000,0.18,0.53,-0.371332,0.007000,0.000000,0.000000,0.000000,0.000000,0.000000,0.000000,0.000000,0.000000,0.000000,0.000000,0.000000,0.000000,0.000000,819,819,819,819
7445,0,0.062500,0.000000,-0.125000,0.00,0.24,-0.374817,0.007000,0.000000,0.000000,0.000000,0.000000,0.000000,0.000000,0.000000,0.000000,0.000000,0.000000,0.000000,0.000000,0.000000,819,819,819,819
7456,0,0.062500,0.000000,-0.125000,-0.06,-0.06,-0.612491,0.007000,0.000000,0.000000,0.000000,0.000000,0.000000,0.000000,0.000000,0.000000,0.000000,0.000000,0.000000,0.000000,0.000000,819,819,819,819
7466,0,0.062500,0.000000,-0.125000,-0.06,-0.18,-0.327500,0.007000,0.000000,0.000000,0.000000,0.000000,0.000000,0.000000,0.000000,0.000000,0.000000,0.000000,0.000000,0.000000,0.000000,819,819,819,819
7475,0,0.062500,0.000000,-0.125000,0.12,-0.36,0.339875,0.007000,0.000000,0.000000,0.000000,0.000000,0.000000,0.000000,0.000000,0.000000,0.000000,0.000000,0.000000,0.000000,0.000000,819,819,819,819
7486,0,0.062500,0.000000,-0.125000,0.06,-0.59,0.729494,0.007000,0.000000,0.000000,0.000000,0.000000,0.000000,0.000000,0.000000,0.000000,0.000000,0.000000,0.000000,0.000000,0.000000,819,819,819,819
7496,0,0.000000,0.000000,-0.125000,-0.31,-0.89,0.986475,0.007000,0.000000,0.000000,0.000000,0.000000,0.000000,0.000000,0.000000,0.000000,0.000000,0.000000,0.000000,0.000000,0.000000,819,819,819,819
7506,0,0.000000,0.000000,-0.125000,0.12,-0.12,0.643074,0.007000,0.000000,0.000000,0.000000,0.000000,0.000000,0.000000,0.000000,0.000000,0.000000,0.000000,0.000000,0.000000,0.000000,819,819,819,819
7516,0,0.000000,0.000000,-0.125000,-0.06,-0.18,-0.086596,0.007000,0.000000,0.000000,0.000000,0.000000,0.000000,0.000000,0.000000,0.000000,0.000000,0.000000,0.000000,0.000000,0.000000,819,819,819,819
7526,0,0.000000,0.000000,-0.125000,0.12,-0.12,0.530045,0.007000,0.000000,0.000000,0.000000,0.000000,0.000000,0.000000,0.000000,0.000000,0.000000,0.000000,0.000000,0.000000,0.000000,819,819,819,819
7536,0,0.000000,0.000000,-0.125000,0.12,0.24,-0.389123,0.007000,0.000000,0.000000,0.000000,0.000000,0.000000,0.000000,0.000000,0.000000,0.000000,0.000000,0.000000,0.000000,0.000000,819,819,819,819
7546,0,0.000000,0.000000,-0.125000,-0.06,0.12,0.752419,0.007000,0.000000,0.000000,0.000000,0.000000,0.000000,0.000000,0.000000,0.000000,0.000000,0.000000,0.000000,0.000000,0.000000,819,819,819,819
7556,0,0.000000,0.000000,-0.125000,-0.06,0.18,0.334496,0.007000,0.000000,0.000000,0.000000,0.000000,0.000000,0.000000,0.000000,0.000000,0.000000,0.000000,0.000000,0.000000,0.000000,819,819,819,819
7566,0,0.000000,0.000000,-0.125000,-0.12,0.47,-0.933275,0.007000,0.000000,0.000000,0.000000,0.000000,0.000000,0.000000,0.000000,0.000000,0.000000,0.000000,0.000000,0.000000,0.000000,819,819,819,819
7576,0,0.062500,0.000000,-0.125000,0.49,0.18,-0.699789,0.007000,0.000000,0.000000,0.000000,0.000000,0.000000,0.000000,0.000000,0.000000,0.000000,0.000000,0.000000,0.000000,0.000000,819,819,819,819
7586,0,0.062500,0.000000,-0.125000,0.06,0.24,-0.806864,0.007000,0.000000,0.000000,0.000000,0.000000,0.000000,0.000000,0.000000,0.000000,0.000000,0.000000,0.000000,0.000000,0.000000,819,819,819,819
7596,0,0.062500,0.000000,-0.125000,-0.12,-0.36,0.078407,0.007000,0.000000,0.000000,0.000000,0.000000,0.000000,0.000000,0.000000,0.000000,0.000000,0.000000,0.000000,0.000000,0.000000,819,819,819,819
7606,0,0.062500,0.000000,-0.125000,-0.12,-0.36,0.122670,0.007000,0.000000,0.000000,0.000000,0.000000,0.000000,0.000000,0.000000,0.000000,0.000000,0.000000,0.000000,0.000000,0.000000,819,819,819,819
7622,0,0.062500,0.000000,-0.125000,0.12,0.42,-0.468866,0.007000,0.000000,0.000000,0.000000,0.000000,0.000000,0.000000,0.000000,0.000000,0.000000,0.000000,0.000000,0.000000,0.000000,819,819,819,819
7635,0,0.062500,0.000000,-0.125000,0.12,-0.36,0.035932,0.007000,0.000000,0.000000,0.000000,0.000000,0.000000,0.000000,0.000000,0.000000,0.000000,0.000000,0.000000,0.000000,0.000000,819,819,819,819
7646,0,0.062500,0.000000,-0.125000,0.06,-0.77,0.654922,0.007000,0.000000,0.000000,0.000000,0.000000,0.000000,0.000000,0.000000,0.000000,0.000000,0.000000,0.000000,0.000000,0.000000,819,819,819,819
7656,0,0.062500,0.000000,-0.125000,0.06,0.00,-0.086004,0.007000,0.000000,0.000000,0.000000,0.000000,0.000000,0.000000,0.000000,0.000000,0.000000,0.000000,0.000000,0.000000,0.000000,819,819,819,819
7666,0,0.000000,0.000000,-0.125000,-0.13,0.00,0.767575,0.007000,0.000000,0.000000,0.000000,0.000000,0.000000,0.000000,0.000000,0.000000,0.000000,0.000000,0.000000,0.000000,0.000000,819,819,819,819
7676,0,0.062500,0.000000,-0.125000,0.49,0.30,-0.911621,0.007000,0.000000,0.000000,0.000000,0.000000,0.000000,0.000000,0.000000,0.000000,0.000000,0.000000,0.000000,0.000000,0.000000,819,819,819,819
7686,0,0.062500,0.000000,-0.125000,0.12,0.18,-0.461206,0.007000,0.000000,0.000000,0.000000,0.000000,0.000000,0.000000,0.000000,0.000000,0.000000,0.000000,0.000000,0.000000,0.000000,819,819,819,819
7696,0,0.062500,0.000000,-0.125000,-0.18,0.00,-0.616810,0.007000,0.000000,0.000000,0.000000,0.000000,0.000000,0.000000,0.000000,0.000000,0.000000,0.000000,0.000000,0.000000,0.000000,819,819,819,819
7706,0,0.062500,0.000000,-0.125000,-0.06,0.18,-0.683965,0.007000,0.000000,0.000000,0.000000,0.000000,0.000000,0.000000,0.000000,0.000000,0.000000,0.000000,0.000000,0.000000,0.000000,819,819,819,819
7716,0,0.062500,0.000000,-0.125000,0.00,0.36,-0.212323,0.007000,0.000000,0.000000,0.000000,0.000000,0.000000,0.000000,0.000000,0.000000,0.000000,0.000000,0.000000,0.000000,0.000000,819,819,819,819
7726,0,0.062500,0.000000,-0.125000,0.18,0.24,-0.307491,0.007000,0.000000,0.000000,0.000000,0.000000,0.000000,0.000000,0.000000,0.000000,0.000000,0.000000,0.000000,0.000000,0.000000,819,819,819,819
7736,0,0.062500,0.000000,-0.125000,0.12,0.65,-0.252875,0.007000,0.000000,0.000000,0.000000,0.000000,0.000000,0.000000,0.000000,0.000000,0.000000,0.000000,0.000000,0.000000,0.000000,819,819,819,819
7746,0,0.062500,0.000000,-0.125000,-0.06,0.59,-0.784519,0.007000,0.000000,0.000000,0.000000,0.000000,0.000000,0.000000,0.000000,0.000000,0.000000,0.000000,0.000000,0.000000,0.000000,819,819,819,819
7756,0,0.062500,0.000000,-0.125000,0.00,0.42,-0.514226,0.007000,0.000000,0.000000,0.000000,0.000000,0.000000,0.000000,0.000000,0.000000,0.000000,0.000000,0.000000,0.000000,0.000000,819,819,819,819
7766,0,0.062500,0.000000,-0.125000,-0.12,0.06,-0.203836,0.007000,0.000000,0.000000,0.000000,0.000000,0.000000,0.000000,0.000000,0.000000,0.000000,0.000000,0.000000,0.000000,0.000000,819,819,819,819
7776,0,0.062500,0.000000,-0.125000,0.06,-0.36,0.049183,0.007000,0.000000,0.000000,0.000000,0.000000,0.000000,0.000000,0.000000,0.000000,0.000000,0.000000,0.000000,0.000000,0.000000,819,819,819,819
7787,0,0.062500,0.000000,-0.125000,0.12,0.47,-0.710041,0.007000,0.000000,0.000000,0.000000,0.000000,0.000000,0.000000,0.000000,0.000000,0.000000,0.000000,0.000000,0.000000,0.000000,819,819,819,819
7796,0,0.062500,0.000000,-0.125000,0.12,0.00,-0.332377,0.007000,0.000000,0.000000,0.000000,0.000000,0.000000,0.000000,0.000000,0.000000,0.000000,0.000000,0.000000,0.000000,0.000000,819,819,819,819
7806,0,0.062500,0.000000,-0.125000,0.00,0.00,-0.194744,0.007000,0.000000,0.000000,0.000000,0.000000,0.000000,0.000000,0.000000,0.000000,0.000000,0.000000,0.000000,0.000000,0.000000,819,819,819,819
7816,0,0.062500,0.000000,-0.125000,0.12,-0.18,0.287138,0.007000,0.000000,0.000000,0.000000,0.000000,0.000000,0.000000,0.000000,0.000000,0.000000,0.000000,0.000000,0.000000,0.000000,819,819,819,819
7826,0,0.062500,0.000000,-0.125000,0.00,-0.30,0.429982,0.007000,0.000000,0.000000,0.000000,0.000000,0.000000,0.000000,0.000000,0.000000,0.000000,0.000000,0.000000,0.000000,0.000000,819,819,819,819
7837,0,0.062500,0.000000,-0.125000,0.00,0.06,-0.631626,0.007000,0.000000,0.000000,0.000000,0.000000,0.000000,0.000000,0.000000,0.000000,0.000000,0.000000,0.000000,0.000000,0.000000,819,819,819,819
7847,0,0.062500,0.000000,-0.125000,0.06,0.06,0.205919,0.007000,0.000000,0.000000,0.000000,0.000000,0.000000,0.000000,0.000000,0.000000,0.000000,0.000000,0.000000,0.000000,0.000000,819,819,819,819
7857,0,0.062500,0.000000,-0.125000,0.06,0.24,-0.464704,0.007000,0.000000,0.000000,0.000000,0.000000,0.000000,0.000000,0.000000,0.000000,0.000000,0.000000,0.000000,0.000000,0.000000,819,819,819,819
7867,0,0.062500,0.000000,-0.125000,0.00,0.12,-0.320110,0.007000,0.000000,0.000000,0.000000,0.000000,0.000000,0.000000,0.000000,0.000000,0.000000,0.000000,0.000000,0.000000,0.000000,819,819,819,819
7877,0,0.062500,0.000000,-0.125000,0.06,0.06,0.162119,0.007000,0.000000,0.000000,0.000000,0.000000,0.000000,0.000000,0.000000,0.000000,0.000000,0.000000,0.000000,0.000000,0.000000,819,819,819,819
7887,0,0.062500,0.000000,-0.125000,0.00,-0.12,0.126856,0.007000,0.000000,0.000000,0.000000,0.000000,0.000000,0.000000,0.000000,0.000000,0.000000,0.000000,0.000000,0.000000,0.000000,819,819,819,819
7897,0,0.062500,0.000000,-0.125000,0.12,0.18,0.125093,0.007000,0.000000,0.000000,0.000000,0.000000,0.000000,0.000000,0.000000,0.000000,0.000000,0.000000,0.000000,0.000000,0.000000,819,819,819,819
7907,0,0.062500,0.000000,-0.125000,0.06,0.12,-0.112495,0.007000,0.000000,0.000000,0.000000,0.000000,0.000000,0.000000,0.000000,0.000000,0.000000,0.000000,0.000000,0.000000,0.000000,819,819,819,819
7920,0,0.062500,0.000000,-0.125000,0.00,0.06,-0.005625,0.007000,0.000000,0.000000,0.000000,0.000000,0.000000,0.000000,0.000000,0.000000,0.000000,0.000000,0.000000,0.000000,0.000000,819,819,819,819
7936,0,0.062500,0.000000,-0.125000,0.12,0.00,-0.000281,0.007000,0.000000,0.000000,0.000000,0.000000,0.000000,0.000000,0.000000,0.000000,0.000000,0.000000,0.000000,0.000000,0.000000,819,819,819,819
7947,0,0.062500,0.000000,-0.125000,0.06,0.00,-0.000014,0.007000,0.000000,0.000000,0.000000,0.000000,0.000000,0.000000,0.000000,0.000000,0.000000,0.000000,0.000000,0.000000,0.000000,819,819,819,819
7957,0,0.062500,0.000000,-0.125000,-0.06,0.18,-0.000000,0.007000,0.000000,0.000000,0.000000,0.000000,0.000000,0.000000,0.000000,0.000000,0.000000,0.000000,0.000000,0.000000,0.000000,819,819,819,819
7967,0,0.062500,0.000000,-0.125000,0.06,0.00,0.118750,0.007000,0.000000,0.000000,0.000000,0.000000,0.000000,0.000000,0.000000,0.000000,0.000000,0.000000,0.000000,0.000000,0.000000,819,819,819,819
7977,0,0.062500,0.000000,-0.125000,-0.06,-0.06,0.005937,0.007000,0.000000,0.000000,0.000000,0.000000,0.000000,0.000000,0.000000,0.000000,0.000000,0.000000,0.000000,0.000000,0.000000,819,819,819,819
7987,0,0.062500,0.000000,-0.125000,-0.06,-0.12,-0.059078,0.007000,0.000000,0.000000,0.000000,0.000000,0.000000,0.000000,0.000000,0.000000,0.000000,0.000000,0.000000,0.000000,0.000000,819,819,819,819
7997,0,0.062500,0.000000,-0.125000,0.00,0.06,0.056421,0.007000,0.000000,0.000000,0.000000,0.000000,0.000000,0.000000,0.000000,0.000000,0.000000,0.000000,0.000000,0.000000,0.000000,819,819,819,819
8007,0,0.062500,0.000000,-0.125000,0.00,0.00,0.062196,0.007000,0.000000,0.000000,0.000000,0.000000,0.000000,0.000000,0.000000,0.000000,0.000000,0.000000,0.000000,0.000000,0.000000,819,819,819,819
8017,0,0.062500,0.000000,-0.125000,0.06,-0.12,-0.115640,0.007000,0.000000,0.000000,0.000000,0.000000,0.000000,0.000000,0.000000,0.000000,0.000000,0.000000,0.000000,0.000000,0.000000,819,819,819,819
8027,0,0.062500,0.000000,-0.125000,0.12,0.06,0.053593,0.007000,0.000000,0.000000,0.000000,0.000000,0.000000,0.000000,0.000000,0.000000,0.000000,0.000000,0.000000,0.000000,0.000000,819,819,819,819
8037,0,0.062500,0.000000,-0.125000,0.00,-0.06,0.002680,0.007000,0.000000,0.000000,0.000000,0.000000,0.000000,0.000000,0.000000,0.000000,0.000000,0.000000,0.000000,0.000000,0.000000,819,819,819,819
8047,0,0.062500,0.000000,-0.125000,0.06,-0.18,-0.118616,0.007000,0.000000,0.000000,0.000000,0.000000,0.000000,0.000000,0.000000,0.000000,0.000000,0.000000,0.000000,0.000000,0.000000,819,819,819,819
8057,0,0.062500,0.000000,-0.125000,0.06,0.00,0.053444,0.007000,0.000000,0.000000,0.000000,0.000000,0.000000,0.000000,0.000000,0.000000,0.000000,0.000000,0.000000,0.000000,0.000000,819,819,819,819
8067,0,0.062500,0.000000,-0.125000,0.00,-0.06,0.002672,0.007000,0.000000,0.000000,0.000000,0.000000,0.000000,0.000000,0.000000,0.000000,0.000000,0.000000,0.000000,0.000000,0.000000,819,819,819,819
8077,0,0.062500,0.000000,-0.125000,0.06,-0.18,0.178259,0.007000,0.000000,0.000000,0.000000,0.000000,0.000000,0.000000,0.000000,0.000000,0.000000,0.000000,0.000000,0.000000,0.000000,819,819,819,819
8087,0,0.062500,0.000000,-0.125000,0.00,-0.12,0.187038,0.007000,0.000000,0.000000,0.000000,0.000000,0.000000,0.000000,0.000000,0.000000,0.000000,0.000000,0.000000,0.000000,0.000000,819,819,819,819
8097,0,0.062500,0.000000,-0.125000,0.12,0.06,-0.050023,0.007000,0.000000,0.000000,0.000000,0.000000,0.000000,0.000000,0.000000,0.000000,0.000000,0.000000,0.000000,0.000000,0.000000,819,819,819,819
8107,0,0.062500,0.000000,-0.125000,0.06,0.00,0.056874,0.007000,0.000000,0.000000,0.000000,0.000000,0.000000,0.000000,0.000000,0.000000,0.000000,0.000000,0.000000,0.000000,0.000000,819,819,819,819
8117,0,0.062500,0.000000,-0.125000,0.00,0.00,0.002844,0.007000,0.000000,0.000000,0.000000,0.000000,0.000000,0.000000,0.000000,0.000000,0.000000,0.000000,0.000000,0.000000,0.000000,819,819,819,819
8127,0,0.062500,0.000000,-0.125000,0.06,0.06,0.059517,0.007000,0.000000,0.000000,0.000000,0.000000,0.000000,0.000000,0.000000,0.000000,0.000000,0.000000,0.000000,0.000000,0.000000,819,819,819,819
8137,0,0.062500,0.000000,-0.125000,-0.06,-0.06,-0.056399,0.007000,0.000000,0.000000,0.000000,0.000000,0.000000,0.000000,0.000000,0.000000,0.000000,0.000000,0.000000,0.000000,0.000000,819,819,819,819
8147,0,0.062500,0.000000,-0.125000,0.06,0.00,-0.002820,0.007000,0.000000,0.000000,0.000000,0.000000,0.000000,0.000000,0.000000,0.000000,0.000000,0.000000,0.000000,0.000000,0.000000,819,819,819,819
8157,0,0.062500,0.000000,-0.125000,0.00,0.00,0.059234,0.007000,0.000000,0.000000,0.000000,0.000000,0.000000,0.000000,0.000000,0.000000,0.000000,0.000000,0.000000,0.000000,0.000000,819,819,819,819
8167,0,0.062500,0.000000,-0.125000,0.00,0.00,0.002962,0.007000,0.000000,0.000000,0.000000,0.000000,0.000000,0.000000,0.000000,0.000000,0.000000,0.000000,0.000000,0.000000,0.000000,819,819,819,819
8177,0,0.062500,0.000000,-0.125000,0.12,0.18,0.059523,0.007000,0.000000,0.000000,0.000000,0.000000,0.000000,0.000000,0.000000,0.000000,0.000000,0.000000,0.000000,0.000000,0.000000,819,819,819,819
8188,0,0.062500,0.000000,-0.125000,0.00,-0.06,0.240476,0.007000,0.000000,0.000000,0.000000,0.000000,0.000000,0.000000,0.000000,0.000000,0.000000,0.000000,0.000000,0.000000,0.000000,819,819,819,819
8197,0,0.062500,0.000000,-0.125000,0.00,0.24,0.130774,0.007000,0.000000,0.000000,0.000000,0.000000,0.000000,0.000000,0.000000,0.000000,0.000000,0.000000,0.000000,0.000000,0.000000,819,819,819,819
8207,0,0.062500,0.000000,-0.125000,0.00,0.18,-0.052836,0.007000,0.000000,0.000000,0.000000,0.000000,0.000000,0.000000,0.000000,0.000000,0.000000,0.000000,0.000000,0.000000,0.000000,819,819,819,819
8217,0,0.062500,0.000000,-0.125000,0.18,-0.06,-0.062017,0.007000,0.000000,0.000000,0.000000,0.000000,0.000000,0.000000,0.000000,0.000000,0.000000,0.000000,0.000000,0.000000,0.000000,819,819,819,819
8228,0,0.062500,0.000000,-0.125000,0.06,0.00,-0.121851,0.007000,0.000000,0.000000,0.000000,0.000000,0.000000,0.000000,0.000000,0.000000,0.000000,0.000000,0.000000,0.000000,0.000000,819,819,819,819
8238,0,0.062500,0.000000,-0.125000,0.12,0.06,-0.006093,0.007000,0.000000,0.000000,0.000000,0.000000,0.000000,0.000000,0.000000,0.000000,0.000000,0.000000,0.000000,0.000000,0.000000,819,819,819,819
8254,0,0.062500,0.000000,-0.125000,-0.12,0.00,0.059070,0.007000,0.000000,0.000000,0.000000,0.000000,0.000000,0.000000,0.000000,0.000000,0.000000,0.000000,0.000000,0.000000,0.000000,819,819,819,819
8267,0,0.062500,0.000000,-0.125000,0.06,0.00,-0.056421,0.007000,0.000000,0.000000,0.000000,0.000000,0.000000,0.000000,0.000000,0.000000,0.000000,0.000000,0.000000,0.000000,0.000000,819,819,819,819
8277,0,0.062500,0.000000,-0.125000,0.06,0.06,-0.062196,0.007000,0.000000,0.000000,0.000000,0.000000,0.000000,0.000000,0.000000,0.000000,0.000000,0.000000,0.000000,0.000000,0.000000,819,819,819,819
8288,0,0.062500,0.000000,-0.125000,0.00,-0.06,-0.062485,0.007000,0.000000,0.000000,0.000000,0.000000,0.000000,0.000000,0.000000,0.000000,0.000000,0.000000,0.000000,0.000000,0.000000,819,819,819,819
8298,0,0.062500,0.000000,-0.125000,0.06,0.06,-0.003124,0.007000,0.000000,0.000000,0.000000,0.000000,0.000000,0.000000,0.000000,0.000000,0.000000,0.000000,0.000000,0.000000,0.000000,819,819,819,819
8308,0,0.062500,0.000000,-0.125000,0.06,0.00,-0.000156,0.007000,0.000000,0.000000,0.000000,0.000000,0.000000,0.000000,0.000000,0.000000,0.000000,0.000000,0.000000,0.000000,0.000000,819,819,819,819
8318,0,0.062500,0.000000,-0.125000,0.06,0.00,-0.059383,0.007000,0.000000,0.000000,0.000000,0.000000,0.000000,0.000000,0.000000,0.000000,0.000000,0.000000,0.000000,0.000000,0.000000,819,819,819,819
8328,0,0.062500,0.000000,-0.125000,-0.12,0.12,0.056406,0.007000,0.000000,0.000000,0.000000,0.000000,0.000000,0.000000,0.000000,0.000000,0.000000,0.000000,0.000000,0.000000,0.000000,819,819,819,819
8338,0,0.062500,0.000000,-0.125000,0.00,0.18,0.121570,0.007000,0.000000,0.000000,0.000000,0.000000,0.000000,0.000000,0.000000,0.000000,0.000000,0.000000,0.000000,0.000000,0.000000,819,819,819,819
8348,0,0.062500,0.000000,-0.125000,-0.06,0.12,0.065454,0.007000,0.000000,0.000000,0.000000,0.000000,0.000000,0.000000,0.000000,0.000000,0.000000,0.000000,0.000000,0.000000,0.000000,819,819,819,819
8358,0,0.062500,0.000000,-0.125000,0.00,0.00,0.181398,0.007000,0.000000,0.000000,0.000000,0.000000,0.000000,0.000000,0.000000,0.000000,0.000000,0.000000,0.000000,0.000000,0.000000,819,819,819,819
8368,0,0.062500,0.000000,-0.125000,-0.06,-0.06,0.009070,0.007000,0.000000,0.000000,0.000000,0.000000,0.000000,0.000000,0.000000,0.000000,0.000000,0.000000,0.000000,0.000000,0.000000,819,819,819,819
8378,0,0.062500,0.000000,-0.125000,0.06,0.00,0.059828,0.007000,0.000000,0.000000,0.000000,0.000000,0.000000,0.000000,0.000000,0.000000,0.000000,0.000000,0.000000,0.000000,0.000000,819,819,819,819
8388,0,0.062500,0.000000,-0.125000,-0.06,-0.12,0.121741,0.007000,0.000000,0.000000,0.000000,0.000000,0.000000,0.000000,0.000000,0.000000,0.000000,0.000000,0.000000,0.000000,0.000000,819,819,819,819
8398,0,0.062500,0.000000,-0.125000,0.06,-0.06,0.124837,0.007000,0.000000,0.000000,0.000000,0.000000,0.000000,0.000000,0.000000,0.000000,0.000000,0.000000,0.000000,0.000000,0.000000,819,819,819,819
8408,0,0.062500,0.000000,-0.125000,-0.06,0.00,0.184367,0.007000,0.000000,0.000000,0.000000,0.000000,0.000000,0.000000,0.000000,0.000000,0.000000,0.000000,0.000000,0.000000,0.000000,819,819,819,819
8418,0,0.062500,0.000000,-0.125000,0.00,-0.06,-0.050157,0.007000,0.000000,0.000000,0.000000,0.000000,0.000000,0.000000,0.000000,0.000000,0.000000,0.000000,0.000000,0.000000,0.000000,819,819,819,819
8428,0,0.062500,0.000000,-0.125000,0.06,0.00,0.116242,0.007000,0.000000,0.000000,0.000000,0.000000,0.000000,0.000000,0.000000,0.000000,0.000000,0.000000,0.000000,0.000000,0.000000,819,819,819,819
8438,0,0.062500,0.000000,-0.125000,0.06,0.00,0.124562,0.007000,0.000000,0.000000,0.000000,0.000000,0.000000,0.000000,0.000000,0.000000,0.000000,0.000000,0.000000,0.000000,0.000000,819,819,819,819
8448,0,0.062500,0.000000,-0.125000,0.24,-0.12,0.006228,0.007000,0.000000,0.000000,0.000000,0.000000,0.000000,0.000000,0.000000,0.000000,0.000000,0.000000,0.000000,0.000000,0.000000,819,819,819,819
8458,0,0.062500,0.000000,-0.125000,0.06,-0.18,0.059686,0.007000,0.000000,0.000000,0.000000,0.000000,0.000000,0.000000,0.000000,0.000000,0.000000,0.000000,0.000000,0.000000,0.000000,819,819,819,819
8468,0,0.062500,0.000000,-0.125000,0.12,0.00,-0.056391,0.007000,0.000000,0.000000,0.000000,0.000000,0.000000,0.000000,0.000000,0.000000,0.000000,0.000000,0.000000,0.000000,0.000000,819,819,819,819
8478,0,0.062500,0.000000,-0.125000,0.06,0.12,0.056555,0.007000,0.000000,0.000000,0.000000,0.000000,0.000000,0.000000,0.000000,0.000000,0.000000,0.000000,0.000000,0.000000,0.000000,819,819,819,819
8488,0,0.062500,0.000000,-0.125000,0.12,0.06,0.002828,0.007000,0.000000,0.000000,0.000000,0.000000,0.000000,0.000000,0.000000,0.000000,0.000000,0.000000,0.000000,0.000000,0.000000,819,819,819,819
8498,0,0.062500,0.000000,-0.125000,0.00,0.18,-0.118609,0.007000,0.000000,0.000000,0.000000,0.000000,0.000000,0.000000,0.000000,0.000000,0.000000,0.000000,0.000000,0.000000,0.000000,819,819,819,819
8508,0,0.062500,0.000000,-0.125000,0.06,0.06,-0.124680,0.007000,0.000000,0.000000,0.000000,0.000000,0.000000,0.000000,0.000000,0.000000,0.000000,0.000000,0.000000,0.000000,0.000000,819,819,819,819
8518,0,0.062500,0.000000,-0.125000,-0.06,0.24,-0.065609,0.007000,0.000000,0.000000,0.000000,0.000000,0.000000,0.000000,0.000000,0.000000,0.000000,0.000000,0.000000,0.000000,0.000000,819,819,819,819
8528,0,0.062500,0.000000,-0.125000,0.12,0.18,-0.003280,0.007000,0.000000,0.000000,0.000000,0.000000,0.000000,0.000000,0.000000,0.000000,0.000000,0.000000,0.000000,0.000000,0.000000,819,819,819,819
8539,0,0.062500,0.000000,-0.125000,-0.06,0.06,0.059211,0.007000,0.000000,0.000000,0.000000,0.000000,0.000000,0.000000,0.000000,0.000000,0.000000,0.000000,0.000000,0.000000,0.000000,819,819,819,819
8548,0,0.062500,0.000000,-0.125000,0.00,0.06,0.062336,0.007000,0.000000,0.000000,0.000000,0.000000,0.000000,0.000000,0.000000,0.000000,0.000000,0.000000,0.000000,0.000000,0.000000,819,819,819,819
8558,0,0.062500,0.000000,-0.125000,0.12,-0.06,0.062492,0.007000,0.000000,0.000000,0.000000,0.000000,0.000000,0.000000,0.000000,0.000000,0.000000,0.000000,0.000000,0.000000,0.000000,819,819,819,819
8575,0,0.062500,0.000000,-0.125000,0.06,-0.06,0.003125,0.007000,0.000000,0.000000,0.000000,0.000000,0.000000,0.000000,0.000000,0.000000,0.000000,0.000000,0.000000,0.000000,0.000000,819,819,819,819
8588,0,0.062500,0.000000,-0.125000,0.06,-0.24,0.059531,0.007000,0.000000,0.000000,0.000000,0.000000,0.000000,0.000000,0.000000,0.000000,0.000000,0.000000,0.000000,0.000000,0.000000,819,819,819,819
8598,0,0.062500,0.000000,-0.125000,0.12,-0.12,0.002977,0.007000,0.000000,0.000000,0.000000,0.000000,0.000000,0.000000,0.000000,0.000000,0.000000,0.000000,0.000000,0.000000,0.000000,819,819,819,819
8608,0,0.062500,0.000000,-0.125000,0.06,-0.12,-0.177976,0.007000,0.000000,0.000000,0.000000,0.000000,0.000000,0.000000,0.000000,0.000000,0.000000,0.000000,0.000000,0.000000,0.000000,819,819,819,819
8619,0,0.062500,0.000000,-0.125000,0.00,-0.12,-0.008899,0.007000,0.000000,0.000000,0.000000,0.000000,0.000000,0.000000,0.000000,0.000000,0.000000,0.000000,0.000000,0.000000,0.000000,819,819,819,819
8629,0,0.062500,0.000000,-0.125000,0.00,-0.06,-0.000445,0.007000,0.000000,0.000000,0.000000,0.000000,0.000000,0.000000,0.000000,0.000000,0.000000,0.000000,0.000000,0.000000,0.000000,819,819,819,819
8639,0,0.062500,0.000000,-0.125000,0.06,-0.12,-0.059397,0.007000,0.000000,0.000000,0.000000,0.000000,0.000000,0.000000,0.000000,0.000000,0.000000,0.000000,0.000000,0.000000,0.000000,819,819,819,819
8649,0,0.062500,0.000000,-0.125000,0.06,-0.12,0.056405,0.007000,0.000000,0.000000,0.000000,0.000000,0.000000,0.000000,0.000000,0.000000,0.000000,0.000000,0.000000,0.000000,0.000000,819,819,819,819
8659,0,0.062500,0.000000,-0.125000,-0.12,0.00,-0.056555,0.007000,0.000000,0.000000,0.000000,0.000000,0.000000,0.000000,0.000000,0.000000,0.000000,0.000000,0.000000,0.000000,0.000000,819,819,819,819
8669,0,0.062500,0.000000,-0.125000,0.00,0.06,-0.002828,0.007000,0.000000,0.000000,0.000000,0.000000,0.000000,0.000000,0.000000,0.000000,0.000000,0.000000,0.000000,0.000000,0.000000,819,819,819,819
8679,0,0.062500,0.000000,-0.125000,0.12,-0.06,-0.000141,0.007000,0.000000,0.000000,0.000000,0.000000,0.000000,0.000000,0.000000,0.000000,0.000000,0.000000,0.000000,0.000000,0.000000,819,819,819,819
8689,0,0.062500,0.000000,-0.125000,-0.06,0.00,0.059368,0.007000,0.000000,0.000000,0.000000,0.000000,0.000000,0.000000,0.000000,0.000000,0.000000,0.000000,0.000000,0.000000,0.000000,819,819,819,819
8699,0,0.062500,0.000000,-0.125000,-0.06,0.00,0.002968,0.007000,0.000000,0.000000,0.000000,0.000000,0.000000,0.000000,0.000000,0.000000,0.000000,0.000000,0.000000,0.000000,0.000000,819,819,819,819
8709,0,0.062500,0.000000,-0.125000,-0.12,-0.24,-0.059227,0.007000,0.000000,0.000000,0.000000,0.000000,0.000000,0.000000,0.000000,0.000000,0.000000,0.000000,0.000000,0.000000,0.000000,819,819,819,819
8719,0,0.062500,0.000000,-0.125000,0.00,-0.06,-0.062336,0.007000,0.000000,0.000000,0.000000,0.000000,0.000000,0.000000,0.000000,0.000000,0.000000,0.000000,0.000000,0.000000,0.000000,819,819,819,819
8729,0,0.062500,0.000000,-0.125000,0.06,0.12,0.115633,0.007000,0.000000,0.000000,0.000000,0.000000,0.000000,0.000000,0.000000,0.000000,0.000000,0.000000,0.000000,0.000000,0.000000,819,819,819,819
8739,0,0.062500,0.000000,-0.125000,0.00,-0.06,0.005782,0.007000,0.000000,0.000000,0.000000,0.000000,0.000000,0.000000,0.000000,0.000000,0.000000,0.000000,0.000000,0.000000,0.000000,819,819,819,819
8749,0,0.062500,0.000000,-0.125000,0.06,0.00,-0.118461,0.007000,0.000000,0.000000,0.000000,0.000000,0.000000,0.000000,0.000000,0.000000,0.000000,0.000000,0.000000,0.000000,0.000000,819,819,819,819
8759,0,0.062500,0.000000,-0.125000,0.06,-0.12,-0.065298,0.007000,0.000000,0.000000,0.000000,0.000000,0.000000,0.000000,0.000000,0.000000,0.000000,0.000000,0.000000,0.000000,0.000000,819,819,819,819
8769,0,0.062500,0.000000,-0.125000,-0.12,0.06,0.115485,0.007000,0.000000,0.000000,0.000000,0.000000,0.000000,0.000000,0.000000,0.000000,0.000000,0.000000,0.000000,0.000000,0.000000,819,819,819,819
8782,0,0.062500,0.000000,-0.125000,0.06,-0.06,0.005774,0.007000,0.000000,0.000000,0.000000,0.000000,0.000000,0.000000,0.000000,0.000000,0.000000,0.000000,0.000000,0.000000,0.000000,819,819,819,819
8792,0,0.062500,0.000000,-0.125000,0.00,-0.24,0.119039,0.007000,0.000000,0.000000,0.000000,0.000000,0.000000,0.000000,0.000000,0.000000,0.000000,0.000000,0.000000,0.000000,0.000000,819,819,819,819
8801,0,0.062500,0.000000,-0.125000,0.00,-0.24,-0.112798,0.007000,0.000000,0.000000,0.000000,0.000000,0.000000,0.000000,0.000000,0.000000,0.000000,0.000000,0.000000,0.000000,0.000000,819,819,819,819
8811,0,0.062500,0.000000,-0.125000,0.00,-0.12,-0.124390,0.007000,0.000000,0.000000,0.000000,0.000000,0.000000,0.000000,0.000000,0.000000,0.000000,0.000000,0.000000,0.000000,0.000000,819,819,819,819
8821,0,0.062500,0.000000,-0.125000,-0.06,0.00,-0.124969,0.007000,0.000000,0.000000,0.000000,0.000000,0.000000,0.000000,0.000000,0.000000,0.000000,0.000000,0.000000,0.000000,0.000000,819,819,819,819
8831,0,0.062500,0.000000,-0.125000,0.06,0.06,-0.006248,0.007000,0.000000,0.000000,0.000000,0.000000,0.000000,0.000000,0.000000,0.000000,0.000000,0.000000,0.000000,0.000000,0.000000,819,819,819,819
8841,0,0.062500,0.000000,-0.125000,0.12,-0.06,-0.119062,0.007000,0.000000,0.000000,0.000000,0.000000,0.000000,0.000000,0.000000,0.000000,0.000000,0.000000,0.000000,0.000000,0.000000,819,819,819,819
8851,0,0.062500,0.000000,-0.125000,-0.06,-0.12,0.112797,0.007000,0.000000,0.000000,0.000000,0.000000,0.000000,0.000000,0.000000,0.000000,0.000000,0.000000,0.000000,0.000000,0.000000,819,819,819,819
8861,0,0.062500,0.000000,-0.125000,-0.06,-0.06,0.065015,0.007000,0.000000,0.000000,0.000000,0.000000,0.000000,0.000000,0.000000,0.000000,0.000000,0.000000,0.000000,0.000000,0.000000,819,819,819,819
8871,0,0.062500,0.000000,-0.125000,0.00,0.06,-0.056124,0.007000,0.000000,0.000000,0.000000,0.000000,0.000000,0.000000,0.000000,0.000000,0.000000,0.000000,0.000000,0.000000,0.000000,819,819,819,819
8887,0,0.062500,0.000000,-0.125000,0.06,0.00,-0.121556,0.007000,0.000000,0.000000,0.000000,0.000000,0.000000,0.000000,0.000000,0.000000,0.000000,0.000000,0.000000,0.000000,0.000000,819,819,819,819
8900,0,0.062500,0.000000,-0.125000,0.12,0.12,-0.006078,0.007000,0.000000,0.000000,0.000000,0.000000,0.000000,0.000000,0.000000,0.000000,0.000000,0.000000,0.000000,0.000000,0.000000,819,819,819,819
8910,0,0.062500,0.000000,-0.125000,0.12,0.12,-0.059679,0.007000,0.000000,0.000000,0.000000,0.000000,0.000000,0.000000,0.000000,0.000000,0.000000,0.000000,0.000000,0.000000,0.000000,819,819,819,819
8920,0,0.062500,0.000000,-0.125000,0.00,0.00,0.056391,0.007000,0.000000,0.000000,0.000000,0.000000,0.000000,0.000000,0.000000,0.000000,0.000000,0.000000,0.000000,0.000000,0.000000,819,819,819,819
8930,0,0.062500,0.000000,-0.125000,0.06,0.06,0.121570,0.007000,0.000000,0.000000,0.000000,0.000000,0.000000,0.000000,0.000000,0.000000,0.000000,0.000000,0.000000,0.000000,0.000000,819,819,819,819
8940,0,0.062500,0.000000,-0.125000,0.00,-0.24,0.006078,0.007000,0.000000,0.000000,0.000000,0.000000,0.000000,0.000000,0.000000,0.000000,0.000000,0.000000,0.000000,0.000000,0.000000,819,819,819,819
8950,0,0.062500,0.000000,-0.125000,0.06,-0.18,-0.059071,0.007000,0.000000,0.000000,0.000000,0.000000,0.000000,0.000000,0.000000,0.000000,0.000000,0.000000,0.000000,0.000000,0.000000,819,819,819,819
8960,0,0.062500,0.000000,-0.125000,0.00,-0.18,-0.062329,0.007000,0.000000,0.000000,0.000000,0.000000,0.000000,0.000000,0.000000,0.000000,0.000000,0.000000,0.000000,0.000000,0.000000,819,819,819,819
8970,0,0.062500,0.000000,-0.125000,-0.06,-0.06,-0.062491,0.007000,0.000000,0.000000,0.000000,0.000000,0.000000,0.000000,0.000000,0.000000,0.000000,0.000000,0.000000,0.000000,0.000000,819,819,819,819
8980,0,0.062500,0.000000,-0.125000,0.00,-0.12,-0.062500,0.007000,0.000000,0.000000,0.000000,0.000000,0.000000,0.000000,0.000000,0.000000,0.000000,0.000000,0.000000,0.000000,0.000000,819,819,819,819
8990,0,0.062500,0.000000,-0.125000,0.00,0.06,-0.062500,0.007000,0.000000,0.000000,0.000000,0.000000,0.000000,0.000000,0.000000,0.000000,0.000000,0.000000,0.000000,0.000000,0.000000,819,819,819,819
9000,0,0.062500,0.000000,-0.125000,0.06,-0.06,-0.062500,0.007000,0.000000,0.000000,0.000000,0.000000,0.000000,0.000000,0.000000,0.000000,0.000000,0.000000,0.000000,0.000000,0.000000,819,819,819,819
9010,0,0.062500,0.000000,-0.125000,0.06,-0.18,-0.121875,0.007000,0.000000,0.000000,0.000000,0.000000,0.000000,0.000000,0.000000,0.000000,0.000000,0.000000,0.000000,0.000000,0.000000,819,819,819,819
9019,0,0.062500,0.000000,-0.125000,-0.06,-0.12,-0.006094,0.007000,0.000000,0.000000,0.000000,0.000000,0.000000,0.000000,0.000000,0.000000,0.000000,0.000000,0.000000,0.000000,0.000000,819,819,819,819
9030,0,0.062500,0.000000,-0.125000,0.06,0.06,-0.000305,0.007000,0.000000,0.000000,0.000000,0.000000,0.000000,0.000000,0.000000,0.000000,0.000000,0.000000,0.000000,0.000000,0.000000,819,819,819,819
9040,0,0.062500,0.000000,-0.125000,-0.06,-0.12,-0.118765,0.007000,0.000000,0.000000,0.000000,0.000000,0.000000,0.000000,0.000000,0.000000,0.000000,0.000000,0.000000,0.000000,0.000000,819,819,819,819
9050,0,0.062500,0.000000,-0.125000,0.00,-0.06,-0.124688,0.007000,0.000000,0.000000,0.000000,0.000000,0.000000,0.000000,0.000000,0.000000,0.000000,0.000000,0.000000,0.000000,0.000000,819,819,819,819
9060,0,0.062500,0.000000,-0.125000,0.00,0.00,0.053141,0.007000,0.000000,0.000000,0.000000,0.000000,0.000000,0.000000,0.000000,0.000000,0.000000,0.000000,0.000000,0.000000,0.000000,819,819,819,819
9070,0,0.062500,0.000000,-0.125000,0.00,-0.06,0.062032,0.007000,0.000000,0.000000,0.000000,0.000000,0.000000,0.000000,0.000000,0.000000,0.000000,0.000000,0.000000,0.000000,0.000000,819,819,819,819
9080,0,0.062500,0.000000,-0.125000,0.00,0.18,0.062477,0.007000,0.000000,0.000000,0.000000,0.000000,0.000000,0.000000,0.000000,0.000000,0.000000,0.000000,0.000000,0.000000,0.000000,819,819,819,819
9090,0,0.062500,0.000000,-0.125000,0.00,0.00,-0.056251,0.007000,0.000000,0.000000,0.000000,0.000000,0.000000,0.000000,0.000000,0.000000,0.000000,0.000000,0.000000,0.000000,0.000000,819,819,819,819
9100,0,0.062500,0.000000,-0.125000,0.06,0.18,0.056562,0.007000,0.000000,0.000000,0.000000,0.000000,0.000000,0.000000,0.000000,0.000000,0.000000,0.000000,0.000000,0.000000,0.000000,819,819,819,819
9110,0,0.062500,0.000000,-0.125000,0.00,0.12,-0.115922,0.007000,0.000000,0.000000,0.000000,0.000000,0.000000,0.000000,0.000000,0.000000,0.000000,0.000000,0.000000,0.000000,0.000000,819,819,819,819
9120,0,0.062500,0.000000,-0.125000,0.06,0.00,-0.005796,0.007000,0.000000,0.000000,0.000000,0.000000,0.000000,0.000000,0.000000,0.000000,0.000000,0.000000,0.000000,0.000000,0.000000,819,819,819,819
9130,0,0.062500,0.000000,-0.125000,0.12,0.00,-0.000290,0.007000,0.000000,0.000000,0.000000,0.000000,0.000000,0.000000,0.000000,0.000000,0.000000,0.000000,0.000000,0.000000,0.000000,819,819,819,819
9140,0,0.062500,0.000000,-0.125000,0.00,0.00,0.118736,0.007000,0.000000,0.000000,0.000000,0.000000,0.000000,0.000000,0.000000,0.000000,0.000000,0.000000,0.000000,0.000000,0.000000,819,819,819,819
9150,0,0.062500,0.000000,-0.125000,-0.06,0.06,0.005937,0.007000,0.000000,0.000000,0.000000,0.000000,0.000000,0.000000,0.000000,0.000000,0.000000,0.000000,0.000000,0.000000,0.000000,819,819,819,819
9160,0,0.062500,0.000000,-0.125000,0.00,-0.24,0.119047,0.007000,0.000000,0.000000,0.000000,0.000000,0.000000,0.000000,0.000000,0.000000,0.000000,0.000000,0.000000,0.000000,0.000000,819,819,819,819
9170,0,0.062500,0.000000,-0.125000,0.00,-0.30,0.065327,0.007000,0.000000,0.000000,0.000000,0.000000,0.000000,0.000000,0.000000,0.000000,0.000000,0.000000,0.000000,0.000000,0.000000,819,819,819,819
9180,0,0.062500,0.000000,-0.125000,0.12,-0.12,-0.056109,0.007000,0.000000,0.000000,0.000000,0.000000,0.000000,0.000000,0.000000,0.000000,0.000000,0.000000,0.000000,0.000000,0.000000,819,819,819,819
9190,0,0.062500,0.000000,-0.125000,0.06,-0.06,-0.002805,0.007000,0.000000,0.000000,0.000000,0.000000,0.000000,0.000000,0.000000,0.000000,0.000000,0.000000,0.000000,0.000000,0.000000,819,819,819,819
9206,0,0.062500,0.000000,-0.125000,0.00,-0.18,0.059235,0.007000,0.000000,0.000000,0.000000,0.000000,0.000000,0.000000,0.000000,0.000000,0.000000,0.000000,0.000000,0.000000,0.000000,819,819,819,819
9220,0,0.062500,0.000000,-0.125000,0.00,-0.06,-0.056413,0.007000,0.000000,0.000000,0.000000,0.000000,0.000000,0.000000,0.000000,0.000000,0.000000,0.000000,0.000000,0.000000,0.000000,819,819,819,819
9230,0,0.062500,0.000000,-0.125000,0.00,-0.06,-0.002821,0.007000,0.000000,0.000000,0.000000,0.000000,0.000000,0.000000,0.000000,0.000000,0.000000,0.000000,0.000000,0.000000,0.000000,819,819,819,819
9240,0,0.062500,0.000000,-0.125000,0.06,-0.06,-0.000141,0.007000,0.000000,0.000000,0.000000,0.000000,0.000000,0.000000,0.000000,0.000000,0.000000,0.000000,0.000000,0.000000,0.000000,819,819,819,819
9250,0,0.062500,0.000000,-0.125000,0.00,-0.24,-0.000007,0.007000,0.000000,0.000000,0.000000,0.000000,0.000000,0.000000,0.000000,0.000000,0.000000,0.000000,0.000000,0.000000,0.000000,819,819,819,819
9260,0,0.062500,0.000000,-0.125000,0.00,0.06,0.118750,0.007000,0.000000,0.000000,0.000000,0.000000,0.000000,0.000000,0.000000,0.000000,0.000000,0.000000,0.000000,0.000000,0.000000,819,819,819,819
9270,0,0.062500,0.000000,-0.125000,0.12,0.06,-0.053438,0.007000,0.000000,0.000000,0.000000,0.000000,0.000000,0.000000,0.000000,0.000000,0.000000,0.000000,0.000000,0.000000,0.000000,819,819,819,819
9280,0,0.062500,0.000000,-0.125000,0.00,0.30,0.056703,0.007000,0.000000,0.000000,0.000000,0.000000,0.000000,0.000000,0.000000,0.000000,0.000000,0.000000,0.000000,0.000000,0.000000,819,819,819,819
9291,0,0.062500,0.000000,-0.125000,0.06,0.06,0.062210,0.007000,0.000000,0.000000,0.000000,0.000000,0.000000,0.000000,0.000000,0.000000,0.000000,0.000000,0.000000,0.000000,0.000000,819,819,819,819
9301,0,0.062500,0.000000,-0.125000,-0.06,0.06,0.003111,0.007000,0.000000,0.000000,0.000000,0.000000,0.000000,0.000000,0.000000,0.000000,0.000000,0.000000,0.000000,0.000000,0.000000,819,819,819,819
9310,0,0.062500,0.000000,-0.125000,0.06,0.00,0.000156,0.007000,0.000000,0.000000,0.000000,0.000000,0.000000,0.000000,0.000000,0.000000,0.000000,0.000000,0.000000,0.000000,0.000000,819,819,819,819
9320,0,0.062500,0.000000,-0.125000,0.06,0.00,0.118758,0.007000,0.000000,0.000000,0.000000,0.000000,0.000000,0.000000,0.000000,0.000000,0.000000,0.000000,0.000000,0.000000,0.000000,819,819,819,819
9330,0,0.062500,0.000000,-0.125000,0.00,0.00,0.005938,0.007000,0.000000,0.000000,0.000000,0.000000,0.000000,0.000000,0.000000,0.000000,0.000000,0.000000,0.000000,0.000000,0.000000,819,819,819,819
9341,0,0.062500,0.000000,-0.125000,-0.06,-0.06,0.059672,0.007000,0.000000,0.000000,0.000000,0.000000,0.000000,0.000000,0.000000,0.000000,0.000000,0.000000,0.000000,0.000000,0.000000,819,819,819,819
9351,0,0.062500,0.000000,-0.125000,-0.06,-0.06,0.121734,0.007000,0.000000,0.000000,0.000000,0.000000,0.000000,0.000000,0.000000,0.000000,0.000000,0.000000,0.000000,0.000000,0.000000,819,819,819,819
9361,0,0.062500,0.000000,-0.125000,0.12,-0.24,0.065462,0.007000,0.000000,0.000000,0.000000,0.000000,0.000000,0.000000,0.000000,0.000000,0.000000,0.000000,0.000000,0.000000,0.000000,819,819,819,819
9371,0,0.062500,0.000000,-0.125000,0.06,-0.24,0.003273,0.007000,0.000000,0.000000,0.000000,0.000000,0.000000,0.000000,0.000000,0.000000,0.000000,0.000000,0.000000,0.000000,0.000000,819,819,819,819
9381,0,0.062500,0.000000,-0.125000,0.12,-0.06,0.000164,0.007000,0.000000,0.000000,0.000000,0.000000,0.000000,0.000000,0.000000,0.000000,0.000000,0.000000,0.000000,0.000000,0.000000,819,819,819,819
9391,0,0.062500,0.000000,-0.125000,0.00,-0.06,0.059383,0.007000,0.000000,0.000000,0.000000,0.000000,0.000000,0.000000,0.000000,0.000000,0.000000,0.000000,0.000000,0.000000,0.000000,819,819,819,819
9401,0,0.062500,0.000000,-0.125000,0.06,-0.06,0.062344,0.007000,0.000000,0.000000,0.000000,0.000000,0.000000,0.000000,0.000000,0.000000,0.000000,0.000000,0.000000,0.000000,0.000000,819,819,819,819
9411,0,0.062500,0.000000,-0.125000,0.00,0.06,-0.115633,0.007000,0.000000,0.000000,0.000000,0.000000,0.000000,0.000000,0.000000,0.000000,0.000000,0.000000,0.000000,0.000000,0.000000,819,819,819,819
9421,0,0.062500,0.000000,-0.125000,0.00,0.06,0.053593,0.007000,0.000000,0.000000,0.000000,0.000000,0.000000,0.000000,0.000000,0.000000,0.000000,0.000000,0.000000,0.000000,0.000000,819,819,819,819
9431,0,0.062500,0.000000,-0.125000,0.12,0.24,0.002680,0.007000,0.000000,0.000000,0.000000,0.000000,0.000000,0.000000,0.000000,0.000000,0.000000,0.000000,0.000000,0.000000,0.000000,819,819,819,819
9441,0,0.062500,0.000000,-0.125000,0.06,0.06,0.000134,0.007000,0.000000,0.000000,0.000000,0.000000,0.000000,0.000000,0.000000,0.000000,0.000000,0.000000,0.000000,0.000000,0.000000,819,819,819,819
9451,0,0.062500,0.000000,-0.125000,0.06,0.00,0.000007,0.007000,0.000000,0.000000,0.000000,0.000000,0.000000,0.000000,0.000000,0.000000,0.000000,0.000000,0.000000,0.000000,0.000000,819,819,819,819
9461,0,0.062500,0.000000,-0.125000,-0.06,0.12,0.059375,0.007000,0.000000,0.000000,0.000000,0.000000,0.000000,0.000000,0.000000,0.000000,0.000000,0.000000,0.000000,0.000000,0.000000,819,819,819,819
9471,0,0.062500,0.000000,-0.125000,0.06,-0.06,-0.056406,0.007000,0.000000,0.000000,0.000000,0.000000,0.000000,0.000000,0.000000,0.000000,0.000000,0.000000,0.000000,0.000000,0.000000,819,819,819,819
9481,0,0.062500,0.000000,-0.125000,0.00,0.18,-0.062195,0.007000,0.000000,0.000000,0.000000,0.000000,0.000000,0.000000,0.000000,0.000000,0.000000,0.000000,0.000000,0.000000,0.000000,819,819,819,819
9491,0,0.062500,0.000000,-0.125000,0.06,0.06,-0.003110,0.007000,0.000000,0.000000,0.000000,0.000000,0.000000,0.000000,0.000000,0.000000,0.000000,0.000000,0.000000,0.000000,0.000000,819,819,819,819
9501,0,0.062500,0.000000,-0.125000,0.00,0.06,-0.000155,0.007000,0.000000,0.000000,0.000000,0.000000,0.000000,0.000000,0.000000,0.000000,0.000000,0.000000,0.000000,0.000000,0.000000,819,819,819,819
9511,0,0.062500,0.000000,-0.125000,0.06,0.06,0.059367,0.007000,0.000000,0.000000,0.000000,0.000000,0.000000,0.000000,0.000000,0.000000,0.000000,0.000000,0.000000,0.000000,0.000000,819,819,819,819
9527,0,0.062500,0.000000,-0.125000,0.00,-0.06,0.062343,0.007000,0.000000,0.000000,0.000000,0.000000,0.000000,0.000000,0.000000,0.000000,0.000000,0.000000,0.000000,0.000000,0.000000,819,819,819,819
9540,0,0.062500,0.000000,-0.125000,0.00,-0.06,0.003117,0.007000,0.000000,0.000000,0.000000,0.000000,0.000000,0.000000,0.000000,0.000000,0.000000,0.000000,0.000000,0.000000,0.000000,819,819,819,819
9551,0,0.062500,0.000000,-0.125000,0.06,-0.12,0.059531,0.007000,0.000000,0.000000,0.000000,0.000000,0.000000,0.000000,0.000000,0.000000,0.000000,0.000000,0.000000,0.000000,0.000000,819,819,819,819
9561,0,0.062500,0.000000,-0.125000,-0.12,0.18,0.062352,0.007000,0.000000,0.000000,0.000000,0.000000,0.000000,0.000000,0.000000,0.000000,0.000000,0.000000,0.000000,0.000000,0.000000,819,819,819,819
9571,0,0.062500,0.000000,-0.125000,-0.06,0.12,0.062493,0.007000,0.000000,0.000000,0.000000,0.000000,0.000000,0.000000,0.000000,0.000000,0.000000,0.000000,0.000000,0.000000,0.000000,819,819,819,819
9581,0,0.062500,0.000000,-0.125000,0.06,0.06,0.062500,0.007000,0.000000,0.000000,0.000000,0.000000,0.000000,0.000000,0.000000,0.000000,0.000000,0.000000,0.000000,0.000000,0.000000,819,819,819,819
9591,0,0.062500,0.000000,-0.125000,0.00,-0.12,0.181250,0.007000,0.000000,0.000000,0.000000,0.000000,0.000000,0.000000,0.000000,0.000000,0.000000,0.000000,0.000000,0.000000,0.000000,819,819,819,819
9601,0,0.062500,0.000000,-0.125000,-0.18,0.06,0.009062,0.007000,0.000000,0.000000,0.000000,0.000000,0.000000,0.000000,0.000000,0.000000,0.000000,0.000000,0.000000,0.000000,0.000000,819,819,819,819
9611,0,0.062500,0.000000,-0.125000,0.00,0.12,-0.058922,0.007000,0.000000,0.000000,0.000000,0.000000,0.000000,0.000000,0.000000,0.000000,0.000000,0.000000,0.000000,0.000000,0.000000,819,819,819,819
9621,0,0.062500,0.000000,-0.125000,-0.12,0.00,-0.002946,0.007000,0.000000,0.000000,0.000000,0.000000,0.000000,0.000000,0.000000,0.000000,0.000000,0.000000,0.000000,0.000000,0.000000,819,819,819,819
9631,0,0.062500,0.000000,-0.125000,-0.12,0.00,-0.000147,0.007000,0.000000,0.000000,0.000000,0.000000,0.000000,0.000000,0.000000,0.000000,0.000000,0.000000,0.000000,0.000000,0.000000,819,819,819,819
9644,0,0.062500,0.000000,-0.125000,-0.06,-0.06,-0.000007,0.007000,0.000000,0.000000,0.000000,0.000000,0.000000,0.000000,0.000000,0.000000,0.000000,0.000000,0.000000,0.000000,0.000000,819,819,819,819
9654,0,0.062500,0.000000,-0.125000,0.00,0.12,-0.000000,0.007000,0.000000,0.000000,0.000000,0.000000,0.000000,0.000000,0.000000,0.000000,0.000000,0.000000,0.000000,0.000000,0.000000,819,819,819,819
9664,0,0.062500,0.000000,-0.125000,-0.12,0.06,-0.000000,0.007000,0.000000,0.000000,0.000000,0.000000,0.000000,0.000000,0.000000,0.000000,0.000000,0.000000,0.000000,0.000000,0.000000,819,819,819,819
9673,0,0.062500,0.000000,-0.125000,0.00,0.12,-0.000000,0.007000,0.000000,0.000000,0.000000,0.000000,0.000000,0.000000,0.000000,0.000000,0.000000,0.000000,0.000000,0.000000,0.000000,819,819,819,819
9683,0,0.062500,0.000000,-0.125000,-0.06,0.18,-0.000000,0.007000,0.000000,0.000000,0.000000,0.000000,0.000000,0.000000,0.000000,0.000000,0.000000,0.000000,0.000000,0.000000,0.000000,819,819,819,819
9693,0,0.062500,0.000000,-0.125000,0.06,-0.06,-0.118750,0.007000,0.000000,0.000000,0.000000,0.000000,0.000000,0.000000,0.000000,0.000000,0.000000,0.000000,0.000000,0.000000,0.000000,819,819,819,819
9703,0,0.062500,0.000000,-0.125000,-0.06,-0.12,-0.065312,0.007000,0.000000,0.000000,0.000000,0.000000,0.000000,0.000000,0.000000,0.000000,0.000000,0.000000,0.000000,0.000000,0.000000,819,819,819,819
9713,0,0.062500,0.000000,-0.125000,0.00,0.00,-0.003266,0.007000,0.000000,0.000000,0.000000,0.000000,0.000000,0.000000,0.000000,0.000000,0.000000,0.000000,0.000000,0.000000,0.000000,819,819,819,819
9723,0,0.062500,0.000000,-0.125000,0.00,0.18,-0.000163,0.007000,0.000000,0.000000,0.000000,0.000000,0.000000,0.000000,0.000000,0.000000,0.000000,0.000000,0.000000,0.000000,0.000000,819,819,819,819
9733,0,0.062500,0.000000,-0.125000,-0.12,0.00,0.059367,0.007000,0.000000,0.000000,0.000000,0.000000,0.000000,0.000000,0.000000,0.000000,0.000000,0.000000,0.000000,0.000000,0.000000,819,819,819,819
9743,0,0.062500,0.000000,-0.125000,-0.06,0.00,0.121718,0.007000,0.000000,0.000000,0.000000,0.000000,0.000000,0.000000,0.000000,0.000000,0.000000,0.000000,0.000000,0.000000,0.000000,819,819,819,819
9753,0,0.062500,0.000000,-0.125000,-0.06,-0.12,0.124836,0.007000,0.000000,0.000000,0.000000,0.000000,0.000000,0.000000,0.000000,0.000000,0.000000,0.000000,0.000000,0.000000,0.000000,819,819,819,819
9762,0,0.062500,0.000000,-0.125000,0.06,0.06,0.006242,0.007000,0.000000,0.000000,0.000000,0.000000,0.000000,0.000000,0.000000,0.000000,0.000000,0.000000,0.000000,0.000000,0.000000,819,819,819,819
9772,0,0.062500,0.000000,-0.125000,-0.06,-0.12,0.000312,0.007000,0.000000,0.000000,0.000000,0.000000,0.000000,0.000000,0.000000,0.000000,0.000000,0.000000,0.000000,0.000000,0.000000,819,819,819,819
9782,0,0.062500,0.000000,-0.125000,0.00,0.00,0.000016,0.007000,0.000000,0.000000,0.000000,0.000000,0.000000,0.000000,0.000000,0.000000,0.000000,0.000000,0.000000,0.000000,0.000000,819,819,819,819
9792,0,0.062500,0.000000,-0.125000,0.00,0.18,0.000000,0.007000,0.000000,0.000000,0.000000,0.000000,0.000000,0.000000,0.000000,0.000000,0.000000,0.000000,0.000000,0.000000,0.000000,819,819,819,819
9802,0,0.062500,0.000000,-0.125000,0.00,0.00,0.059375,0.007000,0.000000,0.000000,0.000000,0.000000,0.000000,0.000000,0.000000,0.000000,0.000000,0.000000,0.000000,0.000000,0.000000,819,819,819,819
9812,0,0.062500,0.000000,-0.125000,0.06,-0.12,0.062344,0.007000,0.000000,0.000000,0.000000,0.000000,0.000000,0.000000,0.000000,0.000000,0.000000,0.000000,0.000000,0.000000,0.000000,819,819,819,819
9822,0,0.062500,0.000000,-0.125000,-0.18,-0.24,-0.115633,0.007000,0.000000,0.000000,0.000000,0.000000,0.000000,0.000000,0.000000,0.000000,0.000000,0.000000,0.000000,0.000000,0.000000,819,819,819,819
9838,0,0.062500,0.000000,-0.125000,0.12,0.00,-0.065157,0.007000,0.000000,0.000000,0.000000,0.000000,0.000000,0.000000,0.000000,0.000000,0.000000,0.000000,0.000000,0.000000,0.000000,819,819,819,819
9851,0,0.062500,0.000000,-0.125000,0.06,-0.06,-0.003258,0.007000,0.000000,0.000000,0.000000,0.000000,0.000000,0.000000,0.000000,0.000000,0.000000,0.000000,0.000000,0.000000,0.000000,819,819,819,819
9861,0,0.062500,0.000000,-0.125000,0.00,-0.18,-0.000163,0.007000,0.000000,0.000000,0.000000,0.000000,0.000000,0.000000,0.000000,0.000000,0.000000,0.000000,0.000000,0.000000,0.000000,819,819,819,819
9872,0,0.062500,0.000000,-0.125000,-0.06,0.00,-0.059383,0.007000,0.000000,0.000000,0.000000,0.000000,0.000000,0.000000,0.000000,0.000000,0.000000,0.000000,0.000000,0.000000,0.000000,819,819,819,819
9882,0,0.062500,0.000000,-0.125000,0.06,-0.06,0.056406,0.007000,0.000000,0.000000,0.000000,0.000000,0.000000,0.000000,0.000000,0.000000,0.000000,0.000000,0.000000,0.000000,0.000000,819,819,819,819
9892,0,0.062500,0.000000,-0.125000,-0.12,-0.24,0.062195,0.007000,0.000000,0.000000,0.000000,0.000000,0.000000,0.000000,0.000000,0.000000,0.000000,0.000000,0.000000,0.000000,0.000000,819,819,819,819
9902,0,0.062500,0.000000,-0.125000,-0.06,0.12,0.003110,0.007000,0.000000,0.000000,0.000000,0.000000,0.000000,0.000000,0.000000,0.000000,0.000000,0.000000,0.000000,0.000000,0.000000,819,819,819,819
9912,0,0.062500,0.000000,-0.125000,-0.06,-0.06,0.118905,0.007000,0.000000,0.000000,0.000000,0.000000,0.000000,0.000000,0.000000,0.000000,0.000000,0.000000,0.000000,0.000000,0.000000,819,819,819,819
9922,0,0.062500,0.000000,-0.125000,-0.12,0.00,0.124695,0.007000,0.000000,0.000000,0.000000,0.000000,0.000000,0.000000,0.000000,0.000000,0.000000,0.000000,0.000000,0.000000,0.000000,819,819,819,819
9932,0,0.062500,0.000000,-0.125000,-0.06,0.00,0.006235,0.007000,0.000000,0.000000,0.000000,0.000000,0.000000,0.000000,0.000000,0.000000,0.000000,0.000000,0.000000,0.000000,0.000000,819,819,819,819
9942,0,0.062500,0.000000,-0.125000,0.06,0.18,0.119062,0.007000,0.000000,0.000000,0.000000,0.000000,0.000000,0.000000,0.000000,0.000000,0.000000,0.000000,0.000000,0.000000,0.000000,819,819,819,819
9952,0,0.062500,0.000000,-0.125000,0.00,-0.12,0.005953,0.007000,0.000000,0.000000,0.000000,0.000000,0.000000,0.000000,0.000000,0.000000,0.000000,0.000000,0.000000,0.000000,0.000000,819,819,819,819
9962,0,0.062500,0.000000,-0.125000,-0.06,0.12,0.059673,0.007000,0.000000,0.000000,0.000000,0.000000,0.000000,0.000000,0.000000,0.000000,0.000000,0.000000,0.000000,0.000000,0.000000,819,819,819,819
9972,0,0.062500,0.000000,-0.125000,0.00,0.06,0.002984,0.007000,0.000000,0.000000,0.000000,0.000000,0.000000,0.000000,0.000000,0.000000,0.000000,0.000000,0.000000,0.000000,0.000000,819,819,819,819
9982,0,0.062500,0.000000,-0.125000,-0.12,-0.06,0.000149,0.007000,0.000000,0.000000,0.000000,0.000000,0.000000,0.000000,0.000000,0.000000,0.000000,0.000000,0.000000,0.000000,0.000000,819,819,819,819
9992,0,0.062500,0.000000,-0.125000,0.00,0.18,0.178132,0.007000,0.000000,0.000000,0.000000,0.000000,0.000000,0.000000,0.000000,0.000000,0.000000,0.000000,0.000000,0.000000,0.000000,819,819,819,819
10002,0,0.062500,0.000000,-0.125000,0.00,-0.18,0.068282,0.007000,0.000000,0.000000,0.000000,0.000000,0.000000,0.000000,0.000000,0.000000,0.000000,0.000000,0.000000,0.000000,0.000000,819,819,819,819
10012,0,0.062500,0.000000,-0.125000,-0.12,0.06,0.003414,0.007000,0.000000,0.000000,0.000000,0.000000,0.000000,0.000000,0.000000,0.000000,0.000000,0.000000,0.000000,0.000000,0.000000,819,819,819,819
10022,0,0.062500,0.000000,-0.125000,-0.06,-0.12,0.000171,0.007000,0.000000,0.000000,0.000000,0.000000,0.000000,0.000000,0.000000,0.000000,0.000000,0.000000,0.000000,0.000000,0.000000,819,819,819,819
10032,0,0.062500,0.000000,-0.125000,0.00,0.06,0.059384,0.007000,0.000000,0.000000,0.000000,0.000000,0.000000,0.000000,0.000000,0.000000,0.000000,0.000000,0.000000,0.000000,0.000000,819,819,819,819
10042,0,0.062500,0.000000,-0.125000,0.00,0.12,-0.115781,0.007000,0.000000,0.000000,0.000000,0.000000,0.000000,0.000000,0.000000,0.000000,0.000000,0.000000,0.000000,0.000000,0.000000,819,819,819,819
10052,0,0.062500,0.000000,-0.125000,-0.06,0.06,-0.005789,0.007000,0.000000,0.000000,0.000000,0.000000,0.000000,0.000000,0.000000,0.000000,0.000000,0.000000,0.000000,0.000000,0.000000,819,819,819,819
10062,0,0.062500,0.000000,-0.125000,0.06,0.12,0.059086,0.007000,0.000000,0.000000,0.000000,0.000000,0.000000,0.000000,0.000000,0.000000,0.000000,0.000000,0.000000,0.000000,0.000000,819,819,819,819
10072,0,0.062500,0.000000,-0.125000,0.06,0.06,0.002954,0.007000,0.000000,0.000000,0.000000,0.000000,0.000000,0.000000,0.000000,0.000000,0.000000,0.000000,0.000000,0.000000,0.000000,819,819,819,819
10082,0,0.062500,0.000000,-0.125000,0.00,0.18,0.000148,0.007000,0.000000,0.000000,0.000000,0.000000,0.000000,0.000000,0.000000,0.000000,0.000000,0.000000,0.000000,0.000000,0.000000,819,819,819,819
10092,0,0.062500,0.000000,-0.125000,0.00,0.18,0.059382,0.007000,0.000000,0.000000,0.000000,0.000000,0.000000,0.000000,0.000000,0.000000,0.000000,0.000000,0.000000,0.000000,0.000000,819,819,819,819
10102,0,0.062500,0.000000,-0.125000,0.12,0.06,0.062344,0.007000,0.000000,0.000000,0.000000,0.000000,0.000000,0.000000,0.000000,0.000000,0.000000,0.000000,0.000000,0.000000,0.000000,819,819,819,819
10112,0,0.062500,0.000000,-0.125000,-0.06,0.18,0.121867,0.007000,0.000000,0.000000,0.000000,0.000000,0.000000,0.000000,0.000000,0.000000,0.000000,0.000000,0.000000,0.000000,0.000000,819,819,819,819
10123,0,0.062500,0.000000,-0.125000,0.06,-0.12,0.006093,0.007000,0.000000,0.000000,0.000000,0.000000,0.000000,0.000000,0.000000,0.000000,0.000000,0.000000,0.000000,0.000000,0.000000,819,819,819,819
10133,0,0.062500,0.000000,-0.125000,0.12,0.12,0.119055,0.007000,0.000000,0.000000,0.000000,0.000000,0.000000,0.000000,0.000000,0.000000,0.000000,0.000000,0.000000,0.000000,0.000000,819,819,819,819
10143,0,0.062500,0.000000,-0.125000,0.12,0.12,-0.053422,0.007000,0.000000,0.000000,0.000000,0.000000,0.000000,0.000000,0.000000,0.000000,0.000000,0.000000,0.000000,0.000000,0.000000,819,819,819,819
10159,0,0.062500,0.000000,-0.125000,0.12,-0.06,-0.121421,0.007000,0.000000,0.000000,0.000000,0.000000,0.000000,0.000000,0.000000,0.000000,0.000000,0.000000,0.000000,0.000000,0.000000,819,819,819,819
10172,0,0.062500,0.000000,-0.125000,0.06,-0.06,-0.065446,0.007000,0.000000,0.000000,0.000000,0.000000,0.000000,0.000000,0.000000,0.000000,0.000000,0.000000,0.000000,0.000000,0.000000,819,819,819,819
10182,0,0.062500,0.000000,-0.125000,0.12,-0.18,0.056103,0.007000,0.000000,0.000000,0.000000,0.000000,0.000000,0.000000,0.000000,0.000000,0.000000,0.000000,0.000000,0.000000,0.000000,819,819,819,819
