t,is_crashed,roll,pitch,yaw,p,q,r,throttle,roll_cmd,pitch_cmd,yaw_cmd,roll_pid_out,pitch_pid_out,yaw_pid_out,motor_fl,motor_bl,motor_fr,motor_br,pwm_fl,pwm_bl,pwm_fr,pwm_br
6930,0,0.05,0.03,-0.00,-0.00,0.00,0.00,0.00,0.00,0.00,0.00,-0.00,-0.00,-0.00,0.00,0.00,0.00,0.00,0,0,0,0
6942,0,0.00,0.00,-0.00,0.00,-0.00,-0.00,0.00,0.00,0.00,0.00,0.00,0.00,0.00,0.00,0.00,0.00,0.00,819,819,819,819
6951,0,0.00,0.00,-0.00,0.00,-0.00,-0.00,0.00,0.00,0.00,0.00,0.00,0.00,0.00,0.00,0.00,0.00,0.00,819,819,819,819
6961,0,0.00,0.00,-0.00,0.00,-0.00,-0.00,0.00,0.00,0.00,0.00,0.00,0.00,0.00,0.00,0.00,0.00,0.00,819,819,819,819
6971,0,0.00,0.00,-0.00,0.00,-0.00,-0.00,0.00,0.00,0.00,0.00,0.00,0.00,0.00,0.00,0.00,0.00,0.00,819,819,819,819
6981,0,0.00,0.00,-0.00,0.00,-0.00,-0.00,0.00,0.00,0.00,0.00,0.00,0.00,0.00,0.00,0.00,0.00,0.00,819,819,819,819
6990,0,0.00,0.00,-0.00,0.00,-0.00,-0.00,0.00,0.00,0.00,0.00,0.00,0.00,0.00,0.00,0.00,0.00,0.00,819,819,819,819
7000,0,0.00,0.00,-0.00,0.00,-0.00,-0.00,0.00,0.00,0.00,0.00,0.00,0.00,0.00,0.00,0.00,0.00,0.00,819,819,819,819
7012,0,0.00,0.00,-0.00,0.00,-0.00,-0.00,0.00,0.00,0.00,0.00,0.00,0.00,0.00,0.00,0.00,0.00,0.00,819,819,819,819
7021,0,0.00,0.00,-0.00,0.00,-0.00,0.00,0.00,0.00,0.00,0.00,0.00,0.00,-0.00,0.00,0.00,0.00,0.00,819,819,819,819
7035,0,0.00,0.00,-0.00,0.00,0.00,0.00,0.00,0.00,0.00,0.00,0.00,-0.00,-0.00,0.00,0.00,0.00,0.00,819,819,819,819
7043,0,0.00,0.00,-0.00,0.00,0.00,0.00,0.00,0.00,0.00,0.00,0.00,-0.00,-0.00,0.00,0.00,0.00,0.00,819,819,819,819
7052,0,0.00,0.00,-0.00,0.00,0.00,0.00,0.00,0.00,0.00,0.00,0.00,-0.00,-0.00,0.00,0.00,0.00,0.00,819,819,819,819
7062,0,0.00,0.00,-0.00,0.00,0.00,-0.00,0.00,0.00,0.00,0.00,0.00,-0.00,0.00,0.00,0.00,0.00,0.00,819,819,819,819
7071,0,0.00,0.00,-0.00,0.00,0.00,-0.00,0.00,0.00,0.00,0.00,0.00,-0.00,0.00,0.00,0.00,0.00,0.00,819,819,819,819
7081,0,0.00,0.00,-0.00,0.00,0.00,-0.00,0.00,0.00,0.00,0.00,0.00,-0.00,0.00,0.00,0.00,0.00,0.00,819,819,819,819
7091,0,0.00,0.00,-0.00,0.00,0.00,-0.00,0.00,0.00,0.00,0.00,0.00,-0.00,0.00,0.00,0.00,0.00,0.00,819,819,819,819
7101,0,0.00,0.00,-0.00,0.00,0.00,-0.00,0.00,0.00,0.00,0.00,0.00,-0.00,0.00,0.00,0.00,0.00,0.00,819,819,819,819
7111,0,0.00,0.00,-0.00,0.00,0.00,-0.00,0.00,0.00,0.00,0.00,0.00,-0.00,0.00,0.00,0.00,0.00,0.00,819,819,819,819
7121,0,0.00,0.00,-0.00,0.00,0.00,-0.00,0.00,0.00,0.00,0.00,0.00,-0.00,0.00,0.00,0.00,0.00,0.00,819,819,819,819
7131,0,0.00,0.00,-0.00,0.00,-0.00,-0.00,0.00,0.00,0.00,0.00,0.00,0.00,0.00,0.00,0.00,0.00,0.00,819,819,819,819
7140,0,0.00,0.00,-0.00,0.00,-0.00,-0.00,0.00,0.00,0.00,0.00,0.00,0.00,0.00,0.00,0.00,0.00,0.00,819,819,819,819
7150,0,0.00,0.00,-0.00,0.00,0.00,-0.00,0.00,0.00,0.00,0.00,0.00,-0.00,0.00,0.00,0.00,0.00,0.00,819,819,819,819
7160,0,0.00,0.00,-0.00,0.00,0.00,-0.00,0.00,0.00,0.00,0.00,0.00,-0.00,0.00,0.00,0.00,0.00,0.00,819,819,819,819
7170,0,0.00,0.00,-0.00,0.00,0.00,-0.00,0.00,0.00,0.00,0.00,0.00,-0.00,0.00,0.00,0.00,0.00,0.00,819,819,819,819
7180,0,0.00,0.00,-0.00,0.00,0.00,-0.00,0.00,0.00,0.00,0.00,0.00,-0.00,0.00,0.00,0.00,0.00,0.00,819,819,819,819
7188,0,0.00,0.00,-0.00,0.00,0.00,-0.00,0.00,0.00,0.00,0.00,0.00,-0.00,0.00,0.00,0.00,0.00,0.00,819,819,819,819
7197,0,0.00,0.00,-0.00,0.00,0.00,-0.00,0.00,0.00,0.00,0.00,0.00,-0.00,0.00,0.00,0.00,0.00,0.00,819,819,819,819
7205,0,0.00,0.00,-0.00,0.00,0.00,-0.00,0.00,0.00,0.00,0.00,0.00,-0.00,0.00,0.00,0.00,0.00,0.00,819,819,819,819
7213,0,0.00,0.00,-0.00,0.00,0.00,0.00,0.00,0.00,0.00,0.00,0.00,-0.00,0.00,0.00,0.00,0.00,0.00,819,819,819,819
7222,0,0.00,0.00,-0.00,0.00,0.00,0.00,0.00,0.00,0.00,0.00,0.00,-0.00,-0.00,0.00,0.00,0.00,0.00,819,819,819,819
7232,0,0.00,0.00,-0.00,0.00,0.00,0.00,0.00,0.00,0.00,0.00,0.00,-0.00,-0.00,0.00,0.00,0.00,0.00,819,819,819,819
7242,0,0.00,0.00,-0.00,0.00,0.00,0.00,0.00,0.00,0.00,0.00,0.00,-0.00,-0.00,0.00,0.00,0.00,0.00,819,819,819,819
7252,0,0.00,0.00,-0.00,0.00,0.00,-0.00,0.00,0.00,0.00,0.00,0.00,-0.00,0.00,0.00,0.00,0.00,0.00,819,819,819,819
7262,0,0.00,0.00,-0.00,0.00,0.00,-0.00,0.00,0.00,0.00,0.00,0.00,-0.00,0.00,0.00,0.00,0.00,0.00,819,819,819,819
7271,0,0.00,0.00,-0.00,0.00,0.00,-0.00,0.00,0.00,0.00,0.00,0.00,-0.00,0.00,0.00,0.00,0.00,0.00,819,819,819,819
7282,0,0.00,0.00,-0.00,0.00,0.00,-0.00,0.00,0.00,0.00,0.00,0.00,-0.00,0.00,0.00,0.00,0.00,0.00,819,819,819,819
7290,0,0.00,0.00,-0.00,0.00,0.00,-0.00,0.00,0.00,0.00,0.00,0.00,-0.00,0.00,0.00,0.00,0.00,0.00,819,819,819,819
7300,0,0.00,0.00,-0.00,0.00,0.00,-0.00,0.00,0.00,0.00,0.00,0.00,-0.00,0.00,0.00,0.00,0.00,0.00,819,819,819,819
7310,0,0.00,0.00,-0.00,0.00,-0.00,0.00,0.00,0.00,0.00,0.00,0.00,-0.00,0.00,0.00,0.00,0.00,0.00,819,819,819,819
7320,0,0.00,0.00,-0.00,-0.00,-0.00,0.00,0.00,0.00,0.00,0.00,0.00,0.00,-0.00,0.00,0.00,0.00,0.00,819,819,819,819
7333,0,0.00,0.00,-0.00,0.00,-0.00,0.00,0.00,0.00,0.00,0.00,0.00,-0.00,-0.00,0.00,0.00,0.00,0.00,819,819,819,819
7343,0,0.00,0.00,-0.00,0.00,0.00,0.00,0.00,0.00,0.00,0.00,0.00,-0.00,-0.00,0.00,0.00,0.00,0.00,819,819,819,819
7352,0,0.00,0.00,-0.00,0.00,0.00,0.00,0.00,0.00,0.00,0.00,0.00,-0.00,-0.00,0.00,0.00,0.00,0.00,819,819,819,819
7362,0,0.00,0.00,-0.00,0.00,0.00,0.00,0.00,0.00,0.00,0.00,0.00,-0.00,-0.00,0.00,0.00,0.00,0.00,819,819,819,819
7372,0,0.00,0.00,-0.00,0.00,0.00,0.00,0.00,0.00,0.00,0.00,0.00,-0.00,-0.00,0.00,0.00,0.00,0.00,819,819,819,819
7382,0,0.00,0.00,-0.00,0.00,0.00,0.00,0.00,0.00,0.00,0.00,0.00,-0.00,0.00,0.00,0.00,0.00,0.00,819,819,819,819
7391,0,0.00,0.00,-0.00,0.00,0.00,-0.00,0.00,0.00,0.00,0.00,0.00,-0.00,0.00,0.00,0.00,0.00,0.00,819,819,819,819
7401,0,0.00,0.00,-0.00,0.00,0.00,-0.00,0.00,0.00,0.00,0.00,0.00,-0.00,0.00,0.00,0.00,0.00,0.00,819,819,819,819
7411,0,0.00,0.00,-0.00,0.00,0.00,-0.00,0.00,0.00,0.00,0.00,0.00,-0.00,0.00,0.00,0.00,0.00,0.00,819,819,819,819
7421,0,0.00,0.00,-0.00,0.00,0.00,-0.00,0.00,0.00,0.00,0.00,0.00,-0.00,0.00,0.00,0.00,0.00,0.00,819,819,819,819
7431,0,0.00,0.00,-0.00,0.00,0.00,-0.00,0.00,0.00,0.00,0.00,0.00,-0.00,0.00,0.00,0.00,0.00,0.00,819,819,819,819
7440,0,0.00,0.00,-0.00,0.00,-0.00,-0.00,0.00,0.00,0.00,0.00,0.00,-0.00,0.00,0.00,0.00,0.00,0.00,819,819,819,819
7450,0,0.00,0.00,-0.00,0.00,-0.00,-0.00,0.00,0.00,0.00,0.00,0.00,0.00,0.00,0.00,0.00,0.00,0.00,819,819,819,819
7460,0,0.00,0.00,-0.00,0.00,-0.00,0.00,0.00,0.00,0.00,0.00,0.00,0.00,0.00,0.00,0.00,0.00,0.00,819,819,819,819
7470,0,0.00,0.00,-0.00,0.00,-0.00,0.00,0.00,0.00,0.00,0.00,0.00,0.00,-0.00,0.00,0.00,0.00,0.00,819,819,819,819
7480,0,0.00,0.00,-0.00,0.00,-0.00,0.00,0.00,0.00,0.00,0.00,0.00,0.00,-0.00,0.00,0.00,0.00,0.00,819,819,819,819
7488,0,0.00,0.00,-0.00,0.00,-0.00,0.00,0.00,0.00,0.00,0.00,0.00,0.00,-0.00,0.00,0.00,0.00,0.00,819,819,819,819
7496,0,0.00,0.00,-0.00,0.00,-0.00,0.00,0.00,0.00,0.00,0.00,0.00,0.00,-0.00,0.00,0.00,0.00,0.00,819,819,819,819
7504,0,0.00,0.00,-0.00,0.00,-0.00,0.00,0.00,0.00,0.00,0.00,0.00,-0.00,-0.00,0.00,0.00,0.00,0.00,819,819,819,819
7513,0,0.00,0.00,-0.00,0.00,0.00,0.00,0.00,0.00,0.00,0.00,0.00,-0.00,-0.00,0.00,0.00,0.00,0.00,819,819,819,819
7523,0,0.00,0.00,-0.00,0.00,0.00,-0.00,0.00,0.00,0.00,0.00,0.00,-0.00,0.00,0.00,0.00,0.00,0.00,819,819,819,819
7532,0,0.00,0.00,-0.00,0.00,0.00,-0.00,0.00,0.00,0.00,0.00,0.00,-0.00,0.00,0.00,0.00,0.00,0.00,819,819,819,819
7542,0,0.00,0.00,-0.00,0.00,0.00,-0.00,0.00,0.00,0.00,0.00,0.00,-0.00,0.00,0.00,0.00,0.00,0.00,819,819,819,819
7552,0,0.00,0.00,-0.00,0.00,0.00,-0.00,0.00,0.00,0.00,0.00,0.00,-0.00,0.00,0.00,0.00,0.00,0.00,819,819,819,819
7562,0,0.00,0.00,-0.00,0.00,0.00,-0.00,0.00,0.00,0.00,0.00,0.00,-0.00,0.00,0.00,0.00,0.00,0.00,819,819,819,819
7572,0,0.00,0.00,-0.00,0.00,0.00,-0.00,0.00,0.00,0.00,0.00,0.00,-0.00,0.00,0.00,0.00,0.00,0.00,819,819,819,819
7582,0,0.00,0.00,-0.00,0.00,0.00,-0.00,0.00,0.00,0.00,0.00,0.00,-0.00,0.00,0.00,0.00,0.00,0.00,819,819,819,819
7592,0,0.00,0.00,-0.00,0.00,0.00,0.00,0.00,0.00,0.00,0.00,0.00,-0.00,0.00,0.00,0.00,0.00,0.00,819,819,819,819
7601,0,0.00,0.00,-0.00,0.00,0.00,0.00,0.00,0.00,0.00,0.00,0.00,-0.00,-0.00,0.00,0.00,0.00,0.00,819,819,819,819
7611,0,0.00,0.00,-0.00,0.00,0.00,0.00,0.00,0.00,0.00,0.00,0.00,-0.00,-0.00,0.00,0.00,0.00,0.00,819,819,819,819
7621,0,0.00,0.00,-0.00,0.00,0.00,0.00,0.00,0.00,0.00,0.00,0.00,-0.00,0.00,0.00,0.00,0.00,0.00,819,819,819,819
7635,0,0.00,0.00,-0.00,0.00,0.00,0.00,0.00,0.00,0.00,0.00,0.00,-0.00,-0.00,0.00,0.00,0.00,0.00,819,819,819,819
7643,0,0.00,0.00,-0.00,0.00,0.00,0.00,0.00,0.00,0.00,0.00,0.00,-0.00,-0.00,0.00,0.00,0.00,0.00,819,819,819,819
7653,0,0.00,0.00,-0.00,0.00,0.00,0.00,0.00,0.00,0.00,0.00,0.00,-0.00,-0.00,0.00,0.00,0.00,0.00,819,819,819,819
7662,0,0.00,0.00,-0.00,0.00,0.00,0.00,0.00,0.00,0.00,0.00,0.00,-0.00,-0.00,0.00,0.00,0.00,0.00,819,819,819,819
7672,0,0.00,0.00,-0.00,0.00,0.00,0.00,0.00,0.00,0.00,0.00,0.00,-0.00,-0.00,0.00,0.00,0.00,0.00,819,819,819,819
7682,0,0.00,0.00,-0.00,0.00,0.00,-0.00,0.00,0.00,0.00,0.00,0.00,-0.00,0.00,0.00,0.00,0.00,0.00,819,819,819,819
7690,0,0.00,0.00,-0.00,0.00,-0.00,-0.00,0.00,0.00,0.00,0.00,0.00,-0.00,0.00,0.00,0.00,0.00,0.00,819,819,819,819
7701,0,0.00,0.00,-0.00,0.00,-0.00,-0.00,0.00,0.00,0.00,0.00,0.00,0.00,0.00,0.00,0.00,0.00,0.00,819,819,819,819
7711,0,0.00,0.00,-0.00,0.00,-0.00,-0.00,0.00,0.00,0.00,0.00,0.00,0.00,0.00,0.00,0.00,0.00,0.00,819,819,819,819
7721,0,0.00,0.00,-0.00,0.00,-0.00,-0.00,0.00,0.00,0.00,0.00,0.00,0.00,0.00,0.00,0.00,0.00,0.00,819,819,819,819
7731,0,0.00,0.00,-0.00,0.00,-0.00,-0.00,0.00,0.00,0.00,0.00,0.00,0.00,0.00,0.00,0.00,0.00,0.00,819,819,819,819
7739,0,0.00,0.00,-0.00,0.00,-0.00,-0.00,0.00,0.00,0.00,0.00,0.00,0.00,0.00,0.00,0.00,0.00,0.00,819,819,819,819
7747,0,0.00,0.00,-0.00,0.00,0.00,-0.00,0.00,0.00,0.00,0.00,0.00,-0.00,0.00,0.00,0.00,0.00,0.00,819,819,819,819
7755,0,0.00,0.00,-0.00,0.00,0.00,-0.00,0.00,0.00,0.00,0.00,0.00,-0.00,0.00,0.00,0.00,0.00,0.00,819,819,819,819
7764,0,0.00,0.00,-0.00,0.00,0.00,-0.00,0.00,0.00,0.00,0.00,0.00,-0.00,0.00,0.00,0.00,0.00,0.00,819,819,819,819
7773,0,0.00,0.00,-0.00,0.00,0.00,-0.00,0.00,0.00,0.00,0.00,0.00,-0.00,0.00,0.00,0.00,0.00,0.00,819,819,819,819
7783,0,0.00,0.00,-0.00,0.00,0.00,-0.00,0.00,0.00,0.00,0.00,0.00,-0.00,0.00,0.00,0.00,0.00,0.00,819,819,819,819
7792,0,0.00,0.00,-0.00,0.00,0.00,-0.00,0.00,0.00,0.00,0.00,0.00,-0.00,0.00,0.00,0.00,0.00,0.00,819,819,819,819
7802,0,0.00,0.00,-0.00,0.00,0.00,-0.00,0.00,0.00,0.00,0.00,0.00,-0.00,0.00,0.00,0.00,0.00,0.00,819,819,819,819
7812,0,0.00,0.00,-0.00,0.00,0.00,-0.00,0.00,0.00,0.00,0.00,0.00,-0.00,0.00,0.00,0.00,0.00,0.00,819,819,819,819
7823,0,0.00,0.00,-0.00,0.00,0.00,-0.00,0.00,0.00,0.00,0.00,0.00,-0.00,0.00,0.00,0.00,0.00,0.00,819,819,819,819
7833,0,0.00,0.00,-0.00,0.00,-0.00,-0.00,0.00,0.00,0.00,0.00,0.00,-0.00,0.00,0.00,0.00,0.00,0.00,819,819,819,819
7842,0,0.00,0.00,-0.00,0.00,-0.00,-0.00,0.00,0.00,0.00,0.00,0.00,-0.00,0.00,0.00,0.00,0.00,0.00,819,819,819,819
7852,0,0.00,0.00,-0.00,0.00,-0.00,-0.00,0.00,0.00,0.00,0.00,0.00,-0.00,0.00,0.00,0.00,0.00,0.00,819,819,819,819
7863,0,0.00,0.00,-0.00,0.00,-0.00,0.00,0.00,0.00,0.00,0.00,0.00,-0.00,0.00,0.00,0.00,0.00,0.00,819,819,819,819
7873,0,0.00,0.00,-0.00,0.00,-0.00,0.00,0.00,0.00,0.00,0.00,0.00,-0.00,-0.00,0.00,0.00,0.00,0.00,819,819,819,819
7883,0,0.00,0.00,-0.00,0.00,-0.00,0.00,0.00,0.00,0.00,0.00,0.00,-0.00,-0.00,0.00,0.00,0.00,0.00,819,819,819,819
7892,0,0.00,0.00,-0.00,0.00,-0.00,0.00,0.00,0.00,0.00,0.00,0.00,-0.00,-0.00,0.00,0.00,0.00,0.00,819,819,819,819
7902,0,0.00,0.00,-0.00,0.00,-0.00,0.00,0.00,0.00,0.00,0.00,0.00,-0.00,-0.00,0.00,0.00,0.00,0.00,819,819,819,819
7912,0,0.00,0.00,-0.00,0.00,-0.00,0.00,0.00,0.00,0.00,0.00,0.00,-0.00,0.00,0.00,0.00,0.00,0.00,819,819,819,819
7922,0,0.00,0.00,-0.00,0.00,0.00,-0.00,0.00,0.00,0.00,0.00,0.00,-0.00,0.00,0.00,0.00,0.00,0.00,819,819,819,819
7936,0,0.00,0.00,-0.00,0.00,0.00,-0.00,0.00,0.00,0.00,0.00,0.00,-0.00,0.00,0.00,0.00,0.00,0.00,819,819,819,819
7944,0,0.00,0.00,-0.00,0.00,0.00,-0.00,0.00,0.00,0.00,0.00,0.00,-0.00,0.00,0.00,0.00,0.00,0.00,819,819,819,819
7954,0,0.00,0.00,-0.00,0.00,0.00,-0.00,0.00,0.00,0.00,0.00,0.00,-0.00,0.00,0.00,0.00,0.00,0.00,819,819,819,819
7963,0,0.00,0.00,-0.00,0.00,0.00,-0.00,0.00,0.00,0.00,0.00,0.00,-0.00,0.00,0.00,0.00,0.00,0.00,819,819,819,819
7973,0,0.00,0.00,-0.00,0.00,0.00,-0.00,0.00,0.00,0.00,0.00,0.00,-0.00,0.00,0.00,0.00,0.00,0.00,819,819,819,819
7983,0,0.00,0.00,-0.00,0.00,0.00,-0.00,0.00,0.00,0.00,0.00,0.00,-0.00,0.00,0.00,0.00,0.00,0.00,819,819,819,819
7992,0,0.00,0.00,-0.00,0.00,0.00,-0.00,0.00,0.00,0.00,0.00,0.00,-0.00,0.00,0.00,0.00,0.00,0.00,819,819,819,819
8002,0,0.00,0.00,-0.00,0.00,0.00,-0.00,0.00,0.00,0.00,0.00,0.00,-0.00,0.00,0.00,0.00,0.00,0.00,819,819,819,819
8012,0,0.00,0.00,-0.00,0.00,0.00,0.00,0.00,0.00,0.00,0.00,0.00,-0.00,0.00,0.00,0.00,0.00,0.00,819,819,819,819
8022,0,0.00,0.00,-0.00,0.00,0.00,-0.00,0.00,0.00,0.00,0.00,0.00,-0.00,0.00,0.00,0.00,0.00,0.00,819,819,819,819
8032,0,0.00,0.00,-0.00,0.00,0.00,-0.00,0.00,0.00,0.00,0.00,0.00,-0.00,0.00,0.00,0.00,0.00,0.00,819,819,819,819
8043,0,0.00,0.00,-0.00,0.00,0.00,-0.00,0.00,0.00,0.00,0.00,0.00,-0.00,0.00,0.00,0.00,0.00,0.00,819,819,819,819
8053,0,0.00,0.00,-0.00,0.00,0.00,-0.00,0.00,0.00,0.00,0.00,0.00,-0.00,0.00,0.00,0.00,0.00,0.00,819,819,819,819
8063,0,0.00,0.00,-0.00,0.00,0.00,-0.00,0.00,0.00,0.00,0.00,0.00,-0.00,0.00,0.00,0.00,0.00,0.00,819,819,819,819
8073,0,0.00,0.00,-0.00,0.00,0.00,-0.00,0.00,0.00,0.00,0.00,0.00,-0.00,0.00,0.00,0.00,0.00,0.00,819,819,819,819
8083,0,0.00,0.00,-0.00,0.00,0.00,-0.00,0.00,0.00,0.00,0.00,0.00,-0.00,0.00,0.00,0.00,0.00,0.00,819,819,819,819
8093,0,0.00,0.00,-0.00,0.00,0.00,-0.00,0.00,0.00,0.00,0.00,0.00,-0.00,0.00,0.00,0.00,0.00,0.00,819,819,819,819
8103,0,0.00,0.00,-0.00,0.00,-0.00,-0.00,0.00,0.00,0.00,0.00,0.00,-0.00,0.00,0.00,0.00,0.00,0.00,819,819,819,819
8113,0,0.00,0.00,-0.00,0.00,-0.00,-0.00,0.00,0.00,0.00,0.00,0.00,-0.00,0.00,0.00,0.00,0.00,0.00,819,819,819,819
8123,0,0.00,0.00,-0.00,0.00,-0.00,-0.00,0.01,0.00,0.00,0.00,0.00,0.00,0.00,0.00,0.00,0.00,0.00,819,819,819,819
8133,0,0.00,0.00,-0.00,0.00,-0.00,-0.00,0.01,0.00,0.00,0.00,0.00,0.00,0.00,0.00,0.00,0.00,0.00,819,819,819,819
8142,0,0.00,0.00,-0.00,0.00,-0.00,0.00,0.01,0.00,0.00,0.00,0.00,-0.00,0.00,0.00,0.00,0.00,0.00,819,819,819,819
8152,0,0.00,0.00,-0.00,0.00,-0.00,0.00,0.01,0.00,0.00,0.00,0.00,0.00,-0.00,0.00,0.00,0.00,0.00,819,819,819,819
8162,0,0.00,0.00,-0.00,0.00,-0.00,0.00,0.01,0.00,0.00,0.00,0.00,-0.00,-0.00,0.00,0.00,0.00,0.00,819,819,819,819
8172,0,0.00,0.00,-0.00,0.00,-0.00,0.00,0.01,0.00,0.00,0.00,0.00,0.00,-0.00,0.00,0.00,0.00,0.00,819,819,819,819
8182,0,0.00,0.00,-0.00,0.00,-0.00,0.00,0.01,0.00,0.00,0.00,0.00,0.00,-0.00,0.00,0.00,0.00,0.00,819,819,819,819
8190,0,0.00,0.00,-0.00,0.00,-0.00,0.00,0.01,0.00,0.00,0.00,0.00,0.00,0.00,0.00,0.00,0.00,0.00,819,819,819,819
8200,0,0.00,0.00,-0.00,0.00,-0.00,-0.00,0.01,0.00,0.00,0.00,0.00,0.00,0.00,0.00,0.00,0.00,0.00,819,819,819,819
8208,0,0.00,0.00,-0.00,0.00,-0.00,-0.00,0.01,0.00,0.00,0.00,0.00,0.00,0.00,0.00,0.00,0.00,0.00,819,819,819,819
8216,0,0.00,0.00,-0.00,0.00,-0.00,-0.00,0.01,0.00,0.00,0.00,0.00,0.00,0.00,0.00,0.00,0.00,0.00,819,819,819,819
8224,0,0.00,0.00,-0.00,0.00,-0.00,-0.00,0.01,0.00,0.00,0.00,0.00,-0.00,0.00,0.00,0.00,0.00,0.00,819,819,819,819
8238,0,0.00,0.00,-0.00,0.00,0.00,-0.00,0.01,0.00,0.00,0.00,0.00,-0.00,0.00,0.00,0.00,0.00,0.00,819,819,819,819
8246,0,0.00,0.00,-0.00,0.00,0.00,-0.00,0.01,0.00,0.00,0.00,0.00,-0.00,0.00,0.00,0.00,0.00,0.00,819,819,819,819
8255,0,0.00,0.00,-0.00,0.00,0.00,-0.00,0.01,0.00,0.00,0.00,0.00,-0.00,0.00,0.00,0.00,0.00,0.00,819,819,819,819
8264,0,0.00,0.00,-0.00,0.00,0.00,-0.00,0.01,0.00,0.00,0.00,0.00,-0.00,0.00,0.00,0.00,0.00,0.00,819,819,819,819
8274,0,0.00,0.00,-0.00,0.00,0.00,-0.00,0.05,0.00,0.00,0.00,0.00,-0.00,0.00,0.05,0.05,0.05,0.05,857,898,874,898
8284,0,0.00,0.00,-0.00,0.00,0.00,-0.00,0.05,0.00,0.00,0.00,0.00,-0.00,0.00,0.05,0.05,0.05,0.05,857,898,874,898
8294,0,0.00,0.00,-0.00,0.00,0.00,-0.00,0.07,0.00,0.00,0.00,0.00,-0.00,0.00,0.07,0.07,0.07,0.07,877,918,893,918
8304,0,0.00,0.00,-0.00,0.00,0.00,-0.00,0.07,0.00,0.00,0.00,0.00,-0.00,0.00,0.07,0.07,0.07,0.07,877,918,893,918
8313,0,0.00,0.00,-0.00,0.00,0.00,-0.00,0.08,0.00,0.00,0.00,0.00,-0.00,0.00,0.08,0.08,0.08,0.08,887,928,903,928
8324,0,0.00,0.00,-0.00,0.00,0.00,-0.00,0.08,0.00,0.00,0.00,0.00,-0.00,0.00,0.08,0.08,0.08,0.08,887,928,903,928
8333,0,0.00,0.00,-0.00,0.00,0.00,-0.00,0.08,0.00,0.00,0.00,0.00,-0.00,0.00,0.08,0.08,0.08,0.08,887,928,903,928
8345,0,0.00,0.00,-0.00,-0.00,0.00,-0.00,0.08,0.00,0.00,0.00,0.00,-0.00,0.00,0.08,0.08,0.08,0.08,887,928,903,928
8354,0,0.00,0.00,-0.00,-0.00,0.00,-0.00,0.08,0.00,0.00,0.00,0.00,-0.00,0.00,0.08,0.08,0.08,0.08,887,928,903,928
8364,0,0.00,0.00,-0.00,-0.00,-0.00,0.00,0.08,0.00,0.00,0.00,0.00,-0.00,0.00,0.08,0.08,0.08,0.08,887,928,903,928
8374,0,0.00,0.00,-0.00,-0.00,-0.00,0.00,0.08,0.00,0.00,0.00,0.00,0.00,-0.00,0.08,0.08,0.08,0.08,887,928,903,928
8384,0,0.00,0.00,-0.00,-0.00,-0.00,0.00,0.11,0.00,0.00,0.00,0.00,0.00,0.00,0.11,0.11,0.11,0.11,906,947,923,947
8393,0,0.00,0.00,-0.00,-0.00,-0.00,-0.00,0.12,0.00,0.00,0.00,0.00,0.00,0.00,0.12,0.12,0.12,0.12,914,955,930,955
8403,0,0.00,0.00,-0.00,0.00,-0.00,-0.00,0.12,0.00,0.00,0.00,0.00,-0.00,0.00,0.12,0.12,0.12,0.12,914,955,930,955
8413,0,0.00,0.00,-0.00,0.00,-0.00,-0.00,0.12,0.00,0.00,0.00,0.00,-0.00,0.00,0.12,0.12,0.12,0.12,914,955,930,955
8423,0,0.00,0.00,-0.00,0.00,-0.00,-0.00,0.12,0.00,0.00,0.00,0.00,-0.00,0.00,0.12,0.12,0.12,0.12,919,960,936,960
8433,0,0.00,0.00,-0.00,0.00,-0.00,0.00,0.12,0.00,0.00,0.00,0.00,0.00,0.00,0.12,0.12,0.12,0.12,919,960,936,960
8442,0,0.00,0.00,-0.00,0.00,-0.00,0.00,0.12,0.00,0.00,0.00,0.00,0.00,0.00,0.12,0.12,0.12,0.12,919,960,936,960
8452,0,0.00,0.00,-0.00,0.00,-0.00,0.00,0.14,0.00,0.00,0.00,0.00,-0.00,-0.00,0.14,0.14,0.14,0.14,935,976,951,976
8462,0,0.00,0.00,-0.00,0.00,-0.00,0.00,0.14,0.00,0.00,0.00,0.00,-0.00,-0.00,0.14,0.14,0.14,0.14,936,977,952,977
8472,0,0.00,0.00,-0.00,0.00,-0.00,0.00,0.14,0.00,0.00,0.00,0.00,-0.00,-0.00,0.14,0.14,0.14,0.14,936,977,952,977
8483,0,0.00,0.00,-0.00,0.00,0.00,0.00,0.14,0.00,0.00,0.00,0.00,-0.00,-0.00,0.14,0.14,0.14,0.14,937,978,953,978
8490,0,0.00,0.00,-0.00,0.00,0.00,0.00,0.15,0.00,0.00,0.00,0.00,-0.00,0.00,0.15,0.15,0.15,0.15,938,979,955,979
8500,0,0.00,0.00,-0.00,0.00,0.00,-0.00,0.15,0.00,0.00,0.00,0.00,-0.00,0.00,0.15,0.15,0.15,0.15,938,979,955,979
8508,0,0.00,0.00,-0.00,0.00,0.00,-0.00,0.15,0.00,0.00,0.00,0.00,-0.00,0.00,0.15,0.15,0.15,0.15,938,979,955,979
8516,0,0.00,0.00,-0.00,0.00,0.00,-0.00,0.15,0.00,0.00,0.00,0.00,-0.00,0.00,0.15,0.15,0.15,0.15,938,979,955,979
8531,0,0.00,0.00,-0.00,0.00,0.00,-0.00,0.15,0.00,0.00,0.00,0.00,-0.00,0.00,0.15,0.15,0.15,0.15,938,979,955,979
8539,0,0.00,0.00,-0.00,0.00,0.00,-0.00,0.15,0.00,0.00,0.00,0.00,-0.00,0.00,0.15,0.15,0.15,0.15,938,979,955,979
8547,0,0.00,0.00,-0.00,0.00,0.00,-0.00,0.15,0.00,0.00,0.00,0.00,-0.00,0.00,0.15,0.15,0.15,0.15,940,981,956,981
8556,0,0.00,0.00,-0.00,0.00,0.00,-0.00,0.15,0.00,0.00,0.00,0.00,-0.00,0.00,0.15,0.15,0.15,0.15,941,982,957,982
8565,0,0.00,0.00,-0.00,0.00,0.00,-0.00,0.15,0.00,0.00,0.00,0.00,-0.00,0.00,0.15,0.15,0.15,0.15,941,982,957,982
8575,0,0.00,0.00,-0.00,-0.00,0.00,-0.00,0.15,0.00,0.00,0.00,0.00,-0.00,0.00,0.15,0.15,0.15,0.15,941,982,957,982
8585,0,0.00,0.00,-0.00,-0.00,0.00,-0.00,0.15,0.00,0.00,0.00,0.00,-0.00,0.00,0.15,0.15,0.15,0.15,940,981,956,981
8594,0,0.00,0.00,-0.00,-0.00,0.00,-0.00,0.15,0.00,0.00,0.00,0.00,-0.00,0.00,0.15,0.15,0.15,0.15,940,981,956,981
8604,0,0.00,0.00,-0.00,-0.00,0.00,-0.00,0.15,0.00,0.00,0.00,-0.00,-0.00,0.00,0.15,0.15,0.15,0.15,940,981,956,981
8614,0,0.00,0.00,-0.00,-0.00,0.00,-0.00,0.15,0.00,0.00,0.00,-0.00,-0.00,0.00,0.15,0.15,0.15,0.15,940,981,956,981
8624,0,0.00,0.00,-0.00,-0.00,0.00,-0.00,0.15,0.00,0.00,0.00,-0.00,-0.00,0.00,0.15,0.15,0.15,0.15,940,981,956,981
8635,0,0.00,0.00,-0.00,-0.00,0.00,-0.00,0.15,0.00,0.00,0.00,-0.00,-0.00,0.00,0.15,0.15,0.15,0.15,940,981,956,981
8644,0,0.00,0.00,-0.00,-0.00,0.00,-0.00,0.15,0.00,0.00,0.00,-0.00,-0.00,0.00,0.15,0.15,0.15,0.15,940,981,956,981
8654,0,0.00,0.00,-0.00,-0.00,0.00,-0.00,0.15,0.00,0.00,0.00,-0.00,-0.00,0.00,0.15,0.15,0.15,0.15,940,981,956,981
8664,0,0.00,0.00,-0.00,-0.00,0.00,-0.00,0.15,0.00,0.00,0.00,-0.00,-0.00,0.00,0.15,0.15,0.15,0.15,940,981,956,981
8674,0,0.00,0.00,-0.00,-0.00,0.00,-0.00,0.15,0.00,0.00,0.00,-0.00,-0.00,0.00,0.15,0.15,0.15,0.15,940,981,956,981
8684,0,0.00,0.00,-0.00,-0.00,0.00,-0.00,0.15,0.00,0.00,0.00,-0.00,-0.00,0.00,0.15,0.15,0.15,0.15,940,981,956,981
8694,0,0.00,0.00,-0.00,-0.00,0.00,-0.00,0.15,0.00,0.00,0.00,-0.00,-0.00,0.00,0.15,0.15,0.15,0.15,941,982,957,982
8704,0,0.00,0.00,-0.00,-0.00,0.00,-0.00,0.15,0.00,0.00,0.00,-0.00,-0.00,0.00,0.15,0.15,0.15,0.15,941,982,957,982
8714,0,0.00,0.00,-0.00,-0.00,0.00,-0.00,0.15,0.00,0.00,0.00,-0.00,-0.00,0.00,0.15,0.15,0.15,0.15,941,982,957,982
8723,0,0.00,0.00,-0.00,-0.00,0.00,-0.00,0.15,0.00,0.00,0.00,-0.00,-0.00,0.00,0.15,0.15,0.15,0.15,940,981,956,981
8733,0,0.00,0.00,-0.00,-0.00,0.00,-0.00,0.15,0.00,0.00,0.00,-0.00,-0.00,0.00,0.15,0.15,0.15,0.15,940,981,956,981
8742,0,0.00,0.00,-0.00,-0.00,0.00,-0.00,0.15,0.00,0.00,0.00,-0.00,-0.00,0.00,0.15,0.15,0.15,0.15,940,981,956,981
8752,0,0.00,0.00,-0.00,-0.00,0.00,-0.00,0.15,0.00,0.00,0.00,-0.00,-0.00,0.00,0.15,0.15,0.15,0.15,941,982,957,982
8762,0,0.00,0.00,-0.00,-0.00,0.00,-0.00,0.15,0.00,0.00,0.00,-0.00,-0.00,0.00,0.15,0.15,0.15,0.15,941,982,957,982
8772,0,0.00,0.00,-0.00,-0.00,0.00,-0.00,0.15,0.00,0.00,0.00,-0.00,-0.00,0.00,0.15,0.15,0.15,0.15,941,982,957,982
8782,0,0.00,0.00,-0.00,-0.00,0.00,-0.00,0.15,0.00,0.00,0.00,-0.00,-0.00,0.00,0.15,0.15,0.15,0.15,941,982,957,982
8790,0,0.00,0.00,-0.00,-0.00,0.00,-0.00,0.15,0.00,0.00,0.00,-0.00,-0.00,0.00,0.15,0.15,0.15,0.15,941,982,957,982
8798,0,0.00,0.00,-0.00,-0.00,0.00,-0.00,0.15,0.00,0.00,0.00,-0.00,-0.00,0.00,0.15,0.15,0.15,0.15,942,982,958,983
8806,0,0.00,0.00,-0.00,-0.00,0.00,-0.00,0.15,0.00,0.00,0.00,-0.00,-0.00,0.00,0.15,0.15,0.15,0.15,942,982,958,983
8815,0,0.00,0.00,-0.00,-0.00,0.00,-0.00,0.15,0.00,0.00,0.00,-0.00,-0.00,0.00,0.15,0.15,0.15,0.15,942,982,958,983
8830,0,0.00,-0.00,-0.00,-0.00,0.00,-0.00,0.15,0.00,0.00,0.00,-0.00,-0.00,0.00,0.15,0.15,0.15,0.15,942,982,958,983
8839,0,0.00,-0.00,-0.00,-0.00,0.00,-0.00,0.15,0.00,0.00,0.00,-0.00,-0.00,0.00,0.15,0.15,0.15,0.15,942,982,958,983
8847,0,0.00,-0.00,-0.00,-0.00,0.00,-0.00,0.15,0.00,0.00,0.00,-0.00,-0.00,0.00,0.15,0.15,0.15,0.15,942,982,958,983
8856,0,0.00,-0.00,-0.00,-0.00,-0.00,-0.00,0.15,0.00,0.00,0.00,-0.00,-0.00,0.00,0.15,0.15,0.15,0.15,942,982,958,983
8865,0,0.00,-0.00,-0.00,-0.00,-0.00,-0.00,0.15,0.00,0.00,0.00,-0.00,-0.00,0.00,0.15,0.15,0.15,0.15,942,982,958,983
8875,0,0.00,-0.00,-0.00,-0.00,-0.00,-0.00,0.16,0.00,0.00,0.00,-0.00,-0.00,0.00,0.16,0.16,0.16,0.16,948,989,964,989
8885,0,0.00,-0.00,-0.00,-0.00,-0.00,-0.00,0.16,0.00,0.00,0.00,-0.00,-0.00,0.00,0.16,0.16,0.16,0.16,953,994,969,994
8895,0,0.00,-0.00,-0.00,-0.00,-0.00,-0.00,0.16,0.00,0.00,0.00,-0.00,-0.00,0.00,0.16,0.16,0.16,0.16,953,994,969,994
8905,0,0.00,-0.00,-0.00,-0.00,0.00,0.00,0.16,0.00,0.00,0.00,-0.00,-0.00,0.00,0.16,0.16,0.16,0.16,953,994,969,994
8915,0,0.00,-0.00,-0.00,-0.00,-0.00,0.00,0.17,0.00,0.00,0.00,-0.00,-0.00,0.00,0.17,0.17,0.17,0.17,955,996,972,996
8925,0,0.00,-0.00,-0.00,-0.00,-0.00,0.00,0.17,0.00,0.00,0.00,-0.00,-0.00,0.00,0.17,0.17,0.17,0.17,955,996,972,996
8935,0,0.00,0.00,-0.00,-0.00,-0.00,0.00,0.17,0.00,0.00,0.00,-0.00,-0.00,0.00,0.17,0.17,0.17,0.17,955,996,972,996
8945,0,0.00,0.00,-0.00,-0.00,0.00,0.00,0.17,0.00,0.00,0.00,-0.00,-0.00,0.00,0.17,0.17,0.17,0.17,956,997,973,997
8955,0,0.00,0.00,-0.00,-0.00,-0.00,0.00,0.17,0.00,0.00,0.00,-0.00,-0.00,0.00,0.17,0.17,0.17,0.17,957,998,973,998
8965,0,0.00,0.00,-0.00,-0.00,-0.00,0.00,0.17,0.00,0.00,0.00,-0.00,-0.00,-0.00,0.17,0.17,0.17,0.17,957,998,973,998
8975,0,0.00,0.00,-0.00,-0.00,0.00,0.00,0.17,0.00,0.00,0.00,-0.00,-0.00,-0.00,0.17,0.17,0.17,0.17,957,998,973,998
8985,0,0.00,-0.00,-0.00,-0.00,0.00,0.00,0.17,0.00,0.00,0.00,-0.00,-0.00,-0.00,0.17,0.17,0.17,0.17,957,998,973,998
8995,0,0.00,-0.00,-0.00,-0.00,0.00,0.00,0.17,0.00,0.00,0.00,-0.00,-0.00,0.00,0.17,0.17,0.17,0.17,957,998,973,998
9005,0,0.00,-0.00,-0.00,-0.00,0.00,0.00,0.17,0.00,0.00,0.00,-0.00,-0.00,0.00,0.17,0.17,0.17,0.17,957,998,973,998
9015,0,0.00,-0.00,-0.00,-0.00,0.00,0.00,0.17,0.00,0.00,0.00,-0.00,-0.00,0.00,0.17,0.17,0.17,0.17,959,1000,975,1000
9025,0,0.00,-0.00,-0.00,-0.00,0.00,0.00,0.17,0.00,0.00,0.00,-0.00,-0.00,0.00,0.17,0.17,0.17,0.17,959,1000,975,1000
9035,0,0.00,-0.00,-0.00,-0.00,0.00,0.00,0.17,0.00,0.00,0.00,-0.00,-0.00,0.00,0.17,0.17,0.17,0.17,959,1000,975,1000
9043,0,0.00,-0.00,-0.00,-0.00,0.00,0.00,0.18,0.00,0.00,0.00,-0.00,-0.00,0.00,0.18,0.18,0.18,0.18,964,1005,981,1005
9051,0,0.00,-0.00,0.00,-0.00,0.00,0.00,0.18,0.00,0.00,0.00,-0.00,-0.00,0.00,0.18,0.18,0.18,0.18,966,1007,982,1007
9058,0,0.00,-0.00,0.00,-0.00,0.00,0.00,0.18,0.00,0.00,0.00,-0.00,-0.00,0.00,0.18,0.18,0.18,0.18,969,1010,985,1010
9066,0,0.00,-0.00,0.00,-0.00,0.00,-0.00,0.18,0.00,0.00,0.00,-0.00,-0.00,0.00,0.18,0.18,0.18,0.18,969,1010,985,1010
9076,0,0.00,-0.00,0.00,-0.00,0.00,-0.00,0.18,0.00,0.00,0.00,-0.00,-0.00,0.00,0.18,0.18,0.18,0.18,969,1010,985,1009
9085,0,0.00,-0.00,0.00,-0.00,0.00,-0.00,0.19,0.00,0.00,0.00,-0.00,-0.00,0.00,0.19,0.19,0.19,0.19,974,1014,990,1014
9093,0,0.00,-0.00,0.00,-0.00,0.00,-0.00,0.19,0.00,0.00,0.00,-0.00,-0.00,0.00,0.19,0.19,0.19,0.19,974,1014,990,1014
9102,0,0.00,-0.00,0.00,-0.00,-0.00,-0.00,0.19,0.00,0.00,0.00,-0.00,-0.00,0.00,0.19,0.19,0.19,0.19,974,1014,990,1014
9111,0,0.00,-0.00,0.00,-0.00,-0.00,0.00,0.19,0.00,0.00,0.00,-0.00,0.00,0.00,0.19,0.19,0.19,0.19,978,1019,994,1018
9126,0,0.00,-0.00,0.00,-0.00,-0.00,0.00,0.19,0.00,0.00,0.00,-0.00,0.00,0.00,0.19,0.19,0.19,0.19,978,1019,994,1018
9136,0,0.00,0.00,0.00,-0.00,-0.00,0.00,0.20,0.00,0.00,0.00,-0.00,0.00,0.00,0.20,0.20,0.20,0.20,981,1022,997,1022
9144,0,0.00,0.00,0.00,-0.00,-0.00,0.00,0.20,0.00,0.00,0.00,-0.00,0.00,0.00,0.20,0.20,0.20,0.20,983,1023,999,1023
9152,0,0.00,-0.00,0.00,-0.00,-0.00,-0.00,0.20,0.00,0.00,0.00,-0.00,0.00,0.00,0.20,0.20,0.20,0.20,983,1023,999,1023
9162,0,0.00,-0.00,0.00,-0.00,-0.00,-0.00,0.20,0.00,0.00,0.00,-0.00,0.00,0.00,0.20,0.20,0.20,0.20,983,1023,999,1023
9172,0,0.00,-0.00,0.00,-0.00,-0.00,-0.00,0.20,0.00,0.00,0.00,-0.00,0.00,0.00,0.20,0.20,0.20,0.20,983,1023,999,1023
9182,0,0.00,-0.00,0.00,-0.00,-0.00,-0.00,0.20,0.00,0.00,0.00,-0.00,-0.00,0.00,0.20,0.20,0.20,0.20,983,1023,999,1023
9190,0,0.00,-0.00,0.00,-0.00,-0.00,0.00,0.21,0.00,0.00,0.00,-0.00,-0.00,0.00,0.21,0.21,0.21,0.21,987,1028,1004,1028
9198,0,0.00,-0.00,0.00,-0.00,0.00,0.00,0.21,0.00,0.00,0.00,-0.00,-0.00,0.00,0.21,0.21,0.21,0.21,988,1029,1005,1029
9207,0,0.00,-0.00,0.00,-0.00,0.00,0.00,0.21,0.00,0.00,0.00,-0.00,-0.00,0.00,0.21,0.21,0.21,0.21,988,1029,1004,1029
9216,0,0.00,-0.00,0.00,-0.00,0.00,0.00,0.21,0.00,0.00,0.00,-0.00,-0.00,0.00,0.21,0.21,0.21,0.21,988,1029,1004,1029
9226,0,0.00,-0.00,0.00,-0.00,0.00,0.00,0.21,0.00,0.00,0.00,-0.00,-0.00,0.00,0.21,0.21,0.21,0.21,988,1029,1004,1029
9236,0,0.00,-0.00,0.00,-0.00,0.00,-0.00,0.21,0.00,0.00,0.00,-0.00,-0.00,0.00,0.21,0.21,0.21,0.21,988,1029,1004,1029
9246,0,0.00,-0.00,0.00,-0.00,0.00,0.00,0.21,0.00,0.00,0.00,-0.00,-0.00,0.00,0.21,0.21,0.21,0.21,989,1030,1005,1030
9256,0,0.00,-0.00,0.00,-0.00,0.00,0.00,0.21,0.00,0.00,0.00,-0.00,-0.00,0.00,0.21,0.21,0.21,0.21,989,1030,1005,1030
9266,0,0.00,-0.00,0.00,-0.00,0.00,0.00,0.21,0.00,0.00,0.00,-0.00,-0.00,0.00,0.21,0.21,0.21,0.21,989,1030,1005,1030
9276,0,0.00,-0.00,0.00,-0.00,0.00,0.00,0.21,0.00,0.00,0.00,-0.00,-0.00,0.00,0.21,0.21,0.21,0.21,989,1030,1005,1030
9286,0,0.00,-0.00,0.00,-0.00,0.00,0.00,0.21,0.00,0.00,0.00,-0.00,-0.00,-0.00,0.21,0.21,0.21,0.21,989,1030,1005,1030
9296,0,0.00,-0.00,0.00,-0.00,0.00,0.00,0.21,0.00,0.00,0.00,-0.00,-0.00,-0.00,0.21,0.21,0.21,0.21,989,1030,1005,1030
9306,0,0.00,-0.00,0.00,-0.00,0.00,0.00,0.21,0.00,0.00,0.00,-0.00,-0.00,-0.00,0.21,0.21,0.21,0.21,989,1030,1005,1030
9316,0,0.00,-0.00,0.00,-0.00,0.00,0.00,0.21,0.00,0.00,0.00,-0.00,-0.00,-0.00,0.21,0.21,0.21,0.21,989,1030,1005,1030
9326,0,0.00,-0.00,0.00,-0.00,0.00,0.00,0.21,0.00,0.00,0.00,-0.00,-0.00,-0.00,0.21,0.21,0.21,0.21,989,1030,1005,1030
9336,0,0.00,-0.00,0.00,-0.00,0.00,0.00,0.21,0.00,0.00,0.00,-0.00,-0.00,-0.00,0.21,0.21,0.21,0.21,989,1030,1005,1030
9346,0,0.00,-0.00,0.00,-0.00,0.00,-0.00,0.21,0.00,0.00,0.00,-0.00,-0.00,0.00,0.21,0.21,0.21,0.21,989,1030,1005,1030
9356,0,0.00,-0.00,0.00,-0.00,0.00,-0.00,0.21,0.00,0.00,0.00,-0.00,-0.00,0.00,0.21,0.21,0.21,0.21,989,1030,1005,1030
9366,0,0.00,-0.00,0.00,-0.00,-0.00,-0.00,0.21,0.00,0.00,0.00,-0.00,-0.00,0.00,0.21,0.21,0.21,0.21,989,1030,1005,1030
9376,0,0.00,-0.00,0.00,-0.00,-0.00,-0.00,0.21,0.00,0.00,0.00,-0.00,-0.00,0.00,0.21,0.21,0.21,0.21,989,1030,1005,1030
9386,0,0.00,-0.00,0.00,-0.00,0.00,-0.00,0.21,0.00,0.00,0.00,-0.00,-0.00,0.00,0.21,0.21,0.21,0.21,989,1030,1005,1030
9394,0,0.00,-0.00,0.00,-0.00,0.00,-0.00,0.21,0.00,0.00,0.00,-0.00,-0.00,0.00,0.21,0.21,0.21,0.21,989,1030,1005,1030
9402,0,0.00,-0.00,0.00,-0.00,0.00,0.00,0.21,0.00,0.00,0.00,-0.00,-0.00,0.00,0.21,0.21,0.21,0.21,989,1030,1005,1030
9410,0,0.00,-0.00,0.00,-0.00,0.00,0.00,0.21,0.00,0.00,0.00,-0.00,-0.00,-0.00,0.21,0.21,0.21,0.21,989,1030,1005,1030
9426,0,0.00,-0.00,0.00,-0.00,0.00,0.00,0.21,0.00,0.00,0.00,-0.00,-0.00,-0.00,0.21,0.21,0.21,0.21,989,1030,1005,1030
9436,0,0.00,-0.00,0.00,-0.00,0.00,0.00,0.21,0.00,0.00,0.00,-0.00,-0.00,-0.00,0.21,0.21,0.21,0.21,989,1030,1005,1030
9444,0,0.00,-0.00,0.00,-0.00,0.00,0.00,0.21,0.00,0.00,0.00,-0.00,-0.00,-0.00,0.21,0.21,0.21,0.21,989,1030,1005,1030
9452,0,0.00,-0.00,0.00,-0.00,0.00,0.00,0.21,0.00,0.00,0.00,-0.00,-0.00,-0.00,0.21,0.21,0.21,0.21,989,1030,1005,1030
9462,0,0.00,-0.00,0.00,-0.00,0.00,-0.00,0.21,0.00,0.00,0.00,-0.00,-0.00,0.00,0.21,0.21,0.21,0.21,989,1030,1005,1030
9470,0,0.00,-0.00,0.00,-0.00,0.00,-0.00,0.21,0.00,0.00,0.00,-0.00,-0.00,0.00,0.21,0.21,0.21,0.21,989,1030,1005,1030
9478,0,0.00,-0.00,0.00,-0.00,0.00,-0.00,0.21,0.00,0.00,0.00,-0.00,-0.00,0.00,0.21,0.21,0.21,0.21,989,1030,1005,1030
9487,0,0.00,-0.00,0.00,-0.00,0.00,-0.00,0.21,0.00,0.00,0.00,-0.00,-0.00,0.00,0.21,0.21,0.21,0.21,989,1030,1005,1030
9495,0,0.00,-0.00,0.00,-0.00,0.00,-0.00,0.21,0.00,0.00,0.00,-0.00,-0.00,0.00,0.21,0.21,0.21,0.21,990,1031,1006,1031
9503,0,0.00,-0.00,0.00,-0.00,0.00,-0.00,0.21,0.00,0.00,0.00,-0.00,-0.00,0.00,0.21,0.21,0.21,0.21,991,1032,1007,1032
9514,0,0.00,-0.00,0.00,-0.00,-0.00,-0.00,0.21,0.00,0.00,0.00,-0.00,-0.00,0.00,0.21,0.21,0.21,0.21,992,1032,1008,1032
9524,0,0.00,-0.00,0.00,-0.00,-0.00,0.00,0.21,0.00,0.00,0.00,-0.00,-0.00,0.00,0.21,0.21,0.21,0.21,992,1032,1008,1032
9534,0,0.00,-0.00,0.00,-0.00,0.00,0.00,0.22,0.00,0.00,0.00,-0.00,-0.00,0.00,0.22,0.22,0.22,0.22,996,1037,1012,1037
9542,0,0.00,-0.00,0.00,-0.00,0.00,0.00,0.22,0.00,0.00,0.00,-0.00,-0.00,-0.00,0.22,0.22,0.22,0.22,996,1037,1012,1037
9551,0,0.00,-0.00,0.00,-0.00,0.00,0.00,0.22,0.00,0.00,0.00,-0.00,-0.00,-0.00,0.22,0.22,0.22,0.22,1000,1041,1016,1041
9559,0,0.00,-0.00,0.00,-0.00,0.00,0.00,0.22,0.00,0.00,0.00,-0.00,-0.00,-0.00,0.22,0.22,0.22,0.22,1001,1042,1018,1042
9567,0,0.00,-0.00,0.00,-0.00,0.00,0.00,0.22,0.00,0.00,0.00,-0.00,-0.00,-0.00,0.23,0.23,0.22,0.22,1003,1044,1019,1044
9577,0,0.00,-0.00,0.00,-0.00,-0.00,0.00,0.22,0.00,0.00,0.00,-0.00,-0.00,-0.00,0.23,0.23,0.22,0.22,1003,1044,1019,1044
9587,0,0.00,-0.00,0.00,-0.00,-0.00,0.00,0.23,0.00,0.00,0.00,-0.00,0.00,-0.00,0.23,0.23,0.23,0.23,1007,1048,1023,1048
9597,0,0.00,-0.00,0.00,-0.00,-0.00,0.00,0.23,0.00,0.00,0.00,-0.00,0.00,-0.00,0.23,0.23,0.23,0.23,1007,1048,1023,1048
9606,0,0.00,-0.00,0.00,-0.00,-0.00,0.00,0.23,0.00,0.00,0.00,-0.00,0.00,0.00,0.24,0.24,0.23,0.23,1011,1052,1027,1052
9616,0,0.00,-0.00,0.00,-0.00,-0.00,0.00,0.24,0.00,0.00,0.00,-0.00,0.00,0.00,0.24,0.24,0.24,0.24,1013,1054,1029,1054
9626,0,0.00,-0.00,0.00,-0.00,-0.00,0.00,0.24,0.00,0.00,0.00,-0.00,0.00,-0.00,0.24,0.24,0.24,0.24,1013,1054,1029,1054
9637,0,0.00,-0.00,0.00,-0.00,-0.00,0.00,0.24,0.00,0.00,0.00,-0.00,-0.00,0.00,0.24,0.24,0.24,0.24,1013,1054,1029,1054
9645,0,0.00,-0.00,0.00,-0.00,-0.00,0.00,0.24,0.00,0.00,0.00,-0.00,0.00,0.00,0.24,0.24,0.24,0.24,1016,1057,1032,1057
9653,0,0.00,-0.00,0.00,-0.00,-0.00,-0.00,0.24,0.00,0.00,0.00,-0.00,-0.00,0.00,0.24,0.24,0.24,0.24,1018,1059,1034,1059
9661,0,0.00,-0.00,0.00,-0.00,-0.00,-0.00,0.24,0.00,0.00,0.00,-0.00,-0.00,0.00,0.24,0.24,0.24,0.24,1019,1059,1035,1059
9669,0,0.00,-0.00,0.00,-0.00,0.00,-0.00,0.25,0.00,0.00,0.00,-0.00,-0.00,0.00,0.25,0.25,0.25,0.25,1021,1062,1037,1062
9678,0,0.00,-0.00,0.00,-0.00,0.00,0.00,0.25,0.00,0.00,0.00,-0.00,-0.00,0.00,0.25,0.25,0.25,0.25,1021,1062,1037,1062
9687,0,0.00,-0.00,0.00,-0.00,0.00,0.00,0.25,0.00,0.00,0.00,-0.00,-0.00,0.00,0.25,0.25,0.25,0.25,1021,1062,1037,1062
9702,0,0.00,-0.00,0.00,-0.00,0.00,0.00,0.25,0.00,0.00,0.00,-0.00,-0.00,-0.00,0.25,0.25,0.25,0.25,1021,1062,1037,1062
9714,0,0.00,-0.00,0.00,-0.00,0.00,0.00,0.26,0.00,0.00,0.00,-0.00,-0.00,0.00,0.26,0.26,0.26,0.26,1031,1072,1047,1072
9724,0,0.00,-0.00,0.00,-0.00,0.00,-0.00,0.26,0.00,0.00,0.00,-0.00,-0.00,0.00,0.26,0.26,0.26,0.26,1032,1073,1049,1073
9734,0,0.00,-0.00,0.00,-0.00,-0.00,-0.00,0.26,0.00,0.00,0.00,-0.00,-0.00,0.00,0.26,0.26,0.26,0.26,1034,1075,1050,1075
9742,0,0.00,-0.00,0.00,-0.00,0.00,-0.00,0.26,0.00,0.00,0.00,-0.00,-0.00,0.00,0.26,0.26,0.26,0.26,1034,1075,1050,1075
9749,0,0.00,-0.00,0.00,-0.00,-0.00,-0.00,0.26,0.00,0.00,0.00,-0.00,-0.00,0.00,0.27,0.27,0.26,0.26,1036,1077,1052,1077
9758,0,0.00,-0.00,0.00,-0.00,0.00,-0.00,0.27,0.00,0.00,0.00,-0.00,-0.00,0.00,0.27,0.27,0.27,0.27,1040,1081,1056,1081
9767,0,0.00,-0.00,0.00,-0.00,0.00,-0.00,0.27,0.00,0.00,0.00,-0.00,-0.00,0.00,0.27,0.27,0.27,0.27,1042,1082,1058,1082
9777,0,0.00,-0.00,0.00,-0.00,0.00,-0.00,0.27,0.00,0.00,0.00,-0.00,-0.00,0.00,0.27,0.27,0.27,0.27,1042,1083,1059,1083
9787,0,0.00,-0.00,0.00,-0.00,0.00,-0.00,0.27,0.00,0.00,0.00,-0.00,-0.00,0.00,0.27,0.27,0.27,0.27,1042,1083,1059,1083
9797,0,0.00,-0.00,0.00,-0.00,0.00,-0.00,0.27,0.00,0.00,0.00,-0.00,-0.00,0.00,0.27,0.27,0.27,0.27,1042,1083,1059,1083
9807,0,0.00,-0.00,0.00,-0.00,0.00,-0.00,0.28,0.00,0.00,0.00,-0.00,-0.00,0.00,0.28,0.28,0.28,0.28,1046,1087,1063,1087
9817,0,0.00,-0.00,0.00,-0.00,0.00,-0.00,0.28,0.00,0.00,0.00,-0.00,-0.00,0.00,0.28,0.28,0.28,0.28,1048,1089,1064,1089
9827,0,0.00,-0.00,0.00,-0.00,0.00,-0.00,0.28,0.00,0.00,0.00,-0.00,-0.00,0.00,0.28,0.28,0.28,0.28,1048,1089,1064,1089
9837,0,0.00,-0.00,0.00,-0.00,0.00,-0.00,0.28,0.00,0.00,0.00,-0.00,-0.00,0.00,0.28,0.28,0.28,0.28,1048,1089,1064,1089
9845,0,0.00,-0.00,0.00,-0.00,0.00,-0.00,0.28,0.00,0.00,0.00,-0.00,-0.00,0.00,0.28,0.28,0.28,0.28,1051,1091,1067,1091
9853,0,0.00,-0.00,0.00,-0.00,-0.00,-0.00,0.28,0.00,0.00,0.00,-0.00,-0.00,0.00,0.28,0.28,0.28,0.28,1051,1091,1067,1091
9863,0,0.00,-0.00,0.00,-0.00,-0.00,-0.00,0.28,0.00,0.00,0.00,-0.00,-0.00,0.00,0.28,0.28,0.28,0.28,1051,1091,1067,1091
9872,0,0.00,-0.00,0.00,-0.00,0.00,-0.00,0.28,0.00,0.00,0.00,-0.00,-0.00,0.00,0.28,0.28,0.28,0.28,1051,1091,1067,1091
9880,0,0.00,-0.00,0.00,-0.00,0.00,-0.00,0.28,0.00,0.00,0.00,-0.00,-0.00,0.00,0.28,0.28,0.28,0.28,1051,1091,1067,1091
9888,0,0.00,-0.00,0.00,0.00,0.00,-0.00,0.29,0.00,0.00,0.00,-0.00,-0.00,0.00,0.29,0.29,0.29,0.29,1056,1097,1072,1097
9897,0,0.00,-0.00,0.00,-0.00,0.00,0.00,0.29,0.00,0.00,0.00,-0.00,-0.00,0.00,0.29,0.29,0.29,0.29,1057,1098,1073,1098
9907,0,0.00,-0.00,0.00,-0.00,-0.00,0.00,0.29,0.00,0.00,0.00,-0.00,-0.00,0.00,0.29,0.29,0.29,0.29,1058,1099,1074,1099
9917,0,0.00,-0.00,0.00,-0.00,-0.00,0.00,0.29,0.00,0.00,0.00,-0.00,0.00,0.00,0.29,0.29,0.29,0.29,1058,1099,1074,1099
9927,0,0.00,-0.00,0.00,-0.00,0.00,0.00,0.29,0.00,0.00,0.00,-0.00,-0.00,0.00,0.29,0.29,0.29,0.29,1058,1099,1074,1099
9937,0,0.00,-0.00,0.00,-0.00,0.00,-0.00,0.29,0.00,0.00,0.00,-0.00,-0.00,0.00,0.29,0.29,0.29,0.29,1058,1099,1074,1099
9947,0,0.00,-0.00,0.00,-0.00,0.00,-0.00,0.30,0.00,0.00,0.00,-0.00,-0.00,0.00,0.30,0.30,0.30,0.30,1062,1103,1078,1103
9957,0,0.00,-0.00,0.00,-0.00,0.00,-0.00,0.30,0.00,0.00,0.00,-0.00,-0.00,0.00,0.30,0.30,0.30,0.30,1064,1105,1080,1105
9967,0,0.00,-0.00,0.00,-0.00,-0.00,0.00,0.30,0.00,0.00,0.00,-0.00,0.00,0.00,0.30,0.30,0.30,0.30,1064,1105,1080,1105
9977,0,0.00,-0.00,0.00,0.00,-0.00,-0.00,0.30,0.00,0.00,0.00,-0.00,0.00,0.00,0.30,0.30,0.30,0.30,1064,1105,1081,1105
9987,0,0.00,-0.00,0.00,0.00,-0.00,-0.00,0.30,0.00,0.00,0.00,-0.00,0.00,0.00,0.30,0.30,0.30,0.30,1064,1105,1081,1105
9998,0,0.00,-0.00,0.00,-0.00,-0.00,-0.00,0.30,0.00,0.00,0.00,-0.00,-0.00,0.00,0.30,0.30,0.30,0.30,1064,1105,1081,1105
10006,0,0.00,-0.00,0.00,-0.00,-0.00,0.00,0.31,0.00,0.00,0.00,-0.00,-0.00,0.00,0.31,0.31,0.31,0.31,1069,1110,1086,1110
10016,0,0.00,-0.00,0.00,-0.00,0.00,0.00,0.31,0.00,0.00,0.00,-0.00,-0.00,0.00,0.31,0.31,0.31,0.31,1069,1110,1086,1110
10026,0,0.00,-0.00,0.00,0.00,0.00,0.00,0.31,0.00,0.00,0.00,-0.00,-0.00,0.00,0.31,0.31,0.31,0.31,1072,1113,1088,1113
10036,0,0.00,-0.00,0.00,0.00,0.00,-0.00,0.31,0.00,0.00,0.00,-0.00,-0.00,0.00,0.31,0.31,0.31,0.31,1072,1113,1088,1113
10044,0,0.00,-0.00,0.00,0.00,0.00,-0.00,0.31,0.00,0.00,0.00,-0.00,-0.00,0.00,0.31,0.31,0.31,0.31,1075,1116,1091,1116
10052,0,0.00,-0.00,0.00,-0.00,0.00,0.00,0.31,0.00,0.00,0.00,-0.00,-0.00,0.00,0.31,0.31,0.31,0.31,1075,1116,1091,1116
10059,0,0.00,-0.00,0.00,-0.00,0.00,0.00,0.31,0.00,0.00,0.00,-0.00,-0.00,0.00,0.31,0.31,0.31,0.31,1075,1116,1091,1116
10068,0,0.00,-0.00,0.00,-0.00,-0.00,0.00,0.32,0.00,0.00,0.00,-0.00,-0.00,0.00,0.32,0.32,0.32,0.32,1078,1119,1095,1119
10078,0,0.00,-0.00,0.00,0.00,-0.00,0.00,0.32,0.00,0.00,0.00,-0.00,0.00,0.00,0.32,0.32,0.32,0.32,1078,1119,1095,1119
10088,0,0.00,-0.00,0.00,0.00,-0.00,0.00,0.32,0.00,0.00,0.00,-0.00,0.00,0.00,0.32,0.32,0.32,0.32,1078,1119,1095,1119
10097,0,0.00,-0.00,0.00,0.00,0.00,0.00,0.32,0.00,0.00,0.00,-0.00,-0.00,0.00,0.32,0.32,0.32,0.32,1078,1119,1095,1119
10107,0,0.00,-0.00,0.00,0.00,0.00,0.00,0.33,0.00,0.00,0.00,-0.00,-0.00,0.00,0.33,0.33,0.33,0.33,1091,1132,1107,1132
10117,0,0.00,-0.00,0.00,0.00,0.00,0.00,0.34,0.00,0.00,0.00,-0.00,-0.00,0.00,0.34,0.34,0.33,0.33,1093,1134,1109,1134
10127,0,0.00,-0.00,0.00,-0.00,0.00,0.00,0.34,0.00,0.00,0.00,-0.00,-0.00,0.00,0.34,0.34,0.33,0.33,1093,1134,1109,1134
10138,0,0.00,-0.00,0.00,-0.00,0.00,0.00,0.34,0.00,0.00,0.00,-0.00,-0.00,0.00,0.34,0.34,0.33,0.33,1093,1134,1109,1134
10147,0,0.00,-0.00,0.00,0.00,0.00,-0.00,0.34,0.00,0.00,0.00,-0.00,-0.00,0.00,0.34,0.34,0.34,0.34,1100,1141,1117,1141
10157,0,0.00,-0.00,0.00,0.00,0.00,-0.00,0.34,0.00,0.00,0.00,-0.00,-0.00,0.00,0.34,0.34,0.34,0.34,1100,1141,1117,1141
10167,0,0.00,-0.00,0.00,0.00,0.00,-0.00,0.34,0.00,0.00,0.00,-0.00,-0.00,0.00,0.34,0.34,0.34,0.34,1100,1141,1117,1141
10177,0,0.00,-0.00,0.00,-0.00,0.00,-0.00,0.35,0.00,0.00,0.00,-0.00,-0.00,0.00,0.35,0.35,0.35,0.35,1108,1149,1124,1149
10188,0,0.00,-0.00,0.00,-0.00,-0.00,-0.00,0.35,0.00,0.00,0.00,-0.00,-0.00,0.00,0.35,0.35,0.35,0.35,1108,1149,1124,1149
10197,0,0.00,-0.00,0.00,-0.00,-0.00,-0.00,0.35,0.00,0.00,0.00,-0.00,-0.00,0.00,0.35,0.35,0.35,0.35,1108,1149,1124,1149
10207,0,0.00,-0.00,0.00,-0.00,0.00,-0.00,0.36,0.00,0.00,0.00,-0.00,-0.00,0.00,0.36,0.36,0.36,0.36,1113,1154,1129,1154
10217,0,0.00,-0.00,0.00,-0.00,0.00,-0.00,0.36,0.00,0.00,0.00,-0.00,-0.00,0.00,0.36,0.36,0.36,0.36,1114,1155,1130,1155
10227,0,0.00,-0.00,0.00,-0.00,0.00,-0.00,0.36,0.00,0.00,0.00,-0.00,-0.00,0.00,0.36,0.36,0.36,0.36,1114,1155,1130,1155
10238,0,0.00,-0.00,0.00,-0.00,-0.00,0.00,0.36,0.00,0.00,0.00,-0.00,-0.00,0.00,0.36,0.36,0.36,0.36,1115,1156,1131,1156
10246,0,0.00,-0.00,0.00,-0.00,-0.00,0.00,0.36,0.00,0.00,0.00,-0.00,-0.00,-0.00,0.36,0.36,0.36,0.36,1115,1156,1132,1156
10254,0,0.00,-0.00,0.00,-0.00,-0.00,0.00,0.36,0.00,0.00,0.00,-0.00,-0.00,-0.00,0.36,0.36,0.36,0.36,1115,1156,1132,1156
10263,0,0.00,-0.00,0.00,-0.00,0.00,0.00,0.36,0.00,0.00,0.00,-0.00,-0.00,-0.00,0.36,0.36,0.36,0.36,1115,1156,1131,1156
10271,0,0.00,-0.00,0.00,-0.00,0.00,0.00,0.36,0.00,0.00,0.00,-0.00,-0.00,0.00,0.36,0.36,0.36,0.36,1115,1156,1131,1156
10279,0,0.00,-0.00,0.00,-0.00,0.00,0.00,0.36,0.00,0.00,0.00,-0.00,-0.00,0.00,0.36,0.36,0.36,0.36,1115,1156,1131,1156
10293,0,0.00,-0.00,0.00,-0.00,-0.00,0.00,0.36,0.00,0.00,0.00,-0.00,-0.00,0.00,0.36,0.36,0.36,0.36,1115,1156,1131,1156
10301,0,0.00,-0.00,0.00,-0.00,-0.00,0.00,0.36,0.00,0.00,0.00,-0.00,-0.00,0.00,0.36,0.36,0.36,0.36,1115,1156,1131,1156
10309,0,0.00,-0.00,0.00,-0.00,0.00,-0.00,0.36,0.00,0.00,0.00,-0.00,-0.00,0.00,0.36,0.36,0.36,0.36,1115,1156,1131,1156
10318,0,0.00,-0.00,0.00,-0.00,0.00,0.00,0.36,0.00,0.00,0.00,-0.00,-0.00,0.00,0.36,0.36,0.36,0.36,1115,1156,1131,1156
10328,0,0.00,-0.00,0.00,0.00,0.00,0.00,0.36,0.00,0.00,0.00,-0.00,-0.00,0.00,0.36,0.36,0.36,0.36,1115,1156,1131,1156
10338,0,0.00,-0.00,0.00,0.00,0.00,0.00,0.36,0.00,0.00,0.00,-0.00,-0.00,0.00,0.36,0.36,0.36,0.36,1116,1157,1132,1157
10346,0,0.00,-0.00,0.00,0.00,-0.00,0.00,0.36,0.00,0.00,0.00,-0.00,-0.00,0.00,0.36,0.36,0.36,0.36,1116,1157,1132,1157
10353,0,0.00,-0.00,0.00,0.00,-0.00,0.00,0.36,0.00,0.00,0.00,-0.00,0.00,-0.00,0.36,0.36,0.36,0.36,1116,1157,1132,1157
10362,0,0.00,-0.00,0.00,0.00,-0.00,0.00,0.36,0.00,0.00,0.00,-0.00,0.00,-0.00,0.36,0.36,0.36,0.36,1116,1157,1132,1157
10370,0,0.00,-0.00,0.00,0.00,0.00,0.00,0.36,0.00,0.00,0.00,-0.00,-0.00,-0.00,0.36,0.36,0.36,0.36,1116,1157,1132,1157
10379,0,0.00,-0.00,0.00,0.00,0.00,0.00,0.36,0.00,0.00,0.00,-0.00,-0.00,-0.00,0.36,0.36,0.36,0.36,1116,1157,1132,1157
10388,0,0.00,-0.00,0.00,0.00,0.00,0.00,0.36,0.00,0.00,0.00,-0.00,-0.00,-0.00,0.36,0.36,0.36,0.36,1116,1157,1132,1157
10396,0,0.00,-0.00,0.00,0.00,0.00,-0.00,0.36,0.00,0.00,0.00,-0.00,-0.00,0.00,0.36,0.36,0.36,0.36,1116,1157,1132,1157
10404,0,0.00,-0.00,0.00,0.00,0.00,-0.00,0.36,0.00,0.00,0.00,-0.00,-0.00,0.00,0.36,0.36,0.36,0.36,1116,1157,1132,1157
10413,0,0.00,-0.00,0.00,0.00,0.00,-0.00,0.36,0.00,0.00,0.00,-0.00,-0.00,0.00,0.36,0.36,0.36,0.36,1116,1157,1132,1157
10422,0,0.00,-0.00,0.00,0.00,0.00,-0.00,0.36,0.00,0.00,0.00,-0.00,-0.00,0.00,0.36,0.36,0.36,0.36,1116,1157,1132,1157
10430,0,0.00,-0.00,0.00,-0.00,0.00,-0.00,0.36,0.00,0.00,0.00,-0.00,-0.00,0.00,0.36,0.36,0.36,0.36,1117,1158,1133,1158
10439,0,0.00,-0.00,0.00,0.00,0.00,-0.00,0.36,0.00,0.00,0.00,-0.00,-0.00,0.00,0.36,0.36,0.36,0.36,1117,1158,1133,1158
10447,0,0.00,-0.00,0.00,0.00,0.00,-0.00,0.36,0.00,0.00,0.00,-0.00,-0.00,0.00,0.36,0.36,0.36,0.36,1117,1158,1133,1158
10455,0,0.00,-0.00,0.00,0.00,-0.00,0.00,0.36,0.00,0.00,0.00,-0.00,-0.00,0.00,0.36,0.36,0.36,0.36,1117,1158,1133,1158
10465,0,0.00,-0.00,0.00,0.00,-0.00,0.00,0.36,0.00,0.00,0.00,-0.00,0.00,0.00,0.36,0.36,0.36,0.36,1117,1158,1133,1158
10475,0,0.00,-0.00,0.00,-0.00,-0.00,0.00,0.36,0.00,0.00,0.00,-0.00,0.00,-0.00,0.36,0.36,0.36,0.36,1117,1158,1133,1158
10485,0,0.00,-0.00,0.00,-0.00,-0.00,-0.00,0.37,0.00,0.00,0.00,-0.00,-0.00,0.00,0.37,0.37,0.37,0.37,1123,1164,1140,1164
10493,0,0.00,-0.00,0.00,-0.00,0.00,-0.00,0.37,0.00,0.00,0.00,-0.00,-0.00,0.00,0.37,0.37,0.37,0.37,1123,1164,1140,1164
10502,0,0.00,-0.00,0.00,0.00,0.00,-0.00,0.37,0.00,0.00,0.00,-0.00,-0.00,0.00,0.37,0.37,0.37,0.37,1123,1164,1140,1164
10510,0,0.00,-0.00,0.00,0.00,0.00,-0.00,0.37,0.00,0.00,0.00,-0.00,-0.00,0.00,0.37,0.37,0.37,0.37,1123,1164,1140,1164
10519,0,0.00,-0.00,0.00,0.00,0.00,-0.00,0.37,0.00,0.00,0.00,-0.00,-0.00,0.00,0.37,0.37,0.37,0.37,1123,1164,1140,1164
10528,0,0.00,-0.00,0.00,0.00,0.00,-0.00,0.37,0.00,0.00,0.00,-0.00,-0.00,0.00,0.37,0.37,0.37,0.37,1123,1164,1140,1164
10538,0,0.00,-0.00,0.00,0.00,-0.00,-0.00,0.38,0.00,0.00,0.00,-0.00,0.00,0.00,0.38,0.38,0.38,0.38,1132,1172,1148,1173
10548,0,0.00,-0.00,0.00,0.00,-0.00,-0.00,0.38,0.00,0.00,0.00,-0.00,0.00,0.00,0.38,0.38,0.38,0.38,1132,1172,1148,1172
10558,0,0.00,-0.00,0.00,0.00,-0.00,0.00,0.38,0.00,0.00,0.00,-0.00,0.00,0.00,0.38,0.38,0.38,0.38,1132,1173,1148,1173
10573,0,0.00,-0.00,0.00,0.00,-0.00,0.00,0.38,0.00,0.00,0.00,-0.00,-0.00,0.00,0.38,0.38,0.38,0.38,1132,1173,1148,1172
10581,0,0.00,-0.00,0.00,0.00,-0.00,0.00,0.40,0.00,0.00,0.00,-0.00,-0.00,-0.00,0.40,0.40,0.40,0.40,1144,1185,1160,1185
10590,0,0.00,-0.00,0.00,0.00,-0.00,0.00,0.40,0.00,0.00,0.00,-0.00,0.00,-0.00,0.40,0.40,0.40,0.40,1146,1187,1163,1187
10598,0,0.00,-0.00,0.00,0.00,-0.00,0.00,0.40,0.00,0.00,0.00,-0.00,0.00,-0.00,0.40,0.40,0.40,0.40,1148,1189,1164,1189
10606,0,0.00,-0.00,0.00,0.00,-0.00,0.00,0.40,0.00,0.00,0.00,-0.00,0.00,-0.00,0.40,0.40,0.40,0.40,1149,1190,1165,1190
10616,0,0.00,-0.00,0.00,0.00,-0.00,0.00,0.40,0.00,0.00,0.00,-0.00,0.00,0.00,0.40,0.40,0.40,0.40,1149,1190,1165,1190
10625,0,0.00,-0.00,0.00,0.00,-0.00,-0.00,0.40,0.00,0.00,0.00,-0.00,0.00,0.00,0.40,0.40,0.40,0.40,1149,1190,1165,1190
10634,0,0.00,-0.00,0.00,0.00,-0.00,-0.00,0.40,0.00,0.00,0.00,-0.00,0.00,0.00,0.40,0.40,0.40,0.40,1149,1190,1165,1190
10642,0,0.00,-0.00,0.00,0.00,0.00,-0.00,0.40,0.00,0.00,0.00,-0.00,-0.00,0.00,0.40,0.40,0.40,0.40,1149,1190,1165,1190
10650,0,0.00,-0.00,0.00,0.00,-0.00,-0.00,0.41,0.00,0.00,0.00,-0.00,-0.00,0.00,0.41,0.41,0.41,0.41,1155,1195,1171,1196
10659,0,0.00,-0.00,0.00,0.00,-0.00,-0.00,0.41,0.00,0.00,0.00,-0.00,0.00,0.00,0.41,0.41,0.41,0.41,1156,1197,1172,1197
10669,0,0.00,-0.00,0.00,0.00,-0.00,-0.00,0.41,0.00,0.00,0.00,-0.00,0.00,0.00,0.41,0.41,0.41,0.41,1157,1198,1173,1198
10678,0,0.00,-0.00,0.00,0.00,-0.00,-0.00,0.41,0.00,0.00,0.00,-0.00,0.00,0.00,0.41,0.41,0.41,0.41,1157,1198,1173,1198
10688,0,0.00,-0.00,0.00,-0.00,-0.00,-0.00,0.41,0.00,0.00,0.00,-0.00,0.00,0.00,0.41,0.41,0.41,0.41,1157,1198,1173,1198
10696,0,0.00,-0.00,0.00,-0.00,-0.00,-0.00,0.41,0.00,0.00,0.00,-0.00,0.00,0.00,0.41,0.41,0.41,0.41,1157,1198,1173,1198
10704,0,0.00,-0.00,0.00,-0.00,0.00,-0.00,0.42,0.00,0.00,0.00,-0.00,-0.00,0.00,0.42,0.42,0.42,0.42,1166,1207,1182,1207
10712,0,0.00,-0.00,0.00,-0.00,0.00,0.00,0.42,0.00,0.00,0.00,-0.00,-0.00,0.00,0.42,0.42,0.42,0.42,1166,1207,1182,1207
10720,0,0.00,-0.00,0.00,-0.00,0.00,0.00,0.43,0.00,0.00,0.00,-0.00,-0.00,-0.00,0.43,0.43,0.43,0.43,1168,1210,1185,1209
10729,0,0.00,-0.00,0.00,-0.00,-0.00,0.00,0.43,0.00,0.00,0.00,-0.00,0.00,-0.00,0.43,0.43,0.43,0.43,1170,1211,1186,1211
10739,0,0.00,-0.00,0.00,-0.00,-0.00,0.00,0.43,0.00,0.00,0.00,-0.00,0.00,0.00,0.43,0.43,0.43,0.43,1172,1213,1188,1213
10747,0,0.00,-0.00,0.00,-0.00,-0.00,0.00,0.43,0.00,0.00,0.00,-0.00,0.00,0.00,0.43,0.43,0.43,0.43,1174,1214,1190,1214
10755,0,0.00,-0.00,0.00,-0.00,-0.00,0.00,0.43,0.00,0.00,0.00,-0.00,0.00,-0.00,0.43,0.43,0.43,0.43,1173,1214,1190,1214
10765,0,0.00,-0.00,0.00,-0.00,-0.00,0.00,0.43,0.00,0.00,0.00,-0.00,0.00,-0.00,0.43,0.43,0.43,0.43,1173,1214,1190,1214
10775,0,0.00,-0.00,0.00,-0.00,0.00,0.00,0.43,0.00,0.00,0.00,-0.00,-0.00,-0.00,0.43,0.43,0.43,0.43,1173,1215,1190,1214
10784,0,0.00,-0.00,0.00,-0.00,0.00,0.00,0.44,0.00,0.00,0.00,-0.00,-0.00,-0.00,0.44,0.44,0.44,0.44,1182,1224,1199,1223
10792,0,-0.00,-0.00,0.00,0.00,0.00,0.00,0.45,0.00,0.00,0.00,-0.00,-0.00,-0.00,0.45,0.45,0.45,0.45,1184,1225,1201,1225
10800,0,-0.00,-0.00,0.00,0.00,0.00,0.00,0.45,0.00,0.00,0.00,-0.00,-0.00,-0.00,0.45,0.45,0.45,0.45,1184,1225,1201,1225
10809,0,-0.00,-0.00,0.00,0.00,0.00,0.00,0.45,0.00,0.00,0.00,-0.00,-0.00,-0.00,0.45,0.45,0.45,0.45,1184,1225,1201,1225
10819,0,-0.00,-0.00,0.00,0.00,-0.00,0.00,0.45,0.00,0.00,0.00,0.00,0.00,-0.00,0.45,0.45,0.45,0.45,1184,1225,1201,1225
10829,0,-0.00,-0.00,0.00,0.00,-0.00,0.00,0.45,0.00,0.00,0.00,0.00,0.00,-0.00,0.45,0.45,0.45,0.45,1184,1225,1201,1224
10839,0,-0.00,0.00,0.00,0.00,-0.00,0.00,0.45,0.00,0.00,0.00,0.00,0.00,-0.00,0.45,0.45,0.45,0.45,1186,1228,1204,1227
10854,0,-0.01,0.00,0.00,0.00,-0.00,0.00,0.45,0.00,0.00,0.00,0.00,0.00,-0.00,0.45,0.45,0.45,0.45,1188,1229,1205,1228
10863,0,-0.01,0.00,0.00,0.00,-0.00,0.00,0.45,0.00,0.00,0.00,0.00,0.00,-0.00,0.45,0.45,0.45,0.45,1188,1229,1205,1228
10871,0,-0.01,0.00,0.00,0.00,-0.00,0.00,0.45,0.00,0.00,0.00,0.00,0.00,-0.00,0.45,0.45,0.45,0.45,1188,1229,1205,1228
10880,0,-0.01,0.00,0.00,0.00,-0.00,0.00,0.45,0.00,0.00,0.00,0.00,0.00,-0.00,0.45,0.45,0.45,0.45,1188,1229,1205,1228
10889,0,-0.01,0.00,-0.00,0.00,-0.00,0.00,0.45,0.00,0.00,0.00,0.00,0.00,-0.00,0.45,0.45,0.45,0.45,1188,1229,1206,1228
10897,0,-0.01,0.01,-0.00,0.00,-0.00,0.00,0.45,0.00,0.00,0.00,0.00,0.00,-0.00,0.45,0.45,0.45,0.45,1188,1229,1206,1228
10905,0,-0.02,0.01,-0.00,0.00,-0.00,0.00,0.45,0.00,0.00,0.00,0.00,0.00,-0.00,0.45,0.45,0.46,0.45,1191,1231,1208,1231
10915,0,-0.02,0.01,-0.00,0.00,-0.00,0.00,0.45,0.00,0.00,0.00,0.00,0.00,-0.00,0.45,0.45,0.45,0.45,1190,1230,1207,1230
10923,0,-0.02,0.01,-0.00,0.00,-0.00,0.00,0.45,0.00,0.00,0.00,0.00,0.00,-0.00,0.45,0.45,0.45,0.45,1190,1230,1207,1230
10932,0,-0.02,0.02,-0.00,0.00,-0.00,0.00,0.45,0.00,0.00,0.00,0.00,0.00,-0.00,0.45,0.45,0.45,0.45,1190,1230,1207,1230
10940,0,-0.02,0.02,-0.00,0.00,-0.00,0.00,0.45,0.00,0.00,0.00,0.00,0.00,-0.00,0.45,0.45,0.45,0.45,1190,1230,1207,1230
10948,0,-0.02,0.02,-0.00,0.00,-0.00,0.00,0.45,0.00,0.00,0.00,0.00,0.00,-0.00,0.45,0.45,0.45,0.45,1190,1230,1207,1230
10956,0,-0.02,0.02,-0.00,0.00,-0.00,0.00,0.45,0.00,0.00,0.00,0.00,0.00,-0.00,0.45,0.45,0.45,0.45,1190,1230,1207,1230
10965,0,-0.01,0.02,-0.00,0.00,-0.00,-0.00,0.45,0.00,0.00,0.00,0.00,0.00,-0.00,0.45,0.45,0.45,0.45,1190,1230,1207,1230
10973,0,-0.01,0.02,-0.00,0.00,-0.00,-0.00,0.45,0.00,0.00,0.00,0.00,0.00,0.00,0.45,0.45,0.45,0.45,1190,1230,1207,1230
10986,0,-0.01,0.03,-0.00,0.00,-0.00,-0.00,0.45,0.00,0.00,0.00,0.00,0.00,0.00,0.45,0.45,0.45,0.45,1191,1230,1207,1230
10994,0,-0.00,0.03,-0.00,0.00,-0.00,-0.00,0.45,0.00,0.00,0.00,0.00,0.00,0.00,0.45,0.45,0.45,0.45,1191,1229,1207,1230
11001,0,-0.00,0.03,-0.00,0.00,-0.00,-0.00,0.45,0.00,0.00,0.00,0.00,0.00,0.00,0.45,0.45,0.45,0.45,1191,1229,1206,1230
11010,0,-0.00,0.03,-0.00,0.00,-0.00,-0.00,0.45,0.00,0.00,0.00,0.00,0.00,0.00,0.45,0.45,0.45,0.45,1191,1229,1206,1231
11019,0,-0.00,0.03,-0.00,-0.00,-0.00,-0.00,0.45,0.00,0.00,0.00,0.00,0.00,0.00,0.45,0.45,0.45,0.45,1191,1229,1206,1231
11029,0,0.00,0.03,-0.00,-0.00,-0.00,-0.00,0.45,0.00,0.00,0.00,-0.00,0.00,0.00,0.45,0.45,0.45,0.45,1191,1229,1206,1231
11039,0,0.00,0.03,-0.00,-0.00,-0.00,-0.00,0.45,0.00,0.00,0.00,-0.00,0.00,0.00,0.45,0.45,0.45,0.45,1191,1229,1206,1231
11047,0,0.00,0.03,-0.00,-0.00,-0.00,-0.00,0.45,0.00,0.00,0.00,-0.00,0.00,0.00,0.45,0.45,0.45,0.45,1191,1229,1205,1231
11055,0,0.01,0.03,-0.00,-0.00,-0.00,-0.00,0.45,0.00,0.00,0.00,-0.00,0.00,0.00,0.45,0.45,0.45,0.45,1191,1230,1205,1231
11064,0,0.01,0.03,-0.00,-0.00,-0.00,-0.00,0.45,0.00,0.00,0.00,-0.00,0.00,0.00,0.45,0.45,0.45,0.45,1191,1230,1205,1231
11072,0,0.01,0.03,0.00,-0.00,-0.00,-0.00,0.45,0.00,0.00,0.00,-0.00,0.00,0.00,0.45,0.45,0.45,0.45,1191,1230,1205,1231
11080,0,0.01,0.03,0.00,-0.00,0.00,-0.00,0.45,0.00,0.00,0.00,-0.00,0.00,0.00,0.45,0.45,0.45,0.45,1191,1230,1205,1231
11090,0,0.01,0.03,0.00,-0.00,0.00,-0.00,0.45,0.00,0.00,0.00,-0.00,0.00,0.00,0.45,0.45,0.45,0.45,1191,1230,1205,1231
11098,0,0.01,0.03,0.00,-0.00,0.00,-0.00,0.45,0.00,0.00,0.00,-0.00,-0.00,0.00,0.45,0.45,0.45,0.45,1190,1231,1205,1231
11106,0,0.01,0.03,0.00,-0.00,0.00,-0.00,0.45,0.00,0.00,0.00,-0.00,-0.00,0.00,0.45,0.45,0.45,0.45,1190,1231,1205,1231
11120,0,0.01,0.02,0.00,-0.00,0.00,-0.00,0.45,0.00,0.00,0.00,-0.00,-0.00,0.00,0.45,0.45,0.45,0.45,1190,1231,1205,1231
11130,0,0.01,0.02,0.00,-0.00,0.00,-0.00,0.45,0.00,0.00,0.00,-0.00,-0.00,0.00,0.45,0.45,0.45,0.45,1190,1231,1205,1231
11140,0,0.01,0.02,0.01,-0.00,0.00,0.00,0.45,0.00,0.00,0.00,-0.00,-0.00,0.00,0.45,0.45,0.45,0.45,1190,1231,1206,1231
11148,0,0.01,0.02,0.01,-0.00,0.00,0.00,0.45,0.00,0.00,0.00,-0.00,-0.00,-0.00,0.45,0.45,0.45,0.45,1190,1231,1206,1230
11156,0,0.00,0.02,0.01,-0.00,0.00,0.00,0.45,0.00,0.00,0.00,-0.00,-0.00,-0.00,0.45,0.45,0.45,0.45,1190,1231,1206,1230
11165,0,0.00,0.02,0.01,-0.00,0.00,0.00,0.45,0.00,0.00,0.00,-0.00,-0.00,-0.00,0.45,0.45,0.45,0.45,1190,1231,1206,1230
11173,0,0.00,0.02,0.01,-0.00,0.00,0.00,0.45,0.00,0.00,0.00,-0.00,0.00,-0.00,0.45,0.45,0.45,0.45,1190,1231,1206,1230
11181,0,-0.00,0.02,0.02,-0.00,-0.00,0.00,0.45,0.00,0.00,0.00,-0.00,0.00,-0.00,0.45,0.45,0.45,0.45,1190,1232,1207,1230
11190,0,-0.00,0.02,0.02,-0.00,-0.00,0.00,0.45,0.00,0.00,0.00,-0.00,0.00,-0.00,0.45,0.45,0.45,0.45,1189,1232,1207,1229
11198,0,-0.00,0.02,0.02,-0.00,-0.00,0.00,0.45,0.00,0.00,0.00,-0.00,0.00,-0.00,0.45,0.45,0.45,0.45,1189,1232,1207,1229
11206,0,-0.01,0.02,0.02,-0.00,-0.00,0.00,0.45,0.00,0.00,0.00,-0.00,0.00,-0.00,0.45,0.45,0.45,0.45,1189,1232,1207,1229
11216,0,-0.01,0.03,0.02,-0.00,-0.00,0.00,0.45,0.00,0.00,0.00,-0.00,0.00,-0.00,0.45,0.45,0.45,0.45,1189,1232,1207,1229
11226,0,-0.02,0.03,0.02,-0.00,-0.00,0.00,0.45,0.00,0.00,0.00,-0.00,0.00,-0.00,0.45,0.45,0.45,0.45,1189,1232,1208,1229
11236,0,-0.02,0.03,0.02,-0.00,-0.00,0.00,0.45,0.00,0.00,0.00,-0.00,0.00,-0.00,0.45,0.45,0.45,0.45,1189,1232,1208,1228
11245,0,-0.03,0.03,0.02,-0.00,-0.00,0.00,0.45,0.00,0.00,0.00,-0.00,0.00,-0.00,0.45,0.45,0.45,0.45,1189,1232,1208,1228
11253,0,-0.03,0.03,0.02,-0.00,-0.00,0.00,0.45,0.00,0.00,0.00,-0.00,0.00,-0.00,0.45,0.45,0.45,0.45,1189,1232,1208,1228
11261,0,-0.03,0.03,0.02,-0.00,-0.00,0.00,0.45,0.00,0.00,0.00,-0.00,0.00,-0.00,0.45,0.45,0.45,0.45,1189,1232,1208,1228
11270,0,-0.03,0.03,0.02,-0.00,-0.00,0.00,0.45,0.00,0.00,0.00,-0.00,0.00,-0.00,0.45,0.45,0.45,0.45,1189,1232,1208,1228
11280,0,-0.03,0.03,0.03,-0.00,-0.00,0.00,0.45,0.00,0.00,0.00,-0.00,0.00,-0.00,0.45,0.45,0.45,0.45,1189,1232,1208,1228
11290,0,-0.03,0.03,0.03,-0.00,-0.00,0.00,0.45,0.00,0.00,0.00,-0.00,0.00,-0.00,0.45,0.45,0.45,0.45,1189,1232,1207,1229
11298,0,-0.04,0.03,0.03,-0.00,-0.00,0.00,0.45,0.00,0.00,0.00,-0.00,0.00,-0.00,0.45,0.45,0.45,0.45,1189,1232,1207,1229
11306,0,-0.04,0.03,0.03,-0.00,-0.00,0.00,0.45,0.00,0.00,0.00,-0.00,0.00,-0.00,0.45,0.45,0.45,0.45,1189,1232,1207,1229
11314,0,-0.04,0.03,0.03,-0.00,-0.00,0.00,0.45,0.00,0.00,0.00,-0.00,0.00,-0.00,0.45,0.45,0.45,0.45,1189,1232,1207,1229
11321,0,-0.03,0.03,0.03,-0.00,-0.00,0.00,0.45,0.00,0.00,0.00,-0.00,0.00,-0.00,0.45,0.45,0.45,0.45,1190,1232,1207,1229
11330,0,-0.03,0.03,0.03,-0.00,-0.00,0.00,0.45,0.00,0.00,0.00,-0.00,0.00,-0.00,0.45,0.45,0.45,0.45,1190,1231,1207,1230
11340,0,-0.03,0.03,0.03,-0.00,0.00,0.00,0.45,0.00,0.00,0.00,-0.00,0.00,-0.00,0.45,0.45,0.45,0.45,1190,1231,1206,1230
11348,0,-0.03,0.03,0.03,-0.00,0.00,0.00,0.45,0.00,0.00,0.00,-0.00,0.00,-0.00,0.45,0.45,0.45,0.45,1190,1231,1206,1230
11356,0,-0.03,0.03,0.03,-0.00,0.00,-0.00,0.45,0.00,0.00,0.00,-0.00,0.00,-0.00,0.45,0.45,0.45,0.45,1190,1231,1206,1230
11366,0,-0.03,0.03,0.03,0.00,0.00,-0.00,0.45,0.00,0.00,0.00,-0.00,-0.00,-0.00,0.45,0.45,0.45,0.45,1190,1231,1206,1230
11374,0,-0.03,0.03,0.03,0.00,0.00,-0.00,0.45,0.00,0.00,0.00,-0.00,-0.00,-0.00,0.45,0.45,0.45,0.45,1190,1231,1206,1231
11382,0,-0.03,0.03,0.03,0.00,0.00,-0.00,0.45,0.00,0.00,0.00,-0.00,-0.00,0.00,0.45,0.45,0.45,0.45,1190,1231,1206,1231
11396,0,-0.03,0.03,0.02,0.00,0.00,-0.00,0.45,0.00,0.00,0.00,-0.00,-0.00,0.00,0.45,0.45,0.45,0.45,1190,1231,1206,1231
11404,0,-0.02,0.03,0.02,0.00,0.00,-0.00,0.45,0.00,0.00,0.00,0.00,-0.00,0.00,0.45,0.45,0.45,0.45,1190,1231,1206,1231
11412,0,-0.02,0.02,0.02,0.00,0.00,-0.00,0.45,0.00,0.00,0.00,0.00,-0.00,0.00,0.45,0.45,0.45,0.45,1190,1231,1206,1231
11421,0,-0.02,0.02,0.02,0.00,0.00,-0.00,0.45,0.00,0.00,0.00,0.00,-0.00,0.00,0.45,0.45,0.45,0.45,1190,1230,1206,1231
11430,0,-0.02,0.02,0.02,0.00,0.00,-0.00,0.45,0.00,0.00,0.00,0.00,-0.00,0.00,0.45,0.45,0.45,0.45,1190,1230,1205,1231
11440,0,-0.01,0.02,0.02,0.00,0.00,-0.00,0.45,0.00,0.00,0.00,0.00,-0.00,0.00,0.45,0.45,0.45,0.45,1190,1230,1205,1232
11448,0,-0.01,0.02,0.02,0.00,0.00,-0.00,0.45,0.00,0.00,0.00,0.00,-0.00,0.00,0.45,0.45,0.45,0.45,1190,1230,1205,1232
11456,0,-0.00,0.02,0.02,0.00,0.00,-0.00,0.45,0.00,0.00,0.00,0.00,-0.00,0.00,0.45,0.45,0.45,0.45,1190,1230,1205,1232
11465,0,-0.00,0.02,0.01,0.00,0.00,-0.00,0.45,0.00,0.00,0.00,0.00,-0.00,0.00,0.45,0.45,0.45,0.45,1190,1230,1205,1232
11473,0,-0.00,0.02,0.01,0.00,0.00,-0.00,0.45,0.00,0.00,0.00,0.00,-0.00,0.00,0.45,0.45,0.45,0.45,1190,1230,1205,1232
11481,0,-0.00,0.02,0.01,0.00,0.00,-0.00,0.45,0.00,0.00,0.00,0.00,0.00,0.00,0.45,0.45,0.45,0.45,1190,1230,1205,1232
11491,0,-0.00,0.02,0.01,0.00,0.00,-0.00,0.45,0.00,0.00,0.00,0.00,-0.00,0.00,0.45,0.45,0.45,0.45,1190,1230,1205,1232
11499,0,0.00,0.02,0.00,0.00,0.00,-0.00,0.45,0.00,0.00,0.00,0.00,-0.00,0.00,0.45,0.45,0.45,0.45,1190,1230,1205,1232
11507,0,0.00,0.02,0.00,0.00,0.00,-0.00,0.45,0.00,0.00,0.00,0.00,-0.00,0.00,0.45,0.45,0.45,0.45,1190,1230,1205,1232
11517,0,0.00,0.02,0.00,0.00,0.00,-0.00,0.45,0.00,0.00,0.00,0.00,-0.00,0.00,0.45,0.45,0.45,0.45,1190,1230,1205,1232
11527,0,0.00,0.02,0.00,0.00,0.00,-0.00,0.45,0.00,0.00,0.00,0.00,-0.00,0.00,0.45,0.45,0.45,0.45,1190,1230,1206,1232
11540,0,0.00,0.02,0.00,0.00,0.00,-0.00,0.45,0.00,0.00,0.00,0.00,-0.00,0.00,0.45,0.45,0.45,0.45,1190,1230,1206,1232
11548,0,0.00,0.02,0.00,0.00,0.00,-0.00,0.45,0.00,0.00,0.00,0.00,-0.00,0.00,0.45,0.45,0.45,0.45,1190,1230,1205,1232
11556,0,0.00,0.02,0.00,0.00,0.00,-0.00,0.45,0.00,0.00,0.00,0.00,-0.00,0.00,0.45,0.45,0.45,0.45,1190,1230,1206,1231
11566,0,0.00,0.02,0.00,0.00,0.00,-0.00,0.45,0.00,0.00,0.00,0.00,-0.00,0.00,0.45,0.45,0.45,0.45,1190,1230,1206,1231
11573,0,0.00,0.02,0.00,0.00,0.00,-0.00,0.45,0.00,0.00,0.00,0.00,-0.00,0.00,0.45,0.45,0.45,0.45,1190,1231,1206,1231
11581,0,0.00,0.01,0.00,0.00,0.00,-0.00,0.45,0.00,0.00,0.00,-0.00,-0.00,0.00,0.45,0.45,0.45,0.45,1190,1231,1206,1231
11591,0,0.00,0.01,0.00,-0.00,0.00,-0.00,0.45,0.00,0.00,0.00,-0.00,-0.00,0.00,0.45,0.45,0.45,0.45,1190,1231,1206,1231
11599,0,0.00,0.01,0.00,-0.00,0.00,-0.00,0.45,0.00,0.00,0.00,-0.00,-0.00,0.00,0.45,0.45,0.45,0.45,1190,1231,1206,1231
11607,0,0.00,0.01,0.00,-0.00,0.00,-0.00,0.45,0.00,0.00,0.00,-0.00,-0.00,0.00,0.45,0.45,0.45,0.45,1190,1231,1206,1231
11617,0,0.00,0.01,0.01,-0.00,0.00,-0.00,0.45,0.00,0.00,0.00,-0.00,-0.00,0.00,0.45,0.45,0.45,0.45,1190,1231,1206,1231
11630,0,0.00,0.01,0.01,-0.00,0.00,0.00,0.45,0.00,0.00,0.00,-0.00,-0.00,0.00,0.45,0.45,0.45,0.45,1190,1231,1206,1231
11640,0,0.00,0.01,0.01,-0.00,0.00,0.00,0.45,0.00,0.00,0.00,-0.00,-0.00,-0.00,0.45,0.45,0.45,0.45,1190,1231,1206,1231
11648,0,0.00,0.00,0.01,-0.00,0.00,0.00,0.45,0.00,0.00,0.00,-0.00,-0.00,-0.00,0.45,0.45,0.45,0.45,1190,1231,1206,1230
11656,0,0.00,0.00,0.02,-0.00,0.00,0.00,0.45,0.00,0.00,0.00,-0.00,-0.00,-0.00,0.45,0.45,0.45,0.45,1190,1231,1206,1230
11664,0,0.00,0.00,0.02,-0.00,0.00,0.00,0.45,0.00,0.00,0.00,-0.00,-0.00,-0.00,0.45,0.45,0.45,0.45,1190,1231,1206,1230
11680,0,0.00,0.00,0.02,-0.00,0.00,0.00,0.45,0.00,0.00,0.00,-0.00,-0.00,0.00,0.45,0.45,0.45,0.45,1190,1231,1205,1230
11690,0,0.00,0.00,0.02,-0.00,0.00,-0.00,0.45,0.00,0.00,0.00,-0.00,-0.00,0.00,0.45,0.45,0.45,0.45,1190,1231,1205,1230
11698,0,0.00,0.00,0.02,-0.00,0.00,-0.00,0.45,0.00,0.00,0.00,-0.00,-0.00,0.00,0.45,0.45,0.45,0.45,1190,1231,1205,1230
11706,0,0.00,0.00,0.03,-0.00,-0.00,-0.00,0.45,0.00,0.00,0.00,-0.00,0.00,0.00,0.45,0.45,0.45,0.45,1190,1231,1205,1230
11715,0,0.00,0.01,0.03,-0.00,-0.00,-0.00,0.45,0.00,0.00,0.00,-0.00,0.00,0.00,0.45,0.45,0.45,0.45,1191,1231,1206,1230
11723,0,0.00,0.01,0.03,-0.00,-0.00,-0.00,0.45,0.00,0.00,0.00,-0.00,0.00,0.00,0.45,0.45,0.45,0.45,1191,1231,1206,1230
11732,0,0.01,0.01,0.03,-0.00,-0.00,-0.00,0.45,0.00,0.00,0.00,-0.00,0.00,0.00,0.45,0.45,0.45,0.45,1191,1230,1206,1230
11741,0,0.01,0.01,0.03,-0.00,-0.00,-0.00,0.45,0.00,0.00,0.00,-0.00,0.00,0.00,0.45,0.45,0.45,0.45,1191,1230,1206,1230
11749,0,0.01,0.02,0.03,-0.00,-0.00,-0.00,0.45,0.00,0.00,0.00,-0.00,0.00,0.00,0.45,0.45,0.45,0.45,1191,1230,1205,1230
11757,0,0.01,0.02,0.03,-0.00,-0.00,-0.00,0.45,0.00,0.00,0.00,-0.00,0.00,0.00,0.46,0.45,0.45,0.45,1191,1230,1205,1230
11767,0,0.02,0.02,0.03,-0.00,-0.00,-0.00,0.45,0.00,0.00,0.00,-0.00,0.00,0.00,0.46,0.45,0.45,0.45,1191,1230,1205,1230
11776,0,0.02,0.02,0.04,-0.00,-0.00,-0.00,0.45,0.00,0.00,0.00,-0.00,0.00,0.00,0.46,0.45,0.45,0.45,1191,1230,1205,1230
11784,0,0.02,0.02,0.04,-0.00,-0.00,-0.00,0.45,0.00,0.00,0.00,-0.00,0.00,0.00,0.45,0.45,0.45,0.45,1191,1230,1205,1230
11792,0,0.02,0.02,0.04,-0.00,-0.00,-0.00,0.45,0.00,0.00,0.00,-0.00,0.00,0.00,0.45,0.45,0.45,0.45,1191,1230,1205,1230
