t,is_crashed,roll,pitch,yaw,p,q,r,throttle,roll_cmd,pitch_cmd,yaw_cmd,roll_pid_out,pitch_pid_out,yaw_pid_out,motor_fl,motor_bl,motor_fr,motor_br,pwm_fl,pwm_bl,pwm_fr,pwm_br
6903,0,0.02,0.00,-0.00,0.00,-0.00,0.00,-1.00,-1.05,-1.05,0.00,0.11,-0.20,-0.00,0.00,0.00,0.00,0.00,0,0,0,0
6913,0,0.00,0.00,-0.00,0.00,0.00,0.00,0.00,0.00,0.00,0.00,0.00,-0.00,-0.00,0.00,0.00,0.00,0.00,819,819,819,819
6923,0,0.00,0.00,-0.00,0.00,0.00,0.00,0.00,0.00,0.00,0.00,-0.00,0.00,-0.00,0.00,0.00,0.00,0.00,819,819,819,819
6933,0,0.00,0.00,-0.00,0.00,0.00,0.00,0.00,0.00,0.00,0.00,-0.00,0.00,-0.00,0.00,0.00,0.00,0.00,819,819,819,819
6942,0,0.00,0.00,-0.00,0.00,0.00,0.00,0.00,0.00,0.00,0.00,-0.00,0.00,-0.00,0.00,0.00,0.00,0.00,819,819,819,819
6952,0,0.00,0.00,-0.00,0.00,-0.00,-0.00,0.00,0.00,0.00,0.00,-0.00,-0.00,-0.00,0.00,0.00,0.00,0.00,819,819,819,819
6962,0,0.00,0.00,-0.00,0.00,-0.00,-0.00,0.00,0.00,0.00,0.00,-0.00,-0.00,-0.00,0.00,0.00,0.00,0.00,819,819,819,819
6972,0,0.00,0.00,-0.00,0.00,-0.00,-0.00,0.00,0.00,0.00,0.00,-0.00,-0.00,-0.00,0.00,0.00,0.00,0.00,819,819,819,819
6981,0,0.00,0.00,-0.00,-0.00,0.00,0.00,0.00,0.00,0.00,0.00,0.00,0.00,-0.00,0.00,0.00,0.00,0.00,819,819,819,819
6989,0,0.00,0.00,-0.00,0.00,-0.00,0.00,0.00,0.00,0.00,0.00,-0.00,-0.00,-0.00,0.00,0.00,0.00,0.00,819,819,819,819
6999,0,0.00,0.00,-0.00,-0.00,-0.00,0.00,0.00,0.00,0.00,0.00,0.00,-0.00,-0.00,0.00,0.00,0.00,0.00,819,819,819,819
7007,0,0.00,0.00,-0.00,0.00,-0.00,-0.00,0.00,0.00,0.00,0.00,-0.00,-0.00,-0.00,0.00,0.00,0.00,0.00,819,819,819,819
7015,0,0.00,0.00,-0.00,0.00,-0.00,-0.00,0.00,0.00,0.00,0.00,-0.00,0.00,-0.00,0.00,0.00,0.00,0.00,819,819,819,819
7023,0,0.00,0.00,-0.00,0.00,0.00,0.00,0.00,0.00,0.00,0.00,-0.00,0.00,-0.00,0.00,0.00,0.00,0.00,819,819,819,819
7033,0,0.00,0.00,-0.00,0.00,0.00,0.00,0.00,0.00,0.00,0.00,-0.00,0.00,-0.00,0.00,0.00,0.00,0.00,819,819,819,819
7043,0,0.00,0.00,-0.00,-0.00,-0.00,0.00,0.00,0.00,0.00,0.00,0.00,0.00,-0.00,0.00,0.00,0.00,0.00,819,819,819,819
7052,0,0.00,0.00,-0.00,-0.00,-0.00,0.00,0.00,0.00,0.00,0.00,0.00,0.00,-0.00,0.00,0.00,0.00,0.00,819,819,819,819
7063,0,0.00,0.00,-0.00,0.00,-0.00,-0.00,0.00,0.00,0.00,0.00,-0.00,0.00,-0.00,0.00,0.00,0.00,0.00,819,819,819,819
7073,0,0.00,0.00,-0.00,0.00,-0.00,-0.00,0.00,0.00,0.00,0.00,-0.00,0.00,-0.00,0.00,0.00,0.00,0.00,819,819,819,819
7083,0,0.00,0.00,-0.00,0.00,0.00,0.00,0.00,0.00,0.00,0.00,-0.00,0.00,-0.00,0.00,0.00,0.00,0.00,819,819,819,819
7097,0,0.00,0.00,-0.00,0.00,-0.00,-0.00,0.00,0.00,0.00,0.00,-0.00,-0.00,-0.00,0.00,0.00,0.00,0.00,819,819,819,819
7106,0,0.00,0.00,-0.00,0.00,-0.00,0.00,0.00,0.00,0.00,0.00,-0.00,-0.00,-0.00,0.00,0.00,0.00,0.00,819,819,819,819
7114,0,0.00,0.00,-0.00,-0.00,-0.00,0.00,0.00,0.00,0.00,0.00,0.00,-0.00,-0.00,0.00,0.00,0.00,0.00,819,819,819,819
7123,0,0.00,0.00,-0.00,-0.00,-0.00,0.00,0.00,0.00,0.00,0.00,0.00,-0.00,-0.00,0.00,0.00,0.00,0.00,819,819,819,819
7133,0,0.00,0.00,-0.00,-0.00,-0.00,0.00,0.00,0.00,0.00,0.00,0.00,-0.00,-0.00,0.00,0.00,0.00,0.00,819,819,819,819
7143,0,0.00,0.00,-0.00,0.00,0.00,-0.00,0.00,0.00,0.00,0.00,-0.00,0.00,-0.00,0.00,0.00,0.00,0.00,819,819,819,819
7153,0,0.00,0.00,-0.00,-0.00,0.00,0.00,0.00,0.00,0.00,0.00,0.00,0.00,-0.00,0.00,0.00,0.00,0.00,819,819,819,819
7163,0,0.00,0.00,-0.00,0.00,0.00,0.00,0.00,0.00,0.00,0.00,-0.00,0.00,-0.00,0.00,0.00,0.00,0.00,819,819,819,819
7174,0,0.00,0.00,-0.00,0.00,0.00,-0.00,0.00,0.00,0.00,0.00,-0.00,0.00,-0.00,0.00,0.00,0.00,0.00,819,819,819,819
7183,0,0.00,0.00,-0.00,0.00,0.00,-0.00,0.00,0.00,0.00,0.00,-0.00,0.00,-0.00,0.00,0.00,0.00,0.00,819,819,819,819
7193,0,0.00,0.00,-0.00,0.00,-0.00,0.00,0.00,0.00,0.00,0.00,-0.00,0.00,-0.00,0.00,0.00,0.00,0.00,819,819,819,819
7202,0,0.00,0.00,-0.00,0.00,0.00,-0.00,0.00,0.00,0.00,0.00,-0.00,0.00,-0.00,0.00,0.00,0.00,0.00,819,819,819,819
7212,0,0.00,0.00,-0.00,0.00,0.00,0.00,0.00,0.00,0.00,0.00,-0.00,0.00,-0.00,0.00,0.00,0.00,0.00,819,819,819,819
7222,0,0.00,0.00,-0.00,-0.00,0.00,0.00,0.00,0.00,0.00,0.00,0.00,0.00,-0.00,0.00,0.00,0.00,0.00,819,819,819,819
7232,0,0.00,0.00,-0.00,0.00,-0.00,0.00,0.00,0.00,0.00,0.00,-0.00,-0.00,-0.00,0.00,0.00,0.00,0.00,819,819,819,819
7240,0,0.00,0.00,-0.00,-0.00,0.00,-0.00,0.00,0.00,0.00,0.00,0.00,0.00,-0.00,0.00,0.00,0.00,0.00,819,819,819,819
7248,0,0.00,0.00,-0.00,0.00,0.00,0.00,0.00,0.00,0.00,0.00,-0.00,0.00,-0.00,0.00,0.00,0.00,0.00,819,819,819,819
7256,0,0.00,0.00,-0.00,0.00,-0.00,0.00,0.00,0.00,0.00,0.00,-0.00,0.00,-0.00,0.00,0.00,0.00,0.00,819,819,819,819
7264,0,0.00,0.00,-0.00,-0.00,0.00,-0.00,0.00,0.00,0.00,0.00,0.00,0.00,-0.00,0.00,0.00,0.00,0.00,819,819,819,819
7273,0,0.00,0.00,-0.00,-0.00,0.00,-0.00,0.00,0.00,0.00,0.00,0.00,0.00,-0.00,0.00,0.00,0.00,0.00,819,819,819,819
7283,0,0.00,0.00,-0.00,0.00,-0.00,-0.00,0.00,0.00,0.00,0.00,-0.00,0.00,-0.00,0.00,0.00,0.00,0.00,819,819,819,819
7292,0,0.00,0.00,-0.00,0.00,0.00,0.00,0.00,0.00,0.00,0.00,-0.00,0.00,-0.00,0.00,0.00,0.00,0.00,819,819,819,819
7302,0,0.00,0.00,-0.00,0.00,-0.00,0.00,0.00,0.00,0.00,0.00,-0.00,-0.00,-0.00,0.00,0.00,0.00,0.00,819,819,819,819
7311,0,0.00,0.00,-0.00,-0.00,0.00,-0.00,0.00,0.00,0.00,0.00,0.00,0.00,-0.00,0.00,0.00,0.00,0.00,819,819,819,819
7321,0,0.00,0.00,-0.00,-0.00,-0.00,-0.00,0.00,0.00,0.00,0.00,0.00,-0.00,-0.00,0.00,0.00,0.00,0.00,819,819,819,819
7331,0,0.00,0.00,-0.00,-0.00,-0.00,0.00,0.00,0.00,0.00,0.00,0.00,-0.00,-0.00,0.00,0.00,0.00,0.00,819,819,819,819
7339,0,0.00,0.00,-0.00,0.00,-0.00,-0.00,0.00,0.00,0.00,0.00,-0.00,-0.00,-0.00,0.00,0.00,0.00,0.00,819,819,819,819
7347,0,0.00,0.00,-0.00,-0.00,-0.00,0.00,0.00,0.00,0.00,0.00,0.00,-0.00,-0.00,0.00,0.00,0.00,0.00,819,819,819,819
7355,0,0.00,0.00,-0.00,-0.00,-0.00,0.00,0.00,0.00,0.00,0.00,0.00,-0.00,-0.00,0.00,0.00,0.00,0.00,819,819,819,819
7364,0,0.00,0.00,-0.00,-0.00,0.00,0.00,0.00,0.00,0.00,0.00,0.00,0.00,-0.00,0.00,0.00,0.00,0.00,819,819,819,819
7373,0,0.00,0.00,-0.00,-0.00,0.00,0.00,0.00,0.00,0.00,0.00,0.00,0.00,-0.00,0.00,0.00,0.00,0.00,819,819,819,819
7385,0,0.00,0.00,-0.00,0.00,-0.00,0.00,0.00,0.00,0.00,0.00,-0.00,-0.00,-0.00,0.00,0.00,0.00,0.00,819,819,819,819
7395,0,0.00,0.00,-0.00,0.00,0.00,-0.00,0.00,0.00,0.00,0.00,-0.00,0.00,-0.00,0.00,0.00,0.00,0.00,819,819,819,819
7404,0,0.00,0.00,-0.00,0.00,0.00,0.00,0.00,0.00,0.00,0.00,-0.00,0.00,-0.00,0.00,0.00,0.00,0.00,819,819,819,819
7413,0,0.00,0.00,-0.00,0.00,0.00,0.00,0.00,0.00,0.00,0.00,-0.00,0.00,-0.00,0.00,0.00,0.00,0.00,819,819,819,819
7423,0,0.00,0.00,-0.00,0.00,0.00,-0.00,0.00,0.00,0.00,0.00,-0.00,0.00,-0.00,0.00,0.00,0.00,0.00,819,819,819,819
7433,0,0.00,0.00,-0.00,0.00,0.00,-0.00,0.00,0.00,0.00,0.00,-0.00,0.00,-0.00,0.00,0.00,0.00,0.00,819,819,819,819
7442,0,0.00,0.00,-0.00,0.00,-0.00,0.00,0.00,0.00,0.00,0.00,-0.00,-0.00,-0.00,0.00,0.00,0.00,0.00,819,819,819,819
7452,0,0.00,0.00,-0.00,0.00,-0.00,0.00,0.00,0.00,0.00,0.00,-0.00,-0.00,-0.00,0.00,0.00,0.00,0.00,819,819,819,819
7462,0,0.00,0.00,-0.00,0.00,-0.00,0.00,0.00,0.00,0.00,0.00,-0.00,0.00,-0.00,0.00,0.00,0.00,0.00,819,819,819,819
7472,0,0.00,0.00,-0.00,-0.00,-0.00,0.00,0.00,0.00,0.00,0.00,0.00,-0.00,-0.00,0.00,0.00,0.00,0.00,819,819,819,819
7482,0,0.00,0.00,-0.00,0.00,-0.00,0.00,0.00,0.00,0.00,0.00,-0.00,-0.00,-0.00,0.00,0.00,0.00,0.00,819,819,819,819
7494,0,0.00,0.00,-0.00,0.00,0.00,0.00,0.00,0.00,0.00,0.00,-0.00,0.00,-0.00,0.00,0.00,0.00,0.00,819,819,819,819
7503,0,0.00,0.00,-0.00,0.00,-0.00,-0.00,0.00,0.00,0.00,0.00,-0.00,-0.00,-0.00,0.00,0.00,0.00,0.00,819,819,819,819
7513,0,0.00,0.00,-0.00,0.00,-0.00,0.00,0.00,0.00,0.00,0.00,-0.00,-0.00,-0.00,0.00,0.00,0.00,0.00,819,819,819,819
7523,0,0.00,0.00,-0.00,-0.00,-0.00,0.00,0.00,0.00,0.00,0.00,0.00,-0.00,-0.00,0.00,0.00,0.00,0.00,819,819,819,819
7534,0,0.00,0.00,-0.00,0.00,-0.00,-0.00,0.00,0.00,0.00,0.00,-0.00,-0.00,-0.00,0.00,0.00,0.00,0.00,819,819,819,819
7543,0,0.00,0.00,-0.00,-0.00,-0.00,0.00,0.00,0.00,0.00,0.00,0.00,-0.00,-0.00,0.00,0.00,0.00,0.00,819,819,819,819
7553,0,0.00,0.00,-0.00,-0.00,-0.00,0.00,0.00,0.00,0.00,0.00,0.00,-0.00,-0.00,0.00,0.00,0.00,0.00,819,819,819,819
7563,0,0.00,0.00,-0.00,0.00,0.00,-0.00,0.00,0.00,0.00,0.00,-0.00,0.00,-0.00,0.00,0.00,0.00,0.00,819,819,819,819
7573,0,0.00,0.00,-0.00,0.00,0.00,0.00,0.00,0.00,0.00,0.00,-0.00,0.00,-0.00,0.00,0.00,0.00,0.00,819,819,819,819
7582,0,0.00,0.00,-0.00,0.00,-0.00,0.00,0.00,0.00,0.00,0.00,-0.00,-0.00,-0.00,0.00,0.00,0.00,0.00,819,819,819,819
7590,0,0.00,0.00,-0.00,-0.00,-0.00,-0.00,0.00,0.00,0.00,0.00,0.00,0.00,-0.00,0.00,0.00,0.00,0.00,819,819,819,819
7598,0,0.00,0.00,-0.00,0.00,-0.00,-0.00,0.00,0.00,0.00,0.00,-0.00,-0.00,-0.00,0.00,0.00,0.00,0.00,819,819,819,819
7605,0,0.00,0.00,-0.00,0.00,-0.00,0.00,0.00,0.00,0.00,0.00,-0.00,0.00,-0.00,0.00,0.00,0.00,0.00,819,819,819,819
7614,0,0.00,0.00,-0.00,0.00,-0.00,0.00,0.00,0.00,0.00,0.00,-0.00,0.00,-0.00,0.00,0.00,0.00,0.00,819,819,819,819
7624,0,0.00,0.00,-0.00,0.00,0.00,0.00,0.00,0.00,0.00,0.00,-0.00,0.00,-0.00,0.00,0.00,0.00,0.00,819,819,819,819
7634,0,0.00,0.00,-0.00,-0.00,-0.00,-0.00,0.00,0.00,0.00,0.00,0.00,-0.00,-0.00,0.00,0.00,0.00,0.00,819,819,819,819
7644,0,0.00,0.00,-0.00,0.00,-0.00,0.00,0.00,0.00,0.00,0.00,-0.00,-0.00,-0.00,0.00,0.00,0.00,0.00,819,819,819,819
7654,0,0.00,0.00,-0.00,-0.00,-0.00,0.00,0.00,0.00,0.00,0.00,0.00,-0.00,-0.00,0.00,0.00,0.00,0.00,819,819,819,819
7664,0,0.00,0.00,-0.00,-0.00,-0.00,-0.00,0.00,0.00,0.00,0.00,0.00,-0.00,-0.00,0.00,0.00,0.00,0.00,819,819,819,819
7674,0,0.00,0.00,-0.00,0.00,-0.00,0.00,0.00,0.00,0.00,0.00,-0.00,-0.00,-0.00,0.00,0.00,0.00,0.00,819,819,819,819
7686,0,0.00,0.00,-0.00,-0.00,-0.00,0.00,0.00,0.00,0.00,0.00,0.00,-0.00,-0.00,0.00,0.00,0.00,0.00,819,819,819,819
7695,0,0.00,0.00,-0.00,0.00,-0.00,0.00,0.00,0.00,0.00,0.00,-0.00,-0.00,-0.00,0.00,0.00,0.00,0.00,819,819,819,819
7705,0,0.00,0.00,-0.00,-0.00,-0.00,0.00,0.00,0.00,0.00,0.00,0.00,-0.00,-0.00,0.00,0.00,0.00,0.00,819,819,819,819
7714,0,0.00,0.00,-0.00,-0.00,-0.00,0.00,0.00,0.00,0.00,0.00,0.00,-0.00,-0.00,0.00,0.00,0.00,0.00,819,819,819,819
7724,0,0.00,0.00,-0.00,0.00,-0.00,-0.00,0.00,0.00,0.00,0.00,-0.00,0.00,-0.00,0.00,0.00,0.00,0.00,819,819,819,819
7734,0,0.00,0.00,-0.00,-0.00,-0.00,0.00,0.00,0.00,0.00,0.00,0.00,-0.00,-0.00,0.00,0.00,0.00,0.00,819,819,819,819
7744,0,0.00,0.00,-0.00,0.00,-0.00,0.00,0.00,0.00,0.00,0.00,-0.00,0.00,-0.00,0.00,0.00,0.00,0.00,819,819,819,819
7754,0,0.00,0.00,-0.00,0.00,-0.00,0.00,0.00,0.00,0.00,0.00,-0.00,-0.00,-0.00,0.00,0.00,0.00,0.00,819,819,819,819
7764,0,0.00,0.00,-0.00,0.00,-0.00,-0.00,0.00,0.00,0.00,0.00,-0.00,-0.00,-0.00,0.00,0.00,0.00,0.00,819,819,819,819
7773,0,0.00,0.00,-0.00,-0.00,-0.00,-0.00,0.00,0.00,0.00,0.00,0.00,-0.00,-0.00,0.00,0.00,0.00,0.00,819,819,819,819
7783,0,0.00,0.00,-0.00,0.00,-0.00,0.00,0.00,0.00,0.00,0.00,-0.00,0.00,-0.00,0.00,0.00,0.00,0.00,819,819,819,819
7791,0,0.00,0.00,-0.00,0.00,-0.00,0.00,0.00,0.00,0.00,0.00,-0.00,-0.00,-0.00,0.00,0.00,0.00,0.00,819,819,819,819
7800,0,0.00,0.00,-0.00,0.00,-0.00,0.00,0.00,0.00,0.00,0.00,-0.00,0.00,-0.00,0.00,0.00,0.00,0.00,819,819,819,819
7808,0,0.00,0.00,-0.00,0.00,-0.00,-0.00,0.00,0.00,0.00,0.00,-0.00,-0.00,-0.00,0.00,0.00,0.00,0.00,819,819,819,819
7816,0,0.00,0.00,-0.00,-0.00,-0.00,0.00,0.00,0.00,0.00,0.00,0.00,-0.00,-0.00,0.00,0.00,0.00,0.00,819,819,819,819
7825,0,0.00,0.00,-0.00,0.00,-0.00,-0.00,0.00,0.00,0.00,0.00,-0.00,-0.00,-0.00,0.00,0.00,0.00,0.00,819,819,819,819
7835,0,0.00,0.00,-0.00,0.00,-0.00,-0.00,0.00,0.00,0.00,0.00,-0.00,-0.00,-0.00,0.00,0.00,0.00,0.00,819,819,819,819
7844,0,0.00,0.00,-0.00,0.00,0.00,0.00,0.00,0.00,0.00,0.00,-0.00,0.00,-0.00,0.00,0.00,0.00,0.00,819,819,819,819
7854,0,0.00,0.00,-0.00,-0.00,-0.00,0.00,0.00,0.00,0.00,0.00,0.00,-0.00,-0.00,0.00,0.00,0.00,0.00,819,819,819,819
7864,0,0.00,0.00,-0.00,0.00,-0.00,-0.00,0.00,0.00,0.00,0.00,-0.00,-0.00,-0.00,0.00,0.00,0.00,0.00,819,819,819,819
7874,0,0.00,0.00,-0.00,0.00,0.00,0.00,0.00,0.00,0.00,0.00,-0.00,0.00,-0.00,0.00,0.00,0.00,0.00,819,819,819,819
7884,0,0.00,0.00,-0.00,0.00,0.00,-0.00,0.00,0.00,0.00,0.00,-0.00,0.00,-0.00,0.00,0.00,0.00,0.00,819,819,819,819
7891,0,0.00,0.00,-0.00,-0.00,0.00,0.00,0.00,0.00,0.00,0.00,0.00,0.00,-0.00,0.00,0.00,0.00,0.00,819,819,819,819
7901,0,0.00,0.00,-0.00,0.00,0.00,0.00,0.00,0.00,0.00,0.00,-0.00,0.00,-0.00,0.00,0.00,0.00,0.00,819,819,819,819
7908,0,0.00,0.00,-0.00,0.00,-0.00,0.00,0.00,0.00,0.00,0.00,-0.00,-0.00,-0.00,0.00,0.00,0.00,0.00,819,819,819,819
7916,0,0.00,0.00,-0.00,-0.00,-0.00,-0.00,0.00,0.00,0.00,0.00,0.00,0.00,-0.00,0.00,0.00,0.00,0.00,819,819,819,819
7925,0,0.00,0.00,-0.00,-0.00,0.00,-0.00,0.00,0.00,0.00,0.00,0.00,0.00,-0.00,0.00,0.00,0.00,0.00,819,819,819,819
7935,0,0.00,0.00,-0.00,-0.00,0.00,-0.00,0.00,0.00,0.00,0.00,0.00,0.00,-0.00,0.00,0.00,0.00,0.00,819,819,819,819
7944,0,0.00,0.00,-0.00,-0.00,-0.00,0.00,0.00,0.00,0.00,0.00,0.00,-0.00,-0.00,0.00,0.00,0.00,0.00,819,819,819,819
7954,0,0.00,0.00,-0.00,0.00,-0.00,0.00,0.00,0.00,0.00,0.00,-0.00,-0.00,-0.00,0.00,0.00,0.00,0.00,819,819,819,819
7963,0,0.00,0.00,-0.00,-0.00,-0.00,0.00,0.00,0.00,0.00,0.00,0.00,-0.00,-0.00,0.00,0.00,0.00,0.00,819,819,819,819
7976,0,0.00,0.00,-0.00,0.00,-0.00,0.00,0.00,0.00,0.00,0.00,-0.00,-0.00,-0.00,0.00,0.00,0.00,0.00,819,819,819,819
7986,0,0.00,0.00,-0.00,0.00,-0.00,-0.00,0.00,0.00,0.00,0.00,-0.00,-0.00,-0.00,0.00,0.00,0.00,0.00,819,819,819,819
7995,0,0.00,0.00,-0.00,-0.00,0.00,0.00,0.00,0.00,0.00,0.00,0.00,0.00,-0.00,0.00,0.00,0.00,0.00,819,819,819,819
8005,0,0.00,0.00,-0.00,-0.00,0.00,0.00,0.00,0.00,0.00,0.00,0.00,0.00,-0.00,0.00,0.00,0.00,0.00,819,819,819,819
8015,0,0.00,0.00,-0.00,-0.00,0.00,0.00,0.00,0.00,0.00,0.00,0.00,0.00,-0.00,0.00,0.00,0.00,0.00,819,819,819,819
8025,0,0.00,0.00,-0.00,0.00,0.00,-0.00,0.00,0.00,0.00,0.00,-0.00,0.00,-0.00,0.00,0.00,0.00,0.00,819,819,819,819
8035,0,0.00,0.00,-0.00,-0.00,-0.00,0.00,0.00,0.00,0.00,0.00,0.00,-0.00,-0.00,0.00,0.00,0.00,0.00,819,819,819,819
8044,0,0.00,0.00,-0.00,-0.00,-0.00,0.00,0.00,0.00,0.00,0.00,0.00,-0.00,-0.00,0.00,0.00,0.00,0.00,819,819,819,819
8054,0,0.00,0.00,-0.00,0.00,0.00,-0.00,0.00,0.00,0.00,0.00,-0.00,0.00,-0.00,0.00,0.00,0.00,0.00,819,819,819,819
8064,0,0.00,0.00,-0.00,-0.00,-0.00,-0.00,0.00,0.00,0.00,0.00,0.00,-0.00,-0.00,0.00,0.00,0.00,0.00,819,819,819,819
8074,0,0.00,0.00,-0.00,0.00,-0.00,-0.00,0.00,0.00,0.00,0.00,-0.00,0.00,-0.00,0.00,0.00,0.00,0.00,819,819,819,819
8084,0,0.00,0.00,-0.00,-0.00,-0.00,0.00,0.00,0.00,0.00,0.00,0.00,-0.00,-0.00,0.00,0.00,0.00,0.00,819,819,819,819
8091,0,0.00,0.00,-0.00,-0.00,0.00,0.00,0.00,0.00,0.00,0.00,0.00,0.00,-0.00,0.00,0.00,0.00,0.00,819,819,819,819
8100,0,0.00,0.00,-0.00,0.00,-0.00,-0.00,0.00,0.00,0.00,0.00,-0.00,-0.00,-0.00,0.00,0.00,0.00,0.00,819,819,819,819
8108,0,0.00,0.00,-0.00,-0.00,-0.00,0.00,0.00,0.00,0.00,0.00,0.00,-0.00,-0.00,0.00,0.00,0.00,0.00,819,819,819,819
8116,0,0.00,0.00,-0.00,-0.00,-0.00,0.00,0.00,0.00,0.00,0.00,0.00,-0.00,-0.00,0.00,0.00,0.00,0.00,819,819,819,819
8126,0,0.00,0.00,-0.00,-0.00,-0.00,0.00,0.00,0.00,0.00,0.00,0.00,-0.00,-0.00,0.00,0.00,0.00,0.00,819,819,819,819
8135,0,0.00,0.00,-0.00,-0.00,-0.00,0.00,0.00,0.00,0.00,0.00,0.00,-0.00,-0.00,0.00,0.00,0.00,0.00,819,819,819,819
8145,0,0.00,0.00,-0.00,-0.00,-0.00,-0.00,0.00,0.00,0.00,0.00,0.00,-0.00,-0.00,0.00,0.00,0.00,0.00,819,819,819,819
8155,0,0.00,0.00,-0.00,0.00,-0.00,-0.00,0.00,0.00,0.00,0.00,-0.00,-0.00,-0.00,0.00,0.00,0.00,0.00,819,819,819,819
8165,0,0.00,0.00,-0.00,0.00,-0.00,0.00,0.00,0.00,0.00,0.00,-0.00,0.00,-0.00,0.00,0.00,0.00,0.00,819,819,819,819
8175,0,0.00,0.00,-0.00,-0.00,-0.00,0.00,0.00,0.00,0.00,0.00,0.00,0.00,-0.00,0.00,0.00,0.00,0.00,819,819,819,819
8185,0,0.00,0.00,-0.00,0.00,0.00,0.00,0.00,0.00,0.00,0.00,-0.00,0.00,-0.00,0.00,0.00,0.00,0.00,819,819,819,819
8193,0,0.00,0.00,-0.00,-0.00,-0.00,0.00,0.00,0.00,0.00,0.00,0.00,-0.00,-0.00,0.00,0.00,0.00,0.00,819,819,819,819
8203,0,0.00,0.00,-0.00,0.00,-0.00,0.00,0.00,0.00,0.00,0.00,-0.00,-0.00,-0.00,0.00,0.00,0.00,0.00,819,819,819,819
8213,0,0.00,0.00,-0.00,-0.00,0.00,0.00,0.00,0.00,0.00,0.00,0.00,0.00,-0.00,0.00,0.00,0.00,0.00,819,819,819,819
8223,0,0.00,0.00,-0.00,-0.00,-0.00,-0.00,0.00,0.00,0.00,0.00,0.00,0.00,-0.00,0.00,0.00,0.00,0.00,819,819,819,819
8233,0,0.00,0.00,-0.00,0.00,0.00,0.00,0.00,0.00,0.00,0.00,-0.00,0.00,-0.00,0.00,0.00,0.00,0.00,819,819,819,819
8240,0,0.00,0.00,-0.00,0.00,0.00,0.00,0.00,0.00,0.00,0.00,-0.00,0.00,-0.00,0.00,0.00,0.00,0.00,819,819,819,819
8248,0,0.00,0.00,-0.00,0.00,0.00,-0.00,0.00,0.00,0.00,0.00,-0.00,0.00,-0.00,0.00,0.00,0.00,0.00,819,819,819,819
8265,0,0.00,0.00,-0.00,0.00,-0.00,0.00,0.00,0.00,0.00,0.00,-0.00,-0.00,-0.00,0.00,0.00,0.00,0.00,819,819,819,819
8276,0,0.00,0.00,-0.00,-0.00,-0.00,0.00,0.00,0.00,0.00,0.00,0.00,-0.00,-0.00,0.00,0.00,0.00,0.00,819,819,819,819
8286,0,0.00,0.00,-0.00,-0.00,-0.00,0.00,0.00,0.00,0.00,0.00,0.00,-0.00,-0.00,0.00,0.00,0.00,0.00,819,819,819,819
8293,0,0.00,0.00,-0.00,0.00,-0.00,0.00,0.00,0.00,0.00,0.00,-0.00,-0.00,-0.00,0.00,0.00,0.00,0.00,819,819,819,819
8303,0,0.00,0.00,-0.00,0.00,-0.00,0.00,0.00,0.00,0.00,0.00,-0.00,-0.00,-0.00,0.00,0.00,0.00,0.00,819,819,819,819
8313,0,0.00,0.00,-0.00,-0.00,-0.00,-0.00,0.00,0.00,0.00,0.00,0.00,0.00,-0.00,0.00,0.00,0.00,0.00,819,819,819,819
8322,0,0.00,0.00,-0.00,0.00,-0.00,-0.00,0.00,0.00,0.00,0.00,-0.00,-0.00,-0.00,0.00,0.00,0.00,0.00,819,819,819,819
8332,0,0.00,0.00,-0.00,0.00,-0.00,-0.00,0.00,0.00,0.00,0.00,-0.00,0.00,-0.00,0.00,0.00,0.00,0.00,819,819,819,819
8340,0,0.00,0.00,-0.00,0.00,0.00,0.00,0.00,0.00,0.00,0.00,-0.00,0.00,-0.00,0.00,0.00,0.00,0.00,819,819,819,819
8348,0,0.00,0.00,-0.00,0.00,-0.00,-0.00,0.00,0.00,0.00,0.00,-0.00,-0.00,-0.00,0.00,0.00,0.00,0.00,819,819,819,819
8356,0,0.00,0.00,-0.00,0.00,0.00,0.00,0.00,0.00,0.00,0.00,-0.00,0.00,-0.00,0.00,0.00,0.00,0.00,819,819,819,819
8366,0,0.00,0.00,-0.00,0.00,0.00,0.00,0.00,0.00,0.00,0.00,-0.00,0.00,-0.00,0.00,0.00,0.00,0.00,819,819,819,819
8376,0,0.00,0.00,-0.00,-0.00,0.00,-0.00,0.00,0.00,0.00,0.00,0.00,0.00,-0.00,0.00,0.00,0.00,0.00,819,819,819,819
8386,0,0.00,0.00,-0.00,0.00,0.00,0.00,0.00,0.00,0.00,0.00,-0.00,0.00,-0.00,0.00,0.00,0.00,0.00,819,819,819,819
8395,0,0.00,0.00,-0.00,-0.00,-0.00,0.00,0.00,0.00,0.00,0.00,0.00,-0.00,-0.00,0.00,0.00,0.00,0.00,819,819,819,819
8404,0,0.00,0.00,-0.00,0.00,-0.00,-0.00,0.00,0.00,0.00,0.00,-0.00,0.00,-0.00,0.00,0.00,0.00,0.00,819,819,819,819
8414,0,0.00,0.00,-0.00,-0.00,-0.00,-0.00,0.00,0.00,0.00,0.00,0.00,0.00,-0.00,0.00,0.00,0.00,0.00,819,819,819,819
8424,0,0.00,0.00,-0.00,-0.00,-0.00,-0.00,0.00,0.00,0.00,0.00,0.00,-0.00,-0.00,0.00,0.00,0.00,0.00,819,819,819,819
8434,0,0.00,0.00,-0.00,-0.00,0.00,0.00,0.00,0.00,0.00,0.00,0.00,0.00,-0.00,0.00,0.00,0.00,0.00,819,819,819,819
8442,0,0.00,0.00,-0.00,0.00,0.00,0.00,0.00,0.00,0.00,0.00,-0.00,0.00,-0.00,0.00,0.00,0.00,0.00,819,819,819,819
8450,0,0.00,0.00,-0.00,0.00,-0.00,0.00,0.00,0.00,0.00,0.00,-0.00,-0.00,-0.00,0.00,0.00,0.00,0.00,819,819,819,819
8458,0,0.00,0.00,-0.00,0.00,0.00,0.00,0.00,0.00,0.00,0.00,-0.00,0.00,-0.00,0.00,0.00,0.00,0.00,819,819,819,819
8467,0,0.00,0.00,-0.00,0.00,0.00,-0.00,0.00,0.00,0.00,0.00,-0.00,0.00,-0.00,0.00,0.00,0.00,0.00,819,819,819,819
8476,0,0.00,0.00,-0.00,0.00,0.00,-0.00,0.00,0.00,0.00,0.00,-0.00,0.00,-0.00,0.00,0.00,0.00,0.00,819,819,819,819
8486,0,0.00,0.00,-0.00,0.00,0.00,-0.00,0.00,0.00,0.00,0.00,-0.00,0.00,-0.00,0.00,0.00,0.00,0.00,819,819,819,819
8495,0,0.00,0.00,-0.00,-0.00,-0.00,0.00,0.00,0.00,0.00,0.00,0.00,0.00,-0.00,0.00,0.00,0.00,0.00,819,819,819,819
8505,0,0.00,0.00,-0.00,0.00,0.00,-0.00,0.00,0.00,0.00,0.00,-0.00,0.00,-0.00,0.00,0.00,0.00,0.00,819,819,819,819
8515,0,0.00,0.00,-0.00,0.00,-0.00,-0.00,0.00,0.00,0.00,0.00,-0.00,0.00,-0.00,0.00,0.00,0.00,0.00,819,819,819,819
8525,0,0.00,0.00,-0.00,0.00,0.00,-0.00,0.00,0.00,0.00,0.00,-0.00,0.00,-0.00,0.00,0.00,0.00,0.00,819,819,819,819
8535,0,0.00,0.00,-0.00,0.00,-0.00,0.00,0.00,0.00,0.00,0.00,-0.00,0.00,-0.00,0.00,0.00,0.00,0.00,819,819,819,819
8542,0,0.00,0.00,-0.00,0.00,-0.00,-0.00,0.01,0.00,0.00,0.00,-0.00,0.00,-0.00,0.00,0.00,0.00,0.00,819,819,819,819
8556,0,0.00,0.00,-0.00,0.00,0.00,0.00,0.01,0.00,0.00,0.00,-0.00,0.00,-0.00,0.00,0.00,0.00,0.00,819,819,819,819
8567,0,0.00,0.00,-0.00,0.00,0.00,-0.00,0.01,0.00,0.00,0.00,-0.00,0.00,-0.00,0.00,0.00,0.00,0.00,819,819,819,819
8576,0,0.00,0.00,-0.00,0.00,0.00,-0.00,0.05,0.00,0.00,0.00,-0.00,0.00,-0.00,0.05,0.05,0.05,0.05,860,860,876,860
8586,0,0.00,0.00,-0.00,-0.00,0.00,-0.00,0.07,0.00,0.00,0.00,0.00,0.00,-0.00,0.07,0.07,0.07,0.07,873,873,889,873
8594,0,0.00,0.00,-0.00,-0.00,-0.00,-0.00,0.07,0.00,0.00,0.00,0.00,-0.00,-0.00,0.07,0.07,0.07,0.07,873,873,889,873
8604,0,0.00,0.00,-0.00,0.00,-0.00,0.00,0.07,0.00,0.00,0.00,-0.00,-0.00,-0.00,0.07,0.07,0.07,0.07,877,877,893,877
8614,0,0.00,0.00,-0.00,-0.00,0.00,0.00,0.08,0.00,0.00,0.00,0.00,0.00,-0.00,0.08,0.08,0.08,0.08,885,885,901,885
8624,0,0.00,0.00,-0.00,0.00,0.00,0.00,0.08,0.00,0.00,0.00,-0.00,0.00,-0.00,0.08,0.08,0.08,0.08,885,885,901,885
8634,0,0.00,0.00,-0.00,-0.00,-0.00,-0.00,0.08,0.00,0.00,0.00,0.00,-0.00,-0.00,0.08,0.08,0.08,0.08,885,885,901,885
8642,0,0.00,0.00,-0.00,0.00,-0.00,-0.00,0.08,0.00,0.00,0.00,-0.00,-0.00,-0.00,0.08,0.08,0.08,0.08,885,885,901,885
8649,0,0.00,0.00,-0.00,0.00,0.00,0.00,0.09,0.00,0.00,0.00,-0.00,0.00,-0.00,0.09,0.09,0.09,0.09,891,892,908,891
8657,0,0.00,0.00,-0.00,0.00,0.00,-0.00,0.09,0.00,0.00,0.00,-0.00,0.00,-0.00,0.09,0.09,0.09,0.09,891,892,908,891
8667,0,0.00,0.00,-0.00,0.00,0.00,-0.00,0.09,0.00,0.00,0.00,-0.00,0.00,-0.00,0.09,0.09,0.09,0.09,891,892,908,891
8676,0,0.00,0.00,-0.00,0.00,0.00,-0.00,0.09,0.00,0.00,0.00,-0.00,0.00,-0.00,0.09,0.09,0.09,0.09,891,892,908,891
8687,0,0.00,0.00,-0.00,-0.00,0.00,0.00,0.09,0.00,0.00,0.00,0.00,0.00,-0.00,0.09,0.09,0.09,0.09,891,892,908,891
8696,0,0.00,0.00,-0.00,0.00,0.00,0.00,0.09,0.00,0.00,0.00,-0.00,0.00,-0.00,0.09,0.09,0.09,0.09,891,892,908,891
8706,0,0.00,0.00,-0.00,0.00,0.00,-0.00,0.09,0.00,0.00,0.00,-0.00,0.00,-0.00,0.09,0.09,0.09,0.09,893,893,910,893
8716,0,0.00,0.00,-0.00,-0.00,0.00,0.00,0.09,0.00,0.00,0.00,0.00,0.00,-0.00,0.09,0.09,0.09,0.09,894,894,910,894
8726,0,0.00,0.00,-0.00,0.00,0.00,0.00,0.09,0.00,0.00,0.00,-0.00,0.00,-0.00,0.09,0.09,0.09,0.09,894,894,910,894
8736,0,0.00,0.00,-0.00,0.00,-0.00,0.00,0.09,0.00,0.00,0.00,-0.00,-0.00,-0.00,0.09,0.09,0.09,0.09,894,894,910,894
8745,0,0.00,0.00,-0.00,0.00,-0.00,0.00,0.10,0.00,0.00,0.00,-0.00,-0.00,-0.00,0.09,0.10,0.10,0.09,896,897,913,896
8755,0,0.00,0.00,-0.00,0.00,0.00,0.00,0.10,0.00,0.00,0.00,-0.00,0.00,-0.00,0.10,0.10,0.10,0.10,897,897,914,897
8765,0,0.00,0.00,-0.00,0.00,0.00,-0.00,0.10,0.00,0.00,0.00,-0.00,0.00,-0.00,0.10,0.10,0.10,0.10,897,897,914,897
8775,0,0.00,0.00,-0.00,-0.00,0.00,-0.00,0.10,0.00,0.00,0.00,0.00,0.00,-0.00,0.10,0.10,0.10,0.10,897,897,914,897
8785,0,0.00,0.00,-0.00,0.00,0.00,-0.00,0.10,0.00,0.00,0.00,0.00,0.00,-0.00,0.10,0.10,0.10,0.10,900,901,917,901
8793,0,0.00,0.00,-0.00,-0.00,-0.00,-0.00,0.10,0.00,0.00,0.00,0.00,-0.00,-0.00,0.10,0.10,0.10,0.10,900,901,917,901
8802,0,0.00,0.00,-0.00,-0.00,0.00,-0.00,0.10,0.00,0.00,0.00,0.00,0.00,-0.00,0.10,0.10,0.10,0.10,900,901,917,901
8810,0,0.00,0.00,-0.00,-0.00,0.00,0.00,0.10,0.00,0.00,0.00,0.00,0.00,-0.00,0.10,0.10,0.10,0.10,900,901,917,901
8818,0,0.00,0.00,-0.00,-0.00,0.00,0.00,0.12,0.00,0.00,0.00,0.00,0.00,-0.00,0.11,0.11,0.12,0.12,913,913,929,913
8827,0,0.00,0.00,-0.00,-0.00,0.00,-0.00,0.12,0.00,0.00,0.00,0.00,0.00,-0.00,0.12,0.12,0.12,0.12,915,915,932,915
8837,0,0.00,0.00,-0.00,-0.00,0.00,-0.00,0.12,0.00,0.00,0.00,0.00,0.00,-0.00,0.12,0.12,0.12,0.12,916,916,933,916
8849,0,0.00,0.00,-0.00,-0.00,-0.00,-0.00,0.12,0.00,0.00,0.00,0.00,-0.00,-0.00,0.12,0.12,0.12,0.12,917,917,934,917
8859,0,0.00,0.00,-0.00,-0.00,-0.00,-0.00,0.12,0.00,0.00,0.00,0.00,-0.00,-0.00,0.12,0.12,0.12,0.12,917,917,934,917
8868,0,0.00,0.00,-0.00,-0.00,-0.00,-0.00,0.12,0.00,0.00,0.00,0.00,0.00,-0.00,0.12,0.12,0.12,0.12,917,917,934,917
8877,0,0.00,0.00,-0.00,-0.00,-0.00,-0.00,0.12,0.00,0.00,0.00,0.00,0.00,-0.00,0.12,0.12,0.12,0.12,917,917,934,917
8887,0,0.00,0.00,-0.00,-0.00,0.00,-0.00,0.12,0.00,0.00,0.00,0.00,0.00,-0.00,0.12,0.12,0.12,0.12,917,917,934,917
8897,0,0.00,0.00,-0.00,-0.00,-0.00,-0.00,0.12,0.00,0.00,0.00,0.00,-0.00,-0.00,0.12,0.12,0.12,0.12,917,917,934,917
8907,0,0.00,0.00,-0.00,-0.00,-0.00,-0.00,0.12,0.00,0.00,0.00,0.00,0.00,-0.00,0.12,0.12,0.12,0.12,918,918,934,918
8917,0,0.00,0.00,-0.00,-0.00,0.00,-0.00,0.12,0.00,0.00,0.00,0.00,0.00,-0.00,0.12,0.12,0.12,0.12,918,918,934,918
8926,0,0.00,0.00,-0.00,0.00,0.00,-0.00,0.12,0.00,0.00,0.00,0.00,0.00,-0.00,0.12,0.12,0.12,0.12,918,918,934,918
8936,0,0.00,0.00,-0.00,-0.00,0.00,0.00,0.12,0.00,0.00,0.00,0.00,0.00,-0.00,0.12,0.12,0.12,0.12,918,918,934,918
8945,0,0.00,0.00,-0.00,-0.00,0.00,0.00,0.12,0.00,0.00,0.00,0.00,0.00,-0.00,0.12,0.12,0.12,0.12,918,918,934,918
8955,0,0.00,0.00,-0.00,-0.00,0.00,-0.00,0.12,0.00,0.00,0.00,0.00,0.00,-0.00,0.12,0.12,0.12,0.12,917,918,934,918
8965,0,0.00,0.00,-0.00,-0.00,-0.00,-0.00,0.12,0.00,0.00,0.00,0.00,-0.00,-0.00,0.12,0.12,0.12,0.12,917,918,934,918
8975,0,0.00,0.00,-0.00,-0.00,-0.00,-0.00,0.12,0.00,0.00,0.00,0.00,0.00,-0.00,0.12,0.12,0.12,0.12,918,919,935,919
8985,0,0.00,0.00,-0.00,-0.00,-0.00,-0.00,0.12,0.00,0.00,0.00,0.00,-0.00,-0.00,0.12,0.12,0.12,0.12,918,919,935,919
8992,0,0.00,0.00,-0.00,-0.00,-0.00,-0.00,0.12,0.00,0.00,0.00,0.00,0.00,-0.00,0.12,0.12,0.12,0.12,918,919,935,919
9000,0,0.00,0.00,-0.00,-0.00,-0.00,-0.00,0.12,0.00,0.00,0.00,0.00,-0.00,-0.00,0.12,0.12,0.12,0.12,918,919,935,919
9008,0,0.00,0.00,-0.00,-0.00,0.00,-0.00,0.12,0.00,0.00,0.00,0.00,0.00,-0.00,0.12,0.12,0.12,0.12,918,919,935,919
9018,0,0.00,0.00,-0.00,-0.00,-0.00,0.00,0.12,0.00,0.00,0.00,0.00,0.00,-0.00,0.12,0.12,0.12,0.12,918,919,935,919
9027,0,0.00,0.00,-0.00,-0.00,-0.00,0.00,0.12,0.00,0.00,0.00,0.00,0.00,-0.00,0.12,0.12,0.12,0.12,918,918,935,919
9037,0,0.00,0.00,-0.00,-0.00,0.00,0.00,0.12,0.00,0.00,0.00,0.00,0.00,-0.00,0.12,0.12,0.12,0.12,919,919,936,919
9048,0,0.00,0.00,-0.00,-0.00,-0.00,0.00,0.12,0.00,0.00,0.00,0.00,-0.00,-0.00,0.12,0.12,0.12,0.12,919,919,936,920
9057,0,0.00,0.00,-0.00,-0.00,-0.00,0.00,0.12,0.00,0.00,0.00,0.00,-0.00,-0.00,0.12,0.12,0.12,0.12,919,919,936,920
9067,0,0.00,0.00,-0.00,-0.00,-0.00,-0.00,0.13,0.00,0.00,0.00,0.00,-0.00,-0.00,0.13,0.13,0.13,0.13,926,926,943,926
9077,0,0.00,0.00,-0.00,-0.00,0.00,-0.00,0.13,0.00,0.00,0.00,0.00,0.00,-0.00,0.13,0.13,0.13,0.13,926,926,943,926
9088,0,0.00,0.00,-0.00,-0.00,-0.00,-0.00,0.14,0.00,0.00,0.00,0.00,-0.00,-0.00,0.14,0.14,0.14,0.14,932,932,949,933
9098,0,0.00,0.00,-0.00,-0.00,-0.00,-0.00,0.14,0.00,0.00,0.00,0.00,-0.00,-0.00,0.14,0.14,0.14,0.14,935,936,953,936
9107,0,0.00,0.00,-0.00,0.00,0.00,-0.00,0.15,0.00,0.00,0.00,0.00,0.00,-0.00,0.15,0.15,0.15,0.15,941,941,958,942
9117,0,0.00,0.00,-0.00,-0.00,0.00,-0.00,0.15,0.00,0.00,0.00,0.00,0.00,-0.00,0.15,0.15,0.15,0.15,944,944,961,944
9128,0,0.00,0.00,-0.00,-0.00,-0.00,0.00,0.15,0.00,0.00,0.00,0.00,0.00,-0.00,0.15,0.15,0.15,0.15,944,944,961,944
9138,0,0.00,0.00,-0.00,-0.00,-0.00,0.00,0.15,0.00,0.00,0.00,0.00,0.00,-0.00,0.15,0.15,0.15,0.15,944,944,961,944
9150,0,0.00,0.00,-0.00,-0.00,0.00,-0.00,0.15,0.00,0.00,0.00,0.00,0.00,-0.00,0.15,0.15,0.15,0.15,944,944,961,944
9160,0,0.00,0.00,-0.00,-0.00,-0.00,-0.00,0.15,0.00,0.00,0.00,0.00,0.00,-0.00,0.15,0.15,0.15,0.15,944,944,961,944
9168,0,0.00,0.00,-0.00,-0.00,-0.00,-0.00,0.16,0.00,0.00,0.00,0.00,-0.00,-0.00,0.16,0.16,0.16,0.16,950,950,967,951
9178,0,0.00,0.00,-0.00,-0.00,-0.00,-0.00,0.16,0.00,0.00,0.00,0.00,-0.00,-0.00,0.16,0.16,0.16,0.16,950,950,967,951
9188,0,0.00,0.00,-0.00,-0.00,-0.00,-0.00,0.16,0.00,0.00,0.00,0.00,-0.00,-0.00,0.16,0.16,0.16,0.16,950,950,967,951
9197,0,0.00,0.00,-0.00,-0.00,-0.00,-0.00,0.16,0.00,0.00,0.00,0.00,-0.00,-0.00,0.16,0.16,0.16,0.16,950,950,967,951
9207,0,0.00,0.00,-0.00,-0.00,-0.00,-0.00,0.16,0.00,0.00,0.00,0.00,-0.00,-0.00,0.16,0.16,0.16,0.16,951,951,968,952
9217,0,0.00,0.00,-0.00,-0.00,0.00,-0.00,0.16,0.00,0.00,0.00,0.00,0.00,-0.00,0.16,0.16,0.16,0.16,951,951,968,952
9227,0,0.00,0.00,-0.00,-0.00,0.00,-0.00,0.16,0.00,0.00,0.00,0.00,0.00,-0.00,0.16,0.16,0.16,0.16,951,951,968,952
9238,0,0.00,0.00,-0.00,-0.00,0.00,0.00,0.16,0.00,0.00,0.00,0.00,0.00,-0.00,0.16,0.16,0.16,0.16,953,953,970,953
9247,0,0.00,0.00,-0.00,-0.00,0.00,0.00,0.16,0.00,0.00,0.00,0.00,0.00,-0.00,0.16,0.16,0.16,0.16,953,953,970,953
9257,0,0.00,0.00,-0.00,-0.00,-0.00,0.00,0.16,0.00,0.00,0.00,0.00,-0.00,-0.00,0.16,0.16,0.16,0.16,953,953,970,953
9267,0,0.00,0.00,-0.00,-0.00,-0.00,-0.00,0.16,0.00,0.00,0.00,0.00,-0.00,-0.00,0.16,0.16,0.16,0.16,953,953,970,953
9278,0,0.00,0.00,-0.00,-0.00,-0.00,-0.00,0.17,0.00,0.00,0.00,0.00,-0.00,-0.00,0.16,0.16,0.17,0.17,953,954,971,954
9288,0,0.00,0.00,-0.00,-0.00,0.00,-0.00,0.17,0.00,0.00,0.00,0.00,0.00,-0.00,0.16,0.16,0.17,0.17,953,954,971,954
9296,0,0.00,0.00,0.00,-0.00,0.00,-0.00,0.17,0.00,0.00,0.00,0.00,0.00,-0.00,0.16,0.16,0.17,0.17,953,954,971,954
9306,0,0.00,0.00,0.00,-0.00,-0.00,-0.00,0.17,0.00,0.00,0.00,0.00,-0.00,-0.00,0.16,0.16,0.17,0.17,953,954,971,954
9316,0,0.00,0.00,0.00,-0.00,-0.00,-0.00,0.17,0.00,0.00,0.00,0.00,-0.00,-0.00,0.16,0.16,0.17,0.17,953,954,971,954
9326,0,0.00,0.00,0.00,-0.00,0.00,-0.00,0.17,0.00,0.00,0.00,0.00,0.00,-0.00,0.17,0.17,0.17,0.17,954,954,971,955
9335,0,0.00,0.00,0.00,-0.00,0.00,0.00,0.17,0.00,0.00,0.00,0.00,0.00,-0.00,0.17,0.17,0.17,0.17,954,954,971,955
9343,0,0.00,0.00,0.00,-0.00,0.00,0.00,0.17,0.00,0.00,0.00,0.00,0.00,-0.00,0.17,0.17,0.17,0.17,955,955,972,956
9351,0,0.00,0.00,0.00,-0.00,-0.00,0.00,0.17,0.00,0.00,0.00,0.00,-0.00,-0.00,0.17,0.17,0.17,0.17,956,956,973,957
9359,0,0.00,0.00,0.00,-0.00,0.00,-0.00,0.17,0.00,0.00,0.00,0.00,0.00,-0.00,0.17,0.17,0.17,0.17,957,957,974,957
9368,0,0.00,0.00,0.00,-0.00,-0.00,-0.00,0.17,0.00,0.00,0.00,0.00,-0.00,-0.00,0.17,0.17,0.17,0.17,957,957,974,957
9378,0,0.00,0.00,0.00,-0.00,-0.00,-0.00,0.17,0.00,0.00,0.00,0.00,-0.00,0.00,0.17,0.17,0.17,0.17,957,957,974,957
9388,0,0.00,0.00,0.00,-0.00,-0.00,-0.00,0.17,0.00,0.00,0.00,0.00,-0.00,0.00,0.17,0.17,0.17,0.17,957,957,974,957
9397,0,0.00,0.00,0.00,-0.00,0.00,-0.00,0.17,0.00,0.00,0.00,0.00,0.00,0.00,0.17,0.17,0.17,0.17,957,957,974,958
9407,0,0.00,0.00,0.00,-0.00,0.00,-0.00,0.17,0.00,0.00,0.00,0.00,0.00,0.00,0.17,0.17,0.18,0.18,962,961,979,963
9417,0,0.00,0.00,0.00,-0.00,0.00,-0.00,0.18,0.00,0.00,0.00,0.00,0.00,0.00,0.18,0.18,0.18,0.18,962,962,980,963
9427,0,0.00,0.00,0.00,-0.00,0.00,0.00,0.18,0.00,0.00,0.00,0.00,0.00,0.00,0.18,0.18,0.18,0.18,962,962,980,963
9437,0,0.00,0.00,0.00,-0.00,0.00,0.00,0.18,0.00,0.00,0.00,0.00,0.00,0.00,0.18,0.18,0.18,0.18,967,967,984,968
9449,0,0.00,0.00,0.00,-0.00,-0.00,0.00,0.18,0.00,0.00,0.00,0.00,-0.00,0.00,0.18,0.18,0.18,0.18,967,967,984,968
9459,0,0.00,0.00,0.00,-0.00,-0.00,0.00,0.19,0.00,0.00,0.00,0.00,-0.00,0.00,0.19,0.19,0.19,0.19,972,971,989,972
9469,0,0.00,0.00,0.00,-0.00,0.00,0.00,0.19,0.00,0.00,0.00,0.00,0.00,0.00,0.19,0.19,0.19,0.19,971,971,989,972
9478,0,0.00,0.00,0.00,-0.00,0.00,0.00,0.19,0.00,0.00,0.00,0.00,0.00,0.00,0.19,0.19,0.19,0.19,972,972,989,973
9488,0,0.00,0.00,0.00,-0.00,0.00,-0.00,0.19,0.00,0.00,0.00,0.00,0.00,0.00,0.19,0.19,0.19,0.19,972,972,989,973
9496,0,0.00,0.00,0.00,-0.00,0.00,-0.00,0.19,0.00,0.00,0.00,0.00,0.00,0.00,0.19,0.19,0.19,0.19,972,972,989,973
9507,0,0.00,0.00,0.00,-0.00,0.00,-0.00,0.19,0.00,0.00,0.00,0.00,0.00,0.00,0.19,0.19,0.19,0.19,973,973,990,974
9517,0,0.00,0.00,0.00,-0.00,-0.00,-0.00,0.19,0.00,0.00,0.00,0.00,-0.00,0.00,0.19,0.19,0.19,0.19,974,974,991,975
9526,0,0.00,0.00,0.00,-0.00,-0.00,-0.00,0.19,0.00,0.00,0.00,0.00,-0.00,0.00,0.19,0.19,0.19,0.19,974,974,991,975
9536,0,0.00,0.00,0.00,-0.00,0.00,-0.00,0.19,0.00,0.00,0.00,0.00,0.00,0.00,0.19,0.19,0.19,0.19,974,974,991,975
9544,0,0.00,0.00,0.00,-0.00,-0.00,-0.00,0.19,0.00,0.00,0.00,0.00,-0.00,0.00,0.19,0.19,0.19,0.19,975,975,992,976
9553,0,0.00,0.00,0.00,-0.00,-0.00,-0.00,0.19,0.00,0.00,0.00,0.00,-0.00,0.00,0.19,0.19,0.19,0.19,975,974,992,976
9561,0,0.00,0.00,0.00,-0.00,0.00,-0.00,0.19,0.00,0.00,0.00,0.00,0.00,0.00,0.19,0.19,0.19,0.19,975,975,993,977
9570,0,0.00,0.00,0.00,-0.00,0.00,0.00,0.19,0.00,0.00,0.00,0.00,0.00,0.00,0.19,0.19,0.19,0.19,975,975,993,977
9579,0,0.00,0.00,0.00,-0.00,-0.00,-0.00,0.19,0.00,0.00,0.00,0.00,-0.00,0.00,0.19,0.19,0.19,0.19,975,975,993,977
9589,0,0.00,0.00,0.00,-0.00,-0.00,-0.00,0.19,0.00,0.00,0.00,0.00,-0.00,0.00,0.19,0.19,0.19,0.19,976,975,993,977
9597,0,0.00,0.00,0.00,-0.00,-0.00,-0.00,0.20,0.00,0.00,0.00,0.00,-0.00,0.00,0.20,0.20,0.20,0.20,980,980,998,982
9607,0,0.00,0.00,0.00,-0.00,-0.00,0.00,0.21,0.00,0.00,0.00,0.00,-0.00,0.00,0.21,0.21,0.21,0.21,989,988,1006,990
9617,0,0.00,0.00,0.00,-0.00,0.00,-0.00,0.21,0.00,0.00,0.00,0.00,0.00,0.00,0.21,0.21,0.21,0.21,989,989,1007,991
9627,0,0.00,0.00,0.00,-0.00,0.00,0.00,0.21,0.00,0.00,0.00,0.00,0.00,0.00,0.21,0.21,0.21,0.21,989,989,1007,991
9637,0,0.00,0.00,0.00,-0.00,0.00,-0.00,0.21,0.00,0.00,0.00,0.00,0.00,0.00,0.21,0.21,0.21,0.21,989,989,1007,991
9649,0,0.00,0.00,0.00,-0.00,0.00,-0.00,0.21,0.00,0.00,0.00,0.00,0.00,0.00,0.21,0.21,0.21,0.21,990,990,1008,991
9659,0,0.00,0.00,0.00,-0.00,0.00,-0.00,0.21,0.00,0.00,0.00,0.00,0.00,0.00,0.21,0.21,0.21,0.21,990,990,1008,991
9668,0,0.00,0.00,0.00,-0.00,-0.00,-0.00,0.21,0.00,0.00,0.00,0.00,-0.00,0.00,0.21,0.21,0.21,0.21,993,992,1010,994
9678,0,0.00,0.00,0.00,-0.00,-0.00,-0.00,0.21,0.00,0.00,0.00,0.00,-0.00,0.00,0.21,0.21,0.21,0.21,993,992,1010,994
9688,0,0.00,0.00,0.00,-0.00,0.00,0.00,0.22,0.00,0.00,0.00,0.00,0.00,0.00,0.21,0.21,0.22,0.22,994,994,1012,996
9696,0,0.00,0.00,0.00,-0.00,0.00,0.00,0.22,0.00,0.00,0.00,0.00,0.00,0.00,0.21,0.21,0.22,0.22,994,994,1012,996
9704,0,0.00,0.00,0.00,-0.00,0.00,0.00,0.22,0.00,0.00,0.00,0.00,0.00,0.00,0.22,0.21,0.22,0.22,995,995,1012,996
9712,0,0.00,0.00,0.00,-0.00,-0.00,0.00,0.22,0.00,0.00,0.00,0.00,0.00,0.00,0.22,0.22,0.22,0.22,996,996,1013,997
9720,0,0.00,0.00,0.00,-0.00,-0.00,0.00,0.22,0.00,0.00,0.00,0.00,-0.00,0.00,0.22,0.22,0.22,0.22,996,996,1013,997
9730,0,0.00,0.00,0.00,-0.00,-0.00,0.00,0.22,0.00,0.00,0.00,0.00,-0.00,0.00,0.22,0.22,0.22,0.22,997,996,1014,998
9739,0,0.00,0.00,0.00,-0.00,-0.00,0.00,0.22,0.00,0.00,0.00,0.00,-0.00,0.00,0.22,0.22,0.22,0.22,997,996,1014,998
9749,0,0.00,0.00,0.00,-0.00,-0.00,0.00,0.22,0.00,0.00,0.00,0.00,-0.00,0.00,0.22,0.22,0.22,0.22,997,996,1014,998
9759,0,0.00,0.00,0.00,-0.00,-0.00,0.00,0.22,0.00,0.00,0.00,0.00,-0.00,0.00,0.22,0.22,0.22,0.22,997,996,1014,998
9769,0,0.00,0.00,0.00,-0.00,0.00,-0.00,0.22,0.00,0.00,0.00,0.00,0.00,0.00,0.22,0.22,0.22,0.22,997,996,1014,998
9779,0,0.00,0.00,0.00,-0.00,0.00,-0.00,0.22,0.00,0.00,0.00,0.00,0.00,0.00,0.22,0.22,0.22,0.22,997,996,1014,998
9789,0,0.00,0.00,0.00,-0.00,0.00,-0.00,0.22,0.00,0.00,0.00,0.00,0.00,0.00,0.22,0.22,0.22,0.22,997,996,1014,998
9797,0,0.00,0.00,0.00,-0.00,0.00,-0.00,0.22,0.00,0.00,0.00,0.00,0.00,0.00,0.22,0.22,0.22,0.22,997,996,1014,998
9805,0,0.00,0.00,0.00,-0.00,-0.00,-0.00,0.22,0.00,0.00,0.00,0.00,-0.00,0.00,0.22,0.22,0.22,0.22,997,997,1015,999
9813,0,0.00,0.00,0.00,-0.00,-0.00,-0.00,0.22,0.00,0.00,0.00,0.00,-0.00,0.00,0.22,0.22,0.22,0.22,997,997,1015,999
9821,0,0.00,0.00,0.00,-0.00,-0.00,0.00,0.22,0.00,0.00,0.00,0.00,-0.00,0.00,0.22,0.22,0.22,0.22,998,998,1016,1000
9830,0,0.00,0.00,0.00,-0.00,0.00,0.00,0.22,0.00,0.00,0.00,0.00,0.00,0.00,0.22,0.22,0.22,0.22,998,998,1016,1000
9839,0,0.00,0.00,0.00,-0.00,0.00,0.00,0.22,0.00,0.00,0.00,0.00,0.00,0.00,0.22,0.22,0.22,0.22,998,998,1016,1000
9847,0,0.00,0.00,0.00,-0.00,0.00,0.00,0.22,0.00,0.00,0.00,0.00,0.00,0.00,0.22,0.22,0.22,0.22,998,998,1016,1000
9855,0,0.00,0.00,0.00,-0.00,0.00,0.00,0.22,0.00,0.00,0.00,0.00,0.00,0.00,0.22,0.22,0.22,0.22,998,998,1016,1000
9864,0,0.00,0.00,0.00,0.00,0.00,0.00,0.22,0.00,0.00,0.00,0.00,0.00,0.00,0.22,0.22,0.22,0.22,998,998,1016,1000
9872,0,0.00,0.00,0.00,0.00,-0.00,0.00,0.22,0.00,0.00,0.00,0.00,-0.00,0.00,0.22,0.22,0.22,0.22,998,998,1016,1000
9880,0,0.00,0.00,0.00,-0.00,-0.00,0.00,0.22,0.00,0.00,0.00,0.00,-0.00,0.00,0.22,0.22,0.22,0.22,1000,999,1018,1002
9890,0,0.00,0.00,0.00,-0.00,-0.00,0.00,0.22,0.00,0.00,0.00,0.00,-0.00,0.00,0.22,0.22,0.22,0.22,1000,999,1018,1002
9899,0,0.00,0.00,0.00,-0.00,-0.00,0.00,0.22,0.00,0.00,0.00,0.00,-0.00,0.00,0.22,0.22,0.22,0.22,1000,999,1018,1002
9909,0,0.00,0.00,0.00,-0.00,0.00,0.00,0.22,0.00,0.00,0.00,0.00,0.00,0.00,0.22,0.22,0.23,0.23,1002,1002,1020,1004
9919,0,0.00,0.00,0.00,-0.00,0.00,-0.00,0.22,0.00,0.00,0.00,0.00,0.00,0.00,0.22,0.22,0.23,0.23,1002,1002,1020,1004
9929,0,0.00,0.00,0.00,-0.00,0.00,-0.00,0.22,0.00,0.00,0.00,0.00,0.00,0.00,0.22,0.22,0.23,0.23,1002,1002,1020,1004
9939,0,0.00,0.00,0.00,-0.00,-0.00,-0.00,0.23,0.00,0.00,0.00,0.00,-0.00,0.00,0.23,0.23,0.23,0.23,1006,1006,1024,1008
9947,0,0.00,0.00,0.00,0.00,0.00,-0.00,0.23,0.00,0.00,0.00,0.00,0.00,0.00,0.23,0.23,0.23,0.23,1008,1007,1026,1010
9957,0,0.00,0.00,0.00,0.00,0.00,-0.00,0.23,0.00,0.00,0.00,0.00,0.00,0.00,0.23,0.23,0.23,0.23,1008,1007,1026,1010
9966,0,0.00,0.00,0.00,0.00,0.00,-0.00,0.23,0.00,0.00,0.00,0.00,0.00,0.00,0.23,0.23,0.23,0.23,1008,1007,1026,1010
9976,0,0.00,0.00,0.00,-0.00,-0.00,0.00,0.24,0.00,0.00,0.00,0.00,-0.00,0.00,0.24,0.24,0.24,0.24,1014,1013,1032,1016
9987,0,0.00,0.00,0.00,-0.00,-0.00,0.00,0.24,0.00,0.00,0.00,0.00,-0.00,0.00,0.24,0.24,0.24,0.24,1014,1014,1033,1017
9994,0,0.00,0.00,0.00,-0.00,-0.00,0.00,0.24,0.00,0.00,0.00,0.00,-0.00,0.00,0.24,0.24,0.24,0.24,1014,1014,1033,1017
10002,0,0.00,0.00,0.00,-0.00,-0.00,0.00,0.24,0.00,0.00,0.00,0.00,-0.00,0.00,0.24,0.24,0.24,0.24,1014,1014,1033,1017
10013,0,0.00,0.00,0.00,-0.00,-0.00,0.00,0.24,0.00,0.00,0.00,0.00,-0.00,0.00,0.24,0.24,0.24,0.24,1014,1014,1033,1017
10023,0,0.00,0.00,0.00,-0.00,-0.00,0.00,0.24,0.00,0.00,0.00,0.00,-0.00,0.00,0.24,0.24,0.24,0.24,1014,1014,1033,1017
10031,0,0.00,0.00,0.00,-0.00,-0.00,0.00,0.24,0.00,0.00,0.00,0.00,-0.00,0.00,0.24,0.24,0.24,0.24,1014,1014,1033,1017
10040,0,0.00,0.00,0.00,-0.00,-0.00,-0.00,0.24,0.00,0.00,0.00,0.00,0.00,0.00,0.24,0.24,0.24,0.24,1014,1014,1033,1017
10048,0,0.00,0.00,0.00,-0.00,-0.00,-0.00,0.24,0.00,0.00,0.00,0.00,0.00,0.00,0.24,0.24,0.24,0.24,1014,1014,1033,1017
10056,0,0.00,0.00,0.00,-0.00,0.00,-0.00,0.24,0.00,0.00,0.00,0.00,0.00,0.00,0.24,0.24,0.24,0.24,1014,1014,1033,1017
10064,0,0.00,0.00,0.00,-0.00,0.00,-0.00,0.24,0.00,0.00,0.00,0.00,0.00,0.00,0.24,0.24,0.24,0.24,1014,1014,1033,1017
10072,0,0.00,0.00,0.00,-0.00,0.00,-0.00,0.24,0.00,0.00,0.00,0.00,0.00,0.00,0.24,0.24,0.24,0.24,1014,1014,1033,1017
10080,0,0.00,0.00,0.00,-0.00,0.00,-0.00,0.24,0.00,0.00,0.00,0.00,0.00,0.00,0.24,0.24,0.24,0.24,1014,1014,1033,1017
10090,0,0.00,0.00,0.00,-0.00,0.00,-0.00,0.24,0.00,0.00,0.00,0.00,0.00,0.00,0.24,0.24,0.24,0.25,1016,1016,1035,1020
10098,0,0.00,0.00,0.00,-0.00,-0.00,0.00,0.24,0.00,0.00,0.00,0.00,-0.00,0.00,0.24,0.24,0.24,0.25,1016,1016,1036,1020
10106,0,0.00,0.00,0.00,-0.00,-0.00,0.00,0.24,0.00,0.00,0.00,0.00,-0.00,0.00,0.24,0.24,0.24,0.25,1016,1016,1036,1020
10114,0,0.00,0.00,0.00,-0.00,-0.00,0.00,0.24,0.00,0.00,0.00,0.00,-0.00,0.00,0.24,0.24,0.24,0.25,1016,1016,1035,1020
10122,0,0.00,0.00,0.00,0.00,0.00,0.00,0.24,0.00,0.00,0.00,0.00,0.00,0.00,0.24,0.24,0.24,0.25,1016,1016,1035,1020
10130,0,0.00,0.00,0.00,-0.00,0.00,0.00,0.24,0.00,0.00,0.00,0.00,0.00,0.00,0.24,0.24,0.24,0.25,1016,1016,1036,1020
10140,0,0.00,0.00,0.00,-0.00,0.00,0.00,0.25,0.00,0.00,0.00,0.00,0.00,0.00,0.24,0.24,0.25,0.25,1018,1017,1037,1021
10148,0,0.00,0.00,0.00,0.00,0.00,0.00,0.25,0.00,0.00,0.00,0.00,0.00,0.00,0.24,0.24,0.25,0.25,1018,1017,1037,1021
10156,0,0.00,0.00,0.00,0.00,0.00,0.00,0.25,0.00,0.00,0.00,0.00,0.00,0.00,0.24,0.24,0.25,0.25,1018,1018,1037,1021
10164,0,0.00,0.00,0.00,-0.00,-0.00,0.00,0.25,0.00,0.00,0.00,0.00,-0.00,0.00,0.24,0.24,0.25,0.25,1018,1017,1037,1021
10172,0,0.00,0.00,0.00,-0.00,-0.00,0.00,0.25,0.00,0.00,0.00,0.00,-0.00,0.00,0.24,0.24,0.25,0.25,1018,1017,1037,1021
10180,0,0.00,0.00,0.00,-0.00,-0.00,-0.00,0.25,0.00,0.00,0.00,0.00,-0.00,0.00,0.24,0.24,0.25,0.25,1018,1017,1037,1021
10190,0,0.00,0.00,0.00,-0.00,-0.00,-0.00,0.25,0.00,0.00,0.00,0.00,-0.00,0.00,0.24,0.24,0.25,0.25,1018,1017,1037,1021
10200,0,0.00,0.00,0.00,0.00,-0.00,-0.00,0.25,0.00,0.00,0.00,0.00,0.00,0.00,0.24,0.24,0.25,0.25,1019,1018,1038,1022
10210,0,0.00,0.00,0.00,0.00,0.00,-0.00,0.25,0.00,0.00,0.00,0.00,0.00,0.00,0.24,0.24,0.25,0.25,1019,1018,1038,1022
10220,0,0.00,0.00,0.00,0.00,0.00,-0.00,0.25,0.00,0.00,0.00,0.00,0.00,0.00,0.24,0.24,0.25,0.25,1019,1018,1038,1022
10230,0,0.00,0.00,0.00,-0.00,0.00,-0.00,0.25,0.00,0.00,0.00,0.00,0.00,0.00,0.24,0.24,0.25,0.25,1019,1018,1038,1022
10240,0,0.00,0.00,0.00,-0.00,0.00,-0.00,0.25,0.00,0.00,0.00,0.00,0.00,0.00,0.24,0.24,0.25,0.25,1019,1018,1038,1022
10250,0,0.00,0.00,0.00,0.00,0.00,-0.00,0.25,0.00,0.00,0.00,0.00,0.00,0.00,0.24,0.24,0.25,0.25,1018,1018,1038,1022
10260,0,0.00,0.00,0.00,0.00,-0.00,-0.00,0.25,0.00,0.00,0.00,0.00,-0.00,0.00,0.24,0.24,0.25,0.25,1018,1018,1038,1022
10270,0,0.00,0.00,0.00,0.00,-0.00,0.00,0.25,0.00,0.00,0.00,0.00,-0.00,0.00,0.25,0.24,0.25,0.25,1019,1019,1039,1023
10279,0,0.00,0.00,0.00,-0.00,0.00,-0.00,0.25,0.00,0.00,0.00,0.00,0.00,0.00,0.24,0.24,0.25,0.25,1019,1019,1039,1023
10292,0,0.00,0.00,0.00,0.00,0.00,0.00,0.25,0.00,0.00,0.00,0.00,0.00,0.00,0.24,0.24,0.25,0.25,1019,1019,1039,1023
10301,0,0.00,0.00,0.00,0.00,-0.00,0.00,0.26,0.00,0.00,0.00,0.00,-0.00,0.00,0.25,0.25,0.26,0.26,1027,1026,1046,1030
10310,0,0.00,0.00,0.00,-0.00,-0.00,0.00,0.26,0.00,0.00,0.00,0.00,-0.00,0.00,0.25,0.25,0.26,0.26,1027,1026,1046,1031
10320,0,0.00,0.00,0.00,-0.00,-0.00,0.00,0.26,0.00,0.00,0.00,0.00,-0.00,0.00,0.25,0.25,0.26,0.26,1027,1026,1046,1031
10330,0,0.00,0.00,0.00,-0.00,-0.00,0.00,0.26,0.00,0.00,0.00,0.00,-0.00,0.00,0.25,0.25,0.26,0.26,1027,1026,1046,1031
10340,0,0.00,0.00,0.00,0.00,-0.00,0.00,0.27,0.00,0.00,0.00,0.00,-0.00,0.00,0.26,0.26,0.27,0.27,1035,1034,1055,1039
10349,0,0.00,0.00,0.00,-0.00,0.00,0.00,0.27,0.00,0.00,0.00,0.00,0.00,0.00,0.26,0.26,0.27,0.27,1035,1034,1055,1039
10359,0,0.00,0.00,0.00,-0.00,0.00,0.00,0.27,0.00,0.00,0.00,0.00,0.00,0.00,0.26,0.26,0.27,0.27,1035,1034,1055,1039
10369,0,0.00,0.00,0.00,-0.00,-0.00,0.00,0.27,0.00,0.00,0.00,0.00,-0.00,0.00,0.26,0.26,0.27,0.27,1035,1034,1055,1039
10380,0,0.00,0.00,0.00,-0.00,-0.00,-0.00,0.27,0.00,0.00,0.00,0.00,-0.00,0.00,0.27,0.27,0.27,0.27,1036,1036,1056,1040
10389,0,0.00,0.00,0.00,-0.00,0.00,-0.00,0.27,0.00,0.00,0.00,0.00,0.00,0.00,0.27,0.27,0.27,0.27,1036,1036,1056,1040
10398,0,0.00,0.00,0.00,-0.00,0.00,-0.00,0.27,0.00,0.00,0.00,0.00,0.00,0.00,0.27,0.27,0.27,0.27,1036,1036,1056,1041
10408,0,0.00,0.00,0.00,-0.00,-0.00,-0.00,0.27,0.00,0.00,0.00,0.00,-0.00,0.00,0.27,0.27,0.27,0.27,1036,1036,1056,1041
10420,0,0.00,0.00,0.00,-0.00,-0.00,-0.00,0.27,0.00,0.00,0.00,0.00,-0.00,0.00,0.27,0.27,0.27,0.27,1036,1036,1056,1041
10430,0,0.00,0.00,0.00,-0.00,-0.00,-0.00,0.27,0.00,0.00,0.00,0.00,-0.00,0.00,0.27,0.26,0.27,0.27,1036,1036,1057,1041
10440,0,0.00,0.00,0.00,0.00,0.00,-0.00,0.27,0.00,0.00,0.00,0.00,0.00,0.00,0.27,0.26,0.27,0.27,1036,1036,1057,1041
10448,0,0.00,0.00,0.00,0.00,0.00,-0.00,0.27,0.00,0.00,0.00,0.00,0.00,0.00,0.27,0.26,0.27,0.27,1036,1036,1057,1041
10456,0,0.00,0.00,0.00,0.00,0.00,0.00,0.27,0.00,0.00,0.00,0.00,0.00,0.00,0.27,0.26,0.27,0.27,1036,1036,1057,1041
10464,0,0.00,0.00,0.00,-0.00,-0.00,0.00,0.27,0.00,0.00,0.00,0.00,-0.00,0.00,0.27,0.26,0.27,0.27,1036,1036,1057,1041
10472,0,0.00,0.00,0.00,-0.00,-0.00,0.00,0.27,0.00,0.00,0.00,0.00,-0.00,0.00,0.27,0.26,0.27,0.27,1036,1036,1057,1041
10481,0,0.00,0.00,0.00,0.00,0.00,-0.00,0.27,0.00,0.00,0.00,0.00,0.00,0.00,0.27,0.26,0.27,0.27,1036,1036,1057,1041
10491,0,0.00,0.00,0.00,0.00,0.00,-0.00,0.27,0.00,0.00,0.00,0.00,0.00,0.00,0.27,0.27,0.27,0.27,1037,1036,1057,1042
10500,0,0.00,0.00,0.00,0.00,-0.00,0.00,0.27,0.00,0.00,0.00,0.00,-0.00,0.00,0.27,0.27,0.27,0.27,1037,1036,1057,1042
10510,0,0.00,0.00,0.00,0.00,0.00,0.00,0.27,0.00,0.00,0.00,0.00,0.00,0.00,0.27,0.27,0.27,0.27,1037,1036,1057,1042
10520,0,0.00,0.00,0.00,-0.00,-0.00,0.00,0.27,0.00,0.00,0.00,0.00,-0.00,0.00,0.27,0.27,0.27,0.27,1037,1036,1057,1042
10530,0,0.00,0.00,0.00,-0.00,0.00,0.00,0.27,0.00,0.00,0.00,0.00,0.00,0.00,0.27,0.27,0.27,0.27,1037,1036,1058,1042
10541,0,0.00,0.00,0.00,0.00,-0.00,-0.00,0.27,0.00,0.00,0.00,0.00,-0.00,0.00,0.27,0.27,0.27,0.27,1038,1037,1058,1042
10551,0,0.00,0.00,0.00,0.00,0.00,0.00,0.27,0.00,0.00,0.00,0.00,0.00,0.00,0.27,0.27,0.27,0.27,1038,1037,1058,1042
10560,0,0.00,0.00,0.00,-0.00,0.00,-0.00,0.27,0.00,0.00,0.00,0.00,0.00,0.00,0.27,0.27,0.27,0.27,1038,1037,1058,1043
10570,0,0.00,0.00,0.00,-0.00,0.00,-0.00,0.27,0.00,0.00,0.00,0.00,0.00,0.00,0.27,0.27,0.27,0.27,1038,1037,1058,1043
10580,0,0.00,0.00,0.00,-0.00,0.00,-0.00,0.27,0.00,0.00,0.00,0.00,0.00,0.00,0.27,0.27,0.27,0.27,1038,1037,1059,1043
10593,0,0.00,0.00,0.00,0.00,0.00,-0.00,0.27,0.00,0.00,0.00,0.00,0.00,0.00,0.27,0.27,0.27,0.27,1037,1037,1059,1043
10602,0,0.00,0.00,0.00,0.00,-0.00,0.00,0.27,0.00,0.00,0.00,0.00,-0.00,0.00,0.27,0.27,0.27,0.27,1037,1037,1059,1043
10610,0,0.00,0.00,0.00,0.00,-0.00,0.00,0.27,0.00,0.00,0.00,0.00,-0.00,0.00,0.27,0.27,0.27,0.27,1037,1037,1059,1043
10620,0,0.00,0.00,0.00,0.00,-0.00,0.00,0.27,0.00,0.00,0.00,0.00,-0.00,0.00,0.27,0.27,0.27,0.27,1037,1037,1059,1043
10630,0,0.00,0.00,0.00,0.00,-0.00,0.00,0.27,0.00,0.00,0.00,0.00,-0.00,0.00,0.27,0.27,0.27,0.27,1037,1037,1059,1043
10640,0,0.00,0.00,0.00,-0.00,0.00,0.00,0.28,0.00,0.00,0.00,0.00,0.00,0.00,0.27,0.27,0.28,0.28,1042,1041,1063,1047
10649,0,0.00,0.00,0.00,0.00,0.00,-0.00,0.28,0.00,0.00,0.00,0.00,0.00,0.00,0.28,0.27,0.28,0.28,1044,1043,1065,1049
10659,0,0.00,0.00,0.00,0.00,0.00,0.00,0.28,0.00,0.00,0.00,0.00,0.00,0.00,0.28,0.27,0.28,0.28,1044,1043,1065,1049
10669,0,0.00,0.00,0.00,-0.00,0.00,-0.00,0.28,0.00,0.00,0.00,0.00,0.00,0.00,0.27,0.27,0.28,0.28,1044,1043,1065,1049
10678,0,0.00,0.00,0.00,-0.00,0.00,-0.00,0.28,0.00,0.00,0.00,0.00,0.00,0.00,0.28,0.28,0.28,0.28,1046,1046,1068,1052
10688,0,0.00,0.00,0.00,0.00,0.00,-0.00,0.28,0.00,0.00,0.00,0.00,0.00,0.00,0.28,0.28,0.29,0.29,1047,1047,1069,1053
10696,0,0.00,0.00,0.00,0.00,-0.00,-0.00,0.28,0.00,0.00,0.00,0.00,-0.00,0.00,0.28,0.28,0.29,0.29,1047,1047,1069,1053
10704,0,0.00,0.00,0.00,-0.00,-0.00,-0.00,0.28,0.00,0.00,0.00,0.00,-0.00,0.00,0.28,0.28,0.29,0.29,1048,1047,1069,1054
10712,0,0.00,0.00,0.00,0.00,-0.00,-0.00,0.28,0.00,0.00,0.00,0.00,-0.00,0.00,0.28,0.28,0.29,0.29,1048,1047,1069,1054
10721,0,0.00,0.00,0.00,0.00,0.00,0.00,0.28,0.00,0.00,0.00,0.00,0.00,0.00,0.28,0.28,0.29,0.29,1048,1047,1069,1054
10731,0,0.00,0.00,0.00,0.00,0.00,0.00,0.28,0.00,0.00,0.00,0.00,0.00,0.00,0.28,0.28,0.29,0.29,1049,1048,1070,1054
10741,0,0.00,0.00,0.00,0.00,0.00,0.00,0.28,0.00,0.00,0.00,0.00,0.00,0.00,0.28,0.28,0.29,0.29,1049,1048,1070,1055
10751,0,0.00,0.00,0.00,-0.00,0.00,0.00,0.28,0.00,0.00,0.00,0.00,0.00,0.00,0.28,0.28,0.29,0.29,1049,1048,1070,1055
10761,0,0.00,0.00,0.00,-0.00,-0.00,-0.00,0.28,0.00,0.00,0.00,0.00,-0.00,0.00,0.28,0.28,0.29,0.29,1049,1048,1070,1055
10771,0,0.00,0.00,0.00,-0.00,0.00,0.00,0.29,0.00,0.00,0.00,0.00,0.00,0.00,0.28,0.28,0.29,0.29,1050,1050,1072,1056
10781,0,0.00,0.00,0.00,0.00,-0.00,0.00,0.29,0.00,0.00,0.00,0.00,-0.00,0.00,0.28,0.28,0.29,0.29,1051,1050,1073,1057
10791,0,0.00,0.00,0.00,-0.00,-0.00,0.00,0.29,0.00,0.00,0.00,0.00,-0.00,0.00,0.28,0.28,0.29,0.29,1051,1050,1073,1057
10801,0,0.00,0.00,0.00,0.00,-0.00,0.00,0.29,0.00,0.00,0.00,0.00,-0.00,0.00,0.28,0.28,0.29,0.29,1052,1051,1074,1058
10811,0,0.00,0.00,0.00,0.00,0.00,0.00,0.29,0.00,0.00,0.00,0.00,0.00,0.00,0.28,0.28,0.29,0.29,1052,1051,1074,1058
10821,0,0.00,0.00,0.00,0.00,0.00,0.00,0.29,0.00,0.00,0.00,0.00,0.00,0.00,0.28,0.28,0.29,0.29,1052,1051,1074,1058
10831,0,0.00,0.00,0.00,-0.00,0.00,-0.00,0.29,0.00,0.00,0.00,0.00,0.00,0.00,0.29,0.29,0.30,0.30,1056,1055,1078,1062
10841,0,0.00,0.00,0.00,-0.00,-0.00,-0.00,0.29,0.00,0.00,0.00,0.00,-0.00,0.00,0.29,0.29,0.30,0.30,1057,1056,1079,1063
10851,0,0.00,0.00,0.00,-0.00,0.00,-0.00,0.29,0.00,0.00,0.00,0.00,0.00,0.00,0.29,0.29,0.30,0.30,1057,1056,1079,1063
10861,0,0.00,0.00,0.00,-0.00,0.00,-0.00,0.29,0.00,0.00,0.00,0.00,0.00,0.00,0.29,0.29,0.30,0.30,1057,1056,1079,1063
10871,0,0.00,0.00,0.00,0.00,0.00,0.00,0.30,0.00,0.00,0.00,0.00,0.00,0.00,0.30,0.29,0.30,0.30,1061,1060,1083,1067
10881,0,0.00,0.00,0.00,0.00,0.00,-0.00,0.30,0.00,0.00,0.00,0.00,0.00,0.00,0.30,0.29,0.30,0.30,1061,1060,1083,1067
10894,0,0.00,0.00,0.00,-0.00,-0.00,-0.00,0.30,0.00,0.00,0.00,0.00,-0.00,0.00,0.30,0.29,0.30,0.30,1061,1060,1083,1067
10903,0,0.00,0.00,0.00,-0.00,-0.00,-0.00,0.30,0.00,0.00,0.00,0.00,-0.00,0.00,0.30,0.29,0.30,0.30,1061,1060,1083,1067
10912,0,0.00,0.00,0.00,-0.00,-0.00,-0.00,0.30,0.00,0.00,0.00,0.00,-0.00,0.00,0.30,0.29,0.30,0.30,1061,1060,1083,1067
10922,0,0.00,0.00,0.00,-0.00,-0.00,-0.00,0.30,0.00,0.00,0.00,0.00,-0.00,0.00,0.30,0.30,0.31,0.31,1063,1062,1085,1070
10932,0,0.00,0.00,0.00,0.00,-0.00,0.00,0.30,0.00,0.00,0.00,0.00,-0.00,0.00,0.30,0.30,0.31,0.31,1063,1062,1086,1070
10942,0,0.00,0.00,0.00,0.00,0.00,0.00,0.30,0.00,0.00,0.00,0.00,0.00,0.00,0.30,0.30,0.31,0.31,1063,1062,1086,1070
10951,0,0.00,0.00,0.00,-0.00,0.00,-0.00,0.30,0.00,0.00,0.00,0.00,0.00,0.00,0.30,0.30,0.31,0.31,1063,1062,1086,1070
10961,0,0.00,0.00,0.00,-0.00,0.00,-0.00,0.30,0.00,0.00,0.00,0.00,0.00,0.00,0.30,0.30,0.31,0.31,1063,1062,1086,1070
10971,0,0.00,-0.00,0.00,-0.00,0.00,-0.00,0.30,0.00,0.00,0.00,0.00,0.00,0.00,0.30,0.30,0.31,0.31,1063,1062,1086,1070
10983,0,0.00,0.00,0.00,0.00,-0.00,-0.00,0.30,0.00,0.00,0.00,0.00,0.00,0.00,0.30,0.30,0.31,0.31,1063,1062,1086,1070
10992,0,0.00,0.00,0.00,0.00,-0.00,-0.00,0.30,0.00,0.00,0.00,0.00,0.00,0.00,0.30,0.30,0.31,0.31,1063,1062,1086,1070
11002,0,0.00,0.00,0.00,0.00,-0.00,0.00,0.30,0.00,0.00,0.00,0.00,0.00,0.00,0.30,0.30,0.31,0.31,1063,1062,1086,1070
11011,0,0.00,0.00,0.00,-0.00,-0.00,0.00,0.30,0.00,0.00,0.00,0.00,0.00,0.00,0.30,0.30,0.31,0.31,1064,1063,1087,1071
11022,0,0.00,0.00,0.00,0.00,0.00,0.00,0.30,0.00,0.00,0.00,0.00,0.00,0.00,0.30,0.30,0.31,0.31,1064,1063,1087,1071
11032,0,0.00,-0.00,0.00,0.00,0.00,0.00,0.30,0.00,0.00,0.00,0.00,0.00,0.00,0.30,0.30,0.31,0.31,1064,1063,1087,1071
11042,0,0.00,-0.00,0.00,0.00,0.00,0.00,0.30,0.00,0.00,0.00,0.00,0.00,0.00,0.30,0.30,0.31,0.31,1064,1063,1087,1071
11052,0,0.00,0.00,0.00,-0.00,-0.00,0.00,0.30,0.00,0.00,0.00,0.00,0.00,0.00,0.30,0.30,0.31,0.31,1063,1063,1087,1071
11062,0,0.00,0.00,0.00,-0.00,-0.00,0.00,0.30,0.00,0.00,0.00,0.00,0.00,0.00,0.30,0.30,0.31,0.31,1064,1063,1087,1071
11072,0,0.00,0.00,0.00,0.00,0.00,-0.00,0.30,0.00,0.00,0.00,0.00,0.00,0.00,0.30,0.30,0.31,0.31,1064,1064,1087,1072
11083,0,0.00,0.00,0.00,0.00,-0.00,-0.00,0.30,0.00,0.00,0.00,0.00,0.00,0.00,0.30,0.30,0.31,0.31,1064,1064,1088,1072
11092,0,0.00,0.00,0.00,-0.00,0.00,-0.00,0.30,0.00,0.00,0.00,0.00,0.00,0.00,0.30,0.30,0.31,0.31,1064,1064,1088,1072
11100,0,0.00,0.00,0.00,-0.00,0.00,-0.00,0.30,0.00,0.00,0.00,0.00,0.00,0.00,0.30,0.30,0.31,0.31,1064,1063,1088,1072
11108,0,0.00,0.00,0.00,-0.00,0.00,-0.00,0.30,0.00,0.00,0.00,0.00,0.00,0.00,0.30,0.30,0.31,0.31,1063,1063,1087,1071
11117,0,0.00,-0.00,0.00,-0.00,0.00,-0.00,0.30,0.00,0.00,0.00,0.00,0.00,0.00,0.30,0.30,0.31,0.31,1064,1063,1088,1072
11125,0,0.00,-0.00,0.00,0.00,-0.00,0.00,0.30,0.00,0.00,0.00,0.00,0.00,0.00,0.30,0.30,0.31,0.31,1064,1063,1088,1072
11133,0,0.00,-0.00,0.00,0.00,-0.00,0.00,0.30,0.00,0.00,0.00,0.00,0.00,0.00,0.30,0.30,0.31,0.31,1064,1063,1088,1072
11143,0,0.00,-0.00,0.00,0.00,-0.00,0.00,0.30,0.00,0.00,0.00,0.00,0.00,0.00,0.30,0.30,0.31,0.31,1064,1063,1088,1072
11152,0,0.00,-0.00,0.00,0.00,-0.00,0.00,0.30,0.00,0.00,0.00,0.00,0.00,0.00,0.30,0.30,0.31,0.31,1064,1063,1088,1072
11162,0,0.00,-0.00,0.00,-0.00,-0.00,0.00,0.30,0.00,0.00,0.00,0.00,0.00,0.00,0.30,0.30,0.31,0.31,1064,1063,1088,1072
11172,0,0.00,-0.00,0.00,-0.00,0.00,0.00,0.30,0.00,0.00,0.00,0.00,0.00,0.00,0.30,0.30,0.31,0.31,1064,1063,1088,1072
11184,0,0.00,0.00,0.00,0.00,0.00,0.00,0.30,0.00,0.00,0.00,0.00,0.00,0.00,0.30,0.30,0.31,0.31,1064,1063,1088,1072
11194,0,0.00,0.00,0.00,0.00,-0.00,0.00,0.31,0.00,0.00,0.00,0.00,0.00,0.00,0.30,0.30,0.31,0.31,1065,1064,1089,1073
11203,0,0.00,0.00,0.00,0.00,0.00,-0.00,0.31,0.00,0.00,0.00,0.00,0.00,0.00,0.30,0.30,0.31,0.31,1065,1064,1089,1073
11212,0,0.00,0.00,0.00,0.00,0.00,-0.00,0.31,0.00,0.00,0.00,0.00,0.00,0.00,0.30,0.30,0.31,0.31,1065,1064,1089,1073
11222,0,0.00,0.00,0.00,-0.00,0.00,-0.00,0.31,0.00,0.00,0.00,0.00,0.00,0.00,0.30,0.30,0.31,0.31,1065,1064,1089,1073
11232,0,0.00,0.00,0.00,-0.00,0.00,-0.00,0.31,0.00,0.00,0.00,0.00,0.00,0.00,0.30,0.30,0.31,0.31,1065,1065,1090,1074
11242,0,0.00,0.00,0.00,-0.00,-0.00,-0.00,0.31,0.00,0.00,0.00,0.00,0.00,0.00,0.30,0.30,0.31,0.31,1065,1065,1090,1074
11252,0,0.00,0.00,0.00,0.00,-0.00,-0.00,0.31,0.00,0.00,0.00,0.00,0.00,0.00,0.30,0.30,0.31,0.31,1065,1065,1090,1074
11262,0,0.00,0.00,0.00,0.00,0.00,-0.00,0.31,0.00,0.00,0.00,0.00,0.00,0.00,0.30,0.30,0.31,0.31,1065,1065,1090,1074
11272,0,0.00,0.00,0.00,-0.00,-0.00,0.00,0.31,0.00,0.00,0.00,0.00,0.00,0.00,0.30,0.30,0.31,0.31,1065,1065,1090,1074
11282,0,0.00,-0.00,0.00,-0.00,0.00,0.00,0.31,0.00,0.00,0.00,0.00,0.00,0.00,0.30,0.30,0.31,0.31,1066,1064,1090,1074
11292,0,0.00,0.00,0.00,0.00,-0.00,0.00,0.31,0.00,0.00,0.00,0.00,0.00,0.00,0.30,0.30,0.31,0.31,1065,1065,1090,1074
11299,0,0.00,0.00,0.00,0.00,0.00,0.00,0.31,0.00,0.00,0.00,0.00,0.00,0.00,0.30,0.30,0.31,0.31,1066,1065,1091,1075
11307,0,0.00,0.00,0.00,0.00,-0.00,0.00,0.31,0.00,0.00,0.00,0.00,0.00,0.00,0.30,0.30,0.31,0.31,1066,1065,1091,1075
11315,0,0.00,0.00,0.00,0.00,0.00,0.00,0.31,0.00,0.00,0.00,0.00,0.00,0.00,0.30,0.30,0.31,0.31,1066,1065,1091,1075
11323,0,0.00,0.00,0.00,-0.00,-0.00,0.00,0.31,0.00,0.00,0.00,0.00,0.00,0.00,0.30,0.30,0.31,0.31,1066,1065,1091,1075
11333,0,0.00,0.00,0.00,-0.00,-0.00,0.00,0.31,0.00,0.00,0.00,0.00,0.00,0.00,0.30,0.30,0.31,0.31,1066,1065,1091,1075
11342,0,0.00,0.00,0.00,0.00,-0.00,-0.00,0.31,0.00,0.00,0.00,0.00,0.00,0.00,0.30,0.30,0.31,0.31,1066,1065,1091,1075
11350,0,0.00,0.00,0.00,0.00,0.00,-0.00,0.31,0.00,0.00,0.00,0.00,0.00,0.00,0.30,0.30,0.31,0.31,1066,1065,1091,1075
11358,0,0.00,0.00,0.00,0.00,-0.00,-0.00,0.31,0.00,0.00,0.00,0.00,0.00,0.00,0.30,0.30,0.31,0.31,1066,1065,1091,1075
11366,0,0.00,0.00,0.00,0.00,0.00,-0.00,0.31,0.00,0.00,0.00,0.00,0.00,0.00,0.30,0.30,0.31,0.31,1066,1065,1091,1075
11374,0,0.00,0.00,0.00,-0.00,0.00,-0.00,0.31,0.00,0.00,0.00,0.00,0.00,0.00,0.30,0.30,0.31,0.31,1066,1065,1091,1075
11383,0,0.00,0.00,0.00,-0.00,0.00,-0.00,0.31,0.00,0.00,0.00,0.00,0.00,0.00,0.30,0.30,0.31,0.31,1066,1065,1091,1075
11393,0,0.00,-0.00,0.00,-0.00,0.00,-0.00,0.31,0.00,0.00,0.00,0.00,0.00,0.00,0.30,0.30,0.31,0.31,1066,1065,1091,1075
11403,0,0.00,-0.00,0.00,-0.00,-0.00,-0.00,0.31,0.00,0.00,0.00,0.00,0.00,0.00,0.30,0.30,0.31,0.31,1066,1065,1091,1075
11413,0,0.00,-0.00,0.00,0.00,0.00,-0.00,0.31,0.00,0.00,0.00,0.00,0.00,0.00,0.30,0.30,0.31,0.31,1066,1065,1091,1075
11422,0,0.00,-0.00,0.00,0.00,-0.00,0.00,0.31,0.00,0.00,0.00,0.00,0.00,0.00,0.30,0.30,0.31,0.31,1066,1065,1091,1075
11432,0,0.00,-0.00,0.00,0.00,0.00,0.00,0.31,0.00,0.00,0.00,0.00,0.00,0.00,0.30,0.30,0.31,0.31,1067,1065,1092,1076
11443,0,0.00,-0.00,0.00,-0.00,0.00,0.00,0.31,0.00,0.00,0.00,0.00,0.00,0.00,0.30,0.30,0.31,0.31,1067,1065,1092,1076
11451,0,0.00,-0.00,0.00,-0.00,-0.00,0.00,0.31,0.00,0.00,0.00,0.00,0.00,0.00,0.30,0.30,0.31,0.31,1067,1065,1092,1076
11459,0,0.00,-0.00,0.00,0.00,0.00,0.00,0.31,0.00,0.00,0.00,0.00,0.00,0.00,0.30,0.30,0.31,0.32,1068,1066,1093,1077
11473,0,0.00,-0.00,0.00,0.00,0.00,-0.00,0.31,0.00,0.00,0.00,0.00,0.00,0.00,0.30,0.30,0.31,0.32,1068,1066,1093,1077
11483,0,0.00,-0.00,0.00,-0.00,-0.00,-0.00,0.31,0.00,0.00,0.00,0.00,0.00,0.00,0.30,0.30,0.31,0.32,1068,1066,1093,1077
11493,0,0.00,-0.00,0.00,-0.00,-0.00,-0.00,0.31,0.00,0.00,0.00,0.00,0.00,0.00,0.30,0.30,0.32,0.32,1067,1066,1093,1077
11501,0,0.00,-0.00,0.00,-0.00,-0.00,0.00,0.31,0.00,0.00,0.00,0.00,0.00,0.00,0.30,0.30,0.32,0.32,1068,1067,1094,1078
11509,0,0.00,-0.00,0.00,0.00,-0.00,0.00,0.31,0.00,0.00,0.00,0.00,0.00,0.00,0.30,0.30,0.32,0.32,1068,1067,1094,1078
11519,0,0.00,-0.00,0.00,0.00,-0.00,0.00,0.31,0.00,0.00,0.00,0.00,0.00,0.00,0.30,0.30,0.32,0.32,1068,1067,1094,1078
11527,0,0.00,-0.00,0.00,-0.00,0.00,0.00,0.31,0.00,0.00,0.00,0.00,0.00,0.00,0.30,0.30,0.32,0.32,1068,1067,1094,1078
11535,0,0.00,0.00,0.00,-0.00,-0.00,0.00,0.31,0.00,0.00,0.00,0.00,0.00,0.00,0.30,0.30,0.32,0.32,1068,1067,1094,1078
11544,0,0.00,0.00,0.00,0.00,-0.00,0.00,0.31,0.00,0.00,0.00,0.00,0.00,0.00,0.30,0.30,0.32,0.32,1068,1067,1094,1078
11553,0,0.00,0.00,0.00,0.00,-0.00,0.00,0.31,0.00,0.00,0.00,0.00,0.00,0.00,0.30,0.30,0.32,0.32,1068,1067,1094,1078
11563,0,0.00,0.00,0.00,0.00,-0.00,0.00,0.31,0.00,0.00,0.00,0.00,0.00,0.00,0.30,0.30,0.32,0.32,1068,1067,1094,1078
11573,0,0.00,0.00,0.00,0.00,0.00,0.00,0.31,0.00,0.00,0.00,0.00,0.00,0.00,0.31,0.30,0.32,0.32,1069,1068,1095,1079
11583,0,0.00,0.00,0.00,-0.00,0.00,-0.00,0.31,0.00,0.00,0.00,0.00,0.00,0.00,0.31,0.30,0.32,0.32,1069,1068,1095,1079
11593,0,0.00,-0.00,0.00,-0.00,0.00,-0.00,0.31,0.00,0.00,0.00,0.00,0.00,0.00,0.31,0.30,0.32,0.32,1069,1068,1095,1079
11601,0,0.00,-0.00,0.00,-0.00,0.00,-0.00,0.31,0.00,0.00,0.00,0.00,0.00,0.00,0.31,0.30,0.32,0.32,1069,1068,1095,1079
11609,0,0.00,-0.00,0.00,0.00,0.00,-0.00,0.31,0.00,0.00,0.00,0.00,0.00,0.00,0.31,0.30,0.32,0.32,1070,1068,1096,1079
11617,0,0.00,-0.00,0.00,0.00,-0.00,-0.00,0.31,0.00,0.00,0.00,0.00,0.00,0.00,0.31,0.30,0.32,0.32,1070,1068,1096,1080
11625,0,0.00,-0.00,0.00,-0.00,-0.00,-0.00,0.31,0.00,0.00,0.00,0.00,0.00,0.00,0.31,0.30,0.32,0.32,1070,1068,1096,1080
11634,0,0.00,-0.00,0.00,-0.00,0.00,-0.00,0.31,0.00,0.00,0.00,0.00,0.00,0.00,0.31,0.30,0.32,0.32,1070,1068,1096,1080
11644,0,0.00,-0.00,0.00,-0.00,0.00,-0.00,0.31,0.00,0.00,0.00,0.00,0.00,0.00,0.31,0.30,0.32,0.32,1070,1068,1096,1080
11653,0,0.00,-0.00,0.00,-0.00,-0.00,-0.00,0.31,0.00,0.00,0.00,0.00,0.00,0.00,0.31,0.30,0.32,0.32,1069,1068,1096,1080
11663,0,0.00,-0.00,0.00,0.00,0.00,-0.00,0.32,0.00,0.00,0.00,0.00,0.00,0.00,0.32,0.32,0.33,0.33,1078,1077,1105,1089
11673,0,0.00,-0.00,0.00,-0.00,0.00,-0.00,0.32,0.00,0.00,0.00,0.00,0.00,0.00,0.32,0.32,0.33,0.33,1080,1079,1107,1090
11683,0,0.00,-0.00,0.00,0.00,0.00,0.00,0.32,0.00,0.00,0.00,0.00,0.00,0.00,0.32,0.32,0.33,0.33,1080,1079,1107,1090
11692,0,0.00,-0.00,0.00,-0.00,-0.00,-0.00,0.32,0.00,0.00,0.00,0.00,0.00,0.00,0.32,0.32,0.33,0.33,1080,1079,1107,1090
11701,0,0.00,-0.00,0.00,-0.00,-0.00,0.00,0.33,0.00,0.00,0.00,0.00,0.00,0.00,0.33,0.32,0.34,0.34,1085,1083,1112,1095
11711,0,0.00,-0.00,0.00,0.00,0.00,0.00,0.33,0.00,0.00,0.00,0.00,0.00,0.00,0.33,0.32,0.34,0.34,1085,1083,1112,1095
11721,0,0.00,-0.00,0.00,0.00,0.00,0.00,0.33,0.00,0.00,0.00,0.00,0.00,0.00,0.33,0.32,0.34,0.34,1085,1083,1112,1095
11731,0,0.00,-0.00,0.00,0.00,0.00,0.00,0.33,0.00,0.00,0.00,0.00,0.00,0.00,0.33,0.32,0.34,0.34,1085,1083,1112,1095
11741,0,0.00,-0.00,0.00,-0.00,-0.00,0.00,0.33,0.00,0.00,0.00,0.00,0.00,0.00,0.33,0.33,0.34,0.34,1087,1085,1113,1097
11749,0,0.00,0.00,0.00,-0.00,-0.00,0.00,0.33,0.00,0.00,0.00,0.00,0.00,0.00,0.33,0.33,0.34,0.34,1087,1086,1114,1098
11761,0,0.00,0.00,0.00,-0.00,-0.00,0.00,0.33,0.00,0.00,0.00,0.00,0.00,0.00,0.33,0.33,0.34,0.34,1087,1086,1114,1098
11773,0,0.00,0.00,0.00,0.00,-0.00,0.00,0.33,0.00,0.00,0.00,0.00,0.00,0.00,0.33,0.33,0.34,0.34,1087,1086,1114,1098
11783,0,0.00,0.00,0.00,0.00,0.00,0.00,0.33,0.00,0.00,0.00,0.00,0.00,0.00,0.33,0.33,0.34,0.34,1087,1086,1114,1098
11793,0,0.00,0.00,0.00,0.00,-0.00,0.00,0.33,0.00,0.00,0.00,0.00,0.00,0.00,0.33,0.33,0.34,0.34,1087,1086,1114,1098
11801,0,0.00,0.00,0.00,-0.00,-0.00,-0.00,0.33,0.00,0.00,0.00,0.00,0.00,0.00,0.33,0.33,0.34,0.34,1087,1086,1114,1098
11809,0,0.00,0.00,0.00,0.00,0.00,-0.00,0.34,0.00,0.00,0.00,0.00,0.00,0.00,0.33,0.33,0.34,0.34,1088,1087,1115,1099
11817,0,0.00,0.00,0.00,0.00,0.00,-0.00,0.34,0.00,0.00,0.00,0.00,0.00,0.00,0.33,0.33,0.34,0.34,1088,1087,1115,1099
11825,0,0.00,-0.00,0.00,0.00,0.00,-0.00,0.34,0.00,0.00,0.00,0.00,0.00,0.00,0.33,0.33,0.34,0.34,1088,1086,1115,1099
11834,0,0.00,-0.00,0.00,0.00,0.00,-0.00,0.34,0.00,0.00,0.00,0.00,0.00,0.00,0.33,0.33,0.34,0.34,1088,1086,1115,1099
11844,0,0.00,-0.00,0.00,0.00,0.00,-0.00,0.34,0.00,0.00,0.00,0.00,0.00,0.00,0.33,0.33,0.34,0.34,1088,1086,1115,1099
