t,is_crashed,roll,pitch,yaw,p,q,r,throttle,p_cmd,q_cmd,r_cmd,roll_cmd,pitch_cmd,yaw_cmd,roll_pid_out,pitch_pid_out,yaw_pid_out,motor_fl,motor_bl,motor_fr,motor_br,pwm_fl,pwm_bl,pwm_fr,pwm_br
6963,0,0.005890,0.006545,0.000000,0.00,-0.00,0.000016,0.004000,-0.000294,-0.000328,0.000000,0.000000,0.000000,0.000000,0.000074,-0.000000,-0.000000,0.000000,0.000000,0.000000,0.000000,0,0,0,0
6974,0,0.009425,0.010472,0.000000,0.00,0.00,0.000031,0.004000,-0.000342,-0.000435,0.000000,0.000000,0.000000,0.000000,0.000489,-0.000000,-0.000000,0.000000,0.000000,0.000000,0.000000,819,819,819,819
6984,0,0.012252,0.013614,0.000000,0.00,0.00,0.000046,0.004000,-0.000383,-0.000522,0.000000,0.000000,0.000000,0.000000,0.000813,-0.000000,-0.000000,0.000000,0.000000,0.000000,0.000000,819,819,819,819
6994,0,0.014514,0.016127,0.000000,0.00,0.00,0.000049,0.004000,-0.000429,-0.000601,0.000000,0.000000,0.000000,0.000000,0.001035,-0.000000,-0.000000,0.000000,0.000000,0.000000,0.000000,819,819,819,819
7004,0,0.016324,0.018137,0.000000,0.00,0.00,0.000037,0.004000,-0.000476,-0.000672,0.000000,0.000000,0.000000,0.000000,0.001181,-0.000000,-0.000000,0.000000,0.000000,0.000000,0.000000,819,819,819,819
7014,0,0.017771,0.019746,0.000000,0.00,0.00,0.000023,0.004000,-0.000525,-0.000735,0.000000,0.000000,0.000000,0.000000,0.001268,-0.000000,-0.000000,0.000000,0.000000,0.000000,0.000000,819,819,819,819
7024,0,0.018929,0.021033,0.000000,0.00,0.00,0.000012,0.004000,-0.000573,-0.000792,0.000000,0.000000,0.000000,0.000000,0.001312,-0.000000,-0.000000,0.000000,0.000000,0.000000,0.000000,819,819,819,819
7034,0,0.019856,0.022062,0.000000,0.00,0.00,0.000010,0.004000,-0.000619,-0.000843,0.000000,0.000000,0.000000,0.000000,0.001322,-0.000000,-0.000000,0.000000,0.000000,0.000000,0.000000,819,819,819,819
7044,0,0.020597,0.022886,0.000000,0.00,0.00,0.000022,0.004000,-0.000664,-0.000890,0.000000,0.000000,0.000000,0.000000,0.001309,-0.000000,-0.000000,0.000000,0.000000,0.000000,0.000000,819,819,819,819
7054,0,0.021190,0.023545,0.000000,0.00,0.00,0.000031,0.004000,-0.000707,-0.000932,0.000000,0.000000,0.000000,0.000000,0.001279,-0.000000,-0.000000,0.000000,0.000000,0.000000,0.000000,819,819,819,819
7064,0,0.021664,0.024072,0.000000,0.00,0.00,0.000041,0.004000,-0.000746,-0.000970,0.000000,0.000000,0.000000,0.000000,0.001240,-0.000000,-0.000000,0.000000,0.000000,0.000000,0.000000,819,819,819,819
7074,0,0.022044,0.024493,0.000000,0.00,0.00,0.000058,0.004000,-0.000784,-0.001004,0.000000,0.000000,0.000000,0.000000,0.001191,-0.000000,-0.000000,0.000000,0.000000,0.000000,0.000000,819,819,819,819
7084,0,0.022348,0.024831,0.000000,0.00,0.00,0.000066,0.004000,-0.000818,-0.001034,0.000000,0.000000,0.000000,0.000000,0.001139,-0.000000,-0.000000,0.000000,0.000000,0.000000,0.000000,819,819,819,819
7094,0,0.022590,0.025101,0.000000,0.00,0.00,0.000045,0.004000,-0.000850,-0.001062,0.000000,0.000000,0.000000,0.000000,0.001085,-0.000000,-0.000000,0.000000,0.000000,0.000000,0.000000,819,819,819,819
7104,0,0.022785,0.025316,0.000000,0.00,0.00,-0.000003,0.004000,-0.000880,-0.001086,0.000000,0.000000,0.000000,0.000000,0.001030,-0.000000,0.000000,0.000000,0.000000,0.000000,0.000000,819,819,819,819
7114,0,0.022940,0.025489,0.000000,0.00,0.00,-0.000057,0.004000,-0.000907,-0.001109,0.000000,0.000000,0.000000,0.000000,0.000976,-0.000000,0.000000,0.000000,0.000000,0.000000,0.000000,819,819,819,819
7124,0,0.023283,0.025627,0.000000,0.00,0.00,-0.000093,0.004000,-0.000935,-0.001129,0.000000,0.000000,0.000000,0.000000,0.000951,-0.000000,0.000000,0.000000,0.000000,0.000000,0.000000,819,819,819,819
7134,0,0.023557,0.025738,0.000000,0.00,0.00,-0.000086,0.004000,-0.000960,-0.001147,0.000000,0.000000,0.000000,0.000000,0.000920,-0.000000,0.000000,0.000000,0.000000,0.000000,0.000000,819,819,819,819
7151,0,0.023776,0.025826,0.000000,0.00,0.00,-0.000054,0.004000,-0.000988,-0.001164,0.000000,0.000000,0.000000,0.000000,0.000875,-0.000000,0.000000,0.000000,0.000000,0.000000,0.000000,819,819,819,819
7163,0,0.023951,0.025897,0.000000,0.00,0.00,-0.000053,0.004000,-0.001011,-0.001178,0.000000,0.000000,0.000000,0.000000,0.000837,-0.000000,0.000000,0.000000,0.000000,0.000000,0.000000,819,819,819,819
7175,0,0.024092,0.025954,0.000000,0.00,0.00,-0.000048,0.004000,-0.001031,-0.001191,0.000000,0.000000,0.000000,0.000000,0.000799,-0.000000,0.000000,0.000000,0.000000,0.000000,0.000000,819,819,819,819
7185,0,0.024204,0.025999,0.000000,0.00,0.00,-0.000040,0.004000,-0.001049,-0.001201,0.000000,0.000000,0.000000,0.000000,0.000765,-0.000000,0.000000,0.000000,0.000000,0.000000,0.000000,819,819,819,819
7194,0,0.024294,0.025817,0.000000,0.00,0.00,-0.000038,0.004000,-0.001067,-0.001205,0.000000,0.000000,0.000000,0.000000,0.000729,-0.000000,0.000000,0.000000,0.000000,0.000000,0.000000,819,819,819,819
7204,0,0.024365,0.025671,0.000000,0.00,0.00,-0.000038,0.004000,-0.001082,-0.001211,0.000000,0.000000,0.000000,0.000000,0.000696,-0.000000,0.000000,0.000000,0.000000,0.000000,0.000000,819,819,819,819
7214,0,0.024423,0.025555,0.000000,0.00,0.00,-0.000029,0.004000,-0.001097,-0.001216,0.000000,0.000000,0.000000,0.000000,0.000663,-0.000000,0.000000,0.000000,0.000000,0.000000,0.000000,819,819,819,819
7224,0,0.024469,0.025462,0.000000,0.00,0.00,0.000023,0.004000,-0.001109,-0.001221,0.000000,0.000000,0.000000,0.000000,0.000633,-0.000000,0.000000,0.000000,0.000000,0.000000,0.000000,819,819,819,819
7235,0,0.024288,0.025387,0.000000,0.00,0.00,0.000079,0.004000,-0.001118,-0.001224,0.000000,0.000000,0.000000,0.000000,0.000579,-0.000000,-0.000000,0.000000,0.000000,0.000000,0.000000,819,819,819,819
7245,0,0.024142,0.025328,0.000000,0.00,0.00,0.000105,0.004000,-0.001127,-0.001227,0.000000,0.000000,0.000000,0.000000,0.000533,-0.000000,-0.000000,0.000000,0.000000,0.000000,0.000000,819,819,819,819
7255,0,0.024026,0.025280,0.000000,0.00,0.00,0.000110,0.004000,-0.001134,-0.001230,0.000000,0.000000,0.000000,0.000000,0.000495,-0.000000,-0.000000,0.000000,0.000000,0.000000,0.000000,819,819,819,819
7265,0,0.023933,0.025242,0.000000,0.00,0.00,0.000103,0.004000,-0.001139,-0.001232,0.000000,0.000000,0.000000,0.000000,0.000465,-0.000000,-0.000000,0.000000,0.000000,0.000000,0.000000,819,819,819,819
7275,0,0.023859,0.025211,0.000000,0.00,0.00,0.000092,0.004000,-0.001144,-0.001233,0.000000,0.000000,0.000000,0.000000,0.000439,-0.000000,-0.000000,0.000000,0.000000,0.000000,0.000000,819,819,819,819
7285,0,0.023800,0.025187,0.000000,0.00,0.00,0.000086,0.004000,-0.001148,-0.001235,0.000000,0.000000,0.000000,0.000000,0.000418,-0.000000,-0.000000,0.000000,0.000000,0.000000,0.000000,819,819,819,819
7295,0,0.023752,0.025167,0.000000,0.00,0.00,0.000082,0.004000,-0.001152,-0.001237,0.000000,0.000000,0.000000,0.000000,0.000400,-0.000000,-0.000000,0.000000,0.000000,0.000000,0.000000,819,819,819,819
7305,0,0.023714,0.025152,0.000000,0.00,0.00,0.000087,0.004000,-0.001155,-0.001239,0.000000,0.000000,0.000000,0.000000,0.000385,-0.000000,-0.000000,0.000000,0.000000,0.000000,0.000000,819,819,819,819
7315,0,0.023684,0.025139,0.000000,0.00,0.00,0.000084,0.004000,-0.001158,-0.001241,0.000000,0.000000,0.000000,0.000000,0.000372,-0.000000,-0.000000,0.000000,0.000000,0.000000,0.000000,819,819,819,819
7325,0,0.023659,0.025129,0.000000,0.00,0.00,0.000058,0.004000,-0.001160,-0.001242,0.000000,0.000000,0.000000,0.000000,0.000363,-0.000000,-0.000000,0.000000,0.000000,0.000000,0.000000,819,819,819,819
7335,0,0.023640,0.025121,0.000000,0.00,0.00,0.000040,0.004000,-0.001162,-0.001243,0.000000,0.000000,0.000000,0.000000,0.000354,-0.000000,-0.000000,0.000000,0.000000,0.000000,0.000000,819,819,819,819
7345,0,0.023624,0.025115,0.000000,0.00,0.00,0.000027,0.004000,-0.001163,-0.001245,0.000000,0.000000,0.000000,0.000000,0.000346,-0.000000,-0.000000,0.000000,0.000000,0.000000,0.000000,819,819,819,819
7355,0,0.023612,0.025110,0.000000,0.00,0.00,-0.000006,0.004000,-0.001165,-0.001246,0.000000,0.000000,0.000000,0.000000,0.000340,-0.000000,0.000000,0.000000,0.000000,0.000000,0.000000,819,819,819,819
7365,0,0.023602,0.025105,0.000000,0.00,0.00,-0.000026,0.004000,-0.001166,-0.001247,0.000000,0.000000,0.000000,0.000000,0.000336,-0.000000,0.000000,0.000000,0.000000,0.000000,0.000000,819,819,819,819
7375,0,0.023594,0.025102,0.000000,0.00,0.00,-0.000036,0.004000,-0.001167,-0.001247,0.000000,0.000000,0.000000,0.000000,0.000331,-0.000000,0.000000,0.000000,0.000000,0.000000,0.000000,819,819,819,819
7385,0,0.023587,0.025100,0.000000,0.00,0.00,-0.000031,0.004000,-0.001168,-0.001248,0.000000,0.000000,0.000000,0.000000,0.000326,-0.000000,0.000000,0.000000,0.000000,0.000000,0.000000,819,819,819,819
7395,0,0.023582,0.025097,0.000000,0.00,0.00,-0.000030,0.004000,-0.001169,-0.001249,0.000000,0.000000,0.000000,0.000000,0.000323,-0.000000,0.000000,0.000000,0.000000,0.000000,0.000000,819,819,819,819
7405,0,0.023578,0.025096,0.000000,0.00,0.00,-0.000012,0.004000,-0.001170,-0.001249,0.000000,0.000000,0.000000,0.000000,0.000320,-0.000000,0.000000,0.000000,0.000000,0.000000,0.000000,819,819,819,819
7415,0,0.023575,0.025094,0.000000,0.00,0.00,-0.000004,0.004000,-0.001171,-0.001249,0.000000,0.000000,0.000000,0.000000,0.000318,-0.000000,0.000000,0.000000,0.000000,0.000000,0.000000,819,819,819,819
7425,0,0.023572,0.025093,0.000000,0.00,0.00,-0.000002,0.004000,-0.001171,-0.001249,0.000000,0.000000,0.000000,0.000000,0.000317,-0.000000,0.000000,0.000000,0.000000,0.000000,0.000000,819,819,819,819
7435,0,0.023570,0.025093,0.000000,0.00,0.00,0.000002,0.004000,-0.001172,-0.001249,0.000000,0.000000,0.000000,0.000000,0.000314,-0.000000,-0.000000,0.000000,0.000000,0.000000,0.000000,819,819,819,819
7445,0,0.023569,0.025092,0.000000,0.00,0.00,0.000013,0.004000,-0.001173,-0.001249,0.000000,0.000000,0.000000,0.000000,0.000312,-0.000000,-0.000000,0.000000,0.000000,0.000000,0.000000,819,819,819,819
7455,0,0.023567,0.025091,0.000000,0.00,0.00,0.000017,0.004000,-0.001173,-0.001250,0.000000,0.000000,0.000000,0.000000,0.000310,-0.000000,-0.000000,0.000000,0.000000,0.000000,0.000000,819,819,819,819
7472,0,0.023566,0.025091,0.000000,0.00,0.00,0.000004,0.004000,-0.001174,-0.001250,0.000000,0.000000,0.000000,0.000000,0.000308,-0.000000,-0.000000,0.000000,0.000000,0.000000,0.000000,819,819,819,819
7485,0,0.023565,0.025091,0.000000,0.00,0.00,-0.000014,0.004000,-0.001174,-0.001250,0.000000,0.000000,0.000000,0.000000,0.000307,-0.000000,0.000000,0.000000,0.000000,0.000000,0.000000,819,819,819,819
7495,0,0.023565,0.025090,0.000000,0.00,0.00,-0.000022,0.004000,-0.001174,-0.001251,0.000000,0.000000,0.000000,0.000000,0.000306,-0.000000,0.000000,0.000000,0.000000,0.000000,0.000000,819,819,819,819
7505,0,0.023564,0.025090,0.000000,0.00,0.00,-0.000025,0.004000,-0.001175,-0.001251,0.000000,0.000000,0.000000,0.000000,0.000305,-0.000000,0.000000,0.000000,0.000000,0.000000,0.000000,819,819,819,819
7515,0,0.023564,0.025090,0.000000,0.00,0.00,-0.000028,0.004000,-0.001175,-0.001252,0.000000,0.000000,0.000000,0.000000,0.000304,-0.000000,0.000000,0.000000,0.000000,0.000000,0.000000,819,819,819,819
7525,0,0.023563,0.025090,0.000000,0.00,0.00,-0.000027,0.004000,-0.001175,-0.001252,0.000000,0.000000,0.000000,0.000000,0.000304,-0.000000,0.000000,0.000000,0.000000,0.000000,0.000000,819,819,819,819
7535,0,0.023563,0.025090,0.000000,0.00,0.00,-0.000019,0.004000,-0.001175,-0.001252,0.000000,0.000000,0.000000,0.000000,0.000303,-0.000000,0.000000,0.000000,0.000000,0.000000,0.000000,819,819,819,819
7545,0,0.023563,0.025089,0.000000,0.00,0.00,-0.000019,0.004000,-0.001175,-0.001253,0.000000,0.000000,0.000000,0.000000,0.000302,-0.000000,0.000000,0.000000,0.000000,0.000000,0.000000,819,819,819,819
7555,0,0.023563,0.025089,0.000000,0.00,0.00,-0.000012,0.004000,-0.001176,-0.001253,0.000000,0.000000,0.000000,0.000000,0.000301,-0.000000,0.000000,0.000000,0.000000,0.000000,0.000000,819,819,819,819
7565,0,0.023563,0.025089,0.000000,0.00,0.00,0.000002,0.004000,-0.001176,-0.001253,0.000000,0.000000,0.000000,0.000000,0.000301,-0.000000,-0.000000,0.000000,0.000000,0.000000,0.000000,819,819,819,819
7575,0,0.023562,0.025089,0.000000,0.00,0.00,0.000016,0.004000,-0.001176,-0.001253,0.000000,0.000000,0.000000,0.000000,0.000300,-0.000000,-0.000000,0.000000,0.000000,0.000000,0.000000,819,819,819,819
7585,0,0.023562,0.025089,0.000000,0.00,0.00,0.000018,0.004000,-0.001176,-0.001253,0.000000,0.000000,0.000000,0.000000,0.000300,-0.000000,-0.000000,0.000000,0.000000,0.000000,0.000000,819,819,819,819
7596,0,0.023562,0.025089,0.000000,0.00,0.00,0.000024,0.004000,-0.001176,-0.001253,0.000000,0.000000,0.000000,0.000000,0.000300,-0.000000,-0.000000,0.000000,0.000000,0.000000,0.000000,819,819,819,819
7605,0,0.023562,0.025089,0.000000,0.00,0.00,0.000021,0.004000,-0.001176,-0.001253,0.000000,0.000000,0.000000,0.000000,0.000300,-0.000000,-0.000000,0.000000,0.000000,0.000000,0.000000,819,819,819,819
7615,0,0.023562,0.025089,0.000000,0.00,0.00,0.000016,0.004000,-0.001176,-0.001254,0.000000,0.000000,0.000000,0.000000,0.000300,-0.000000,-0.000000,0.000000,0.000000,0.000000,0.000000,819,819,819,819
7625,0,0.023562,0.025089,0.000000,0.00,0.00,0.000018,0.004000,-0.001176,-0.001254,0.000000,0.000000,0.000000,0.000000,0.000300,-0.000000,-0.000000,0.000000,0.000000,0.000000,0.000000,819,819,819,819
7636,0,0.023562,0.025089,0.000000,0.00,0.00,0.000020,0.004000,-0.001176,-0.001254,0.000000,0.000000,0.000000,0.000000,0.000299,-0.000000,-0.000000,0.000000,0.000000,0.000000,0.000000,819,819,819,819
7646,0,0.023562,0.025089,0.000000,0.00,0.00,0.000027,0.004000,-0.001177,-0.001254,0.000000,0.000000,0.000000,0.000000,0.000299,-0.000000,-0.000000,0.000000,0.000000,0.000000,0.000000,819,819,819,819
7656,0,0.023562,0.025089,0.000000,0.00,-0.00,0.000037,0.004000,-0.001177,-0.001255,0.000000,0.000000,0.000000,0.000000,0.000299,-0.000000,-0.000000,0.000000,0.000000,0.000000,0.000000,819,819,819,819
7666,0,0.023562,0.025089,0.000000,0.00,-0.00,0.000039,0.004000,-0.001177,-0.001255,0.000000,0.000000,0.000000,0.000000,0.000298,-0.000000,-0.000000,0.000000,0.000000,0.000000,0.000000,819,819,819,819
7676,0,0.023562,0.025089,0.000000,0.00,-0.00,0.000033,0.004000,-0.001177,-0.001255,0.000000,0.000000,0.000000,0.000000,0.000299,-0.000000,-0.000000,0.000000,0.000000,0.000000,0.000000,819,819,819,819
7686,0,0.023562,0.025089,0.000000,0.00,-0.00,0.000016,0.004000,-0.001177,-0.001255,0.000000,0.000000,0.000000,0.000000,0.000299,-0.000000,-0.000000,0.000000,0.000000,0.000000,0.000000,819,819,819,819
7696,0,0.023562,0.025089,0.000000,0.00,-0.00,0.000007,0.004000,-0.001177,-0.001255,0.000000,0.000000,0.000000,0.000000,0.000299,-0.000000,-0.000000,0.000000,0.000000,0.000000,0.000000,819,819,819,819
7706,0,0.023562,0.025089,0.000000,0.00,-0.00,-0.000008,0.004000,-0.001177,-0.001255,0.000000,0.000000,0.000000,0.000000,0.000298,-0.000000,0.000000,0.000000,0.000000,0.000000,0.000000,819,819,819,819
7716,0,0.023562,0.025089,0.000000,0.00,-0.00,-0.000016,0.004000,-0.001177,-0.001255,0.000000,0.000000,0.000000,0.000000,0.000299,-0.000000,0.000000,0.000000,0.000000,0.000000,0.000000,819,819,819,819
7726,0,0.023562,0.025089,0.000000,0.00,-0.00,-0.000020,0.004000,-0.001177,-0.001255,0.000000,0.000000,0.000000,0.000000,0.000298,-0.000000,0.000000,0.000000,0.000000,0.000000,0.000000,819,819,819,819
7736,0,0.023562,0.025089,0.000000,0.00,-0.00,-0.000015,0.004000,-0.001177,-0.001255,0.000000,0.000000,0.000000,0.000000,0.000298,-0.000000,0.000000,0.000000,0.000000,0.000000,0.000000,819,819,819,819
7747,0,0.023562,0.025089,0.000000,0.00,-0.00,-0.000017,0.004000,-0.001177,-0.001254,0.000000,0.000000,0.000000,0.000000,0.000298,-0.000000,0.000000,0.000000,0.000000,0.000000,0.000000,819,819,819,819
7757,0,0.023562,0.025089,0.000000,0.00,0.00,-0.000026,0.004000,-0.001177,-0.001254,0.000000,0.000000,0.000000,0.000000,0.000298,-0.000000,0.000000,0.000000,0.000000,0.000000,0.000000,819,819,819,819
7766,0,0.023562,0.025089,0.000000,0.00,0.00,-0.000035,0.004000,-0.001177,-0.001254,0.000000,0.000000,0.000000,0.000000,0.000298,-0.000000,0.000000,0.000000,0.000000,0.000000,0.000000,819,819,819,819
7776,0,0.023562,0.025089,0.000000,0.00,0.00,-0.000046,0.004000,-0.001177,-0.001254,0.000000,0.000000,0.000000,0.000000,0.000298,-0.000000,0.000000,0.000000,0.000000,0.000000,0.000000,819,819,819,819
7791,0,0.023562,0.025089,0.000000,0.00,0.00,-0.000047,0.004000,-0.001177,-0.001254,0.000000,0.000000,0.000000,0.000000,0.000298,-0.000000,0.000000,0.000000,0.000000,0.000000,0.000000,819,819,819,819
7805,0,0.023562,0.025089,0.000000,0.00,0.00,-0.000046,0.004000,-0.001177,-0.001254,0.000000,0.000000,0.000000,0.000000,0.000298,-0.000000,0.000000,0.000000,0.000000,0.000000,0.000000,819,819,819,819
7816,0,0.023562,0.025089,0.000000,0.00,0.00,-0.000045,0.004000,-0.001177,-0.001254,0.000000,0.000000,0.000000,0.000000,0.000298,-0.000000,0.000000,0.000000,0.000000,0.000000,0.000000,819,819,819,819
7826,0,0.023562,0.025089,0.000000,0.00,0.00,-0.000048,0.004000,-0.001177,-0.001254,0.000000,0.000000,0.000000,0.000000,0.000298,-0.000000,0.000000,0.000000,0.000000,0.000000,0.000000,819,819,819,819
7836,0,0.023562,0.025089,0.000000,0.00,0.00,-0.000054,0.004000,-0.001177,-0.001254,0.000000,0.000000,0.000000,0.000000,0.000298,-0.000000,0.000000,0.000000,0.000000,0.000000,0.000000,819,819,819,819
7847,0,0.023562,0.025089,0.000000,0.00,0.00,-0.000062,0.004000,-0.001177,-0.001254,0.000000,0.000000,0.000000,0.000000,0.000298,-0.000000,0.000000,0.000000,0.000000,0.000000,0.000000,819,819,819,819
7857,0,0.023562,0.025089,0.000000,0.00,0.00,-0.000069,0.004000,-0.001177,-0.001254,0.000000,0.000000,0.000000,0.000000,0.000298,-0.000000,0.000000,0.000000,0.000000,0.000000,0.000000,819,819,819,819
7866,0,0.023562,0.025089,0.000000,0.00,0.00,-0.000066,0.004000,-0.001177,-0.001254,0.000000,0.000000,0.000000,0.000000,0.000298,-0.000000,0.000000,0.000000,0.000000,0.000000,0.000000,819,819,819,819
7876,0,0.023562,0.025089,0.000000,0.00,0.00,-0.000060,0.004000,-0.001177,-0.001254,0.000000,0.000000,0.000000,0.000000,0.000299,-0.000000,0.000000,0.000000,0.000000,0.000000,0.000000,819,819,819,819
7886,0,0.023562,0.025089,0.000000,0.00,0.00,-0.000048,0.004000,-0.001177,-0.001254,0.000000,0.000000,0.000000,0.000000,0.000298,-0.000000,0.000000,0.000000,0.000000,0.000000,0.000000,819,819,819,819
7896,0,0.023562,0.025089,0.000000,0.00,0.00,-0.000031,0.004000,-0.001177,-0.001254,0.000000,0.000000,0.000000,0.000000,0.000297,-0.000000,0.000000,0.000000,0.000000,0.000000,0.000000,819,819,819,819
7906,0,0.023562,0.025089,0.000000,0.00,0.00,-0.000016,0.004000,-0.001177,-0.001254,0.000000,0.000000,0.000000,0.000000,0.000298,-0.000000,0.000000,0.000000,0.000000,0.000000,0.000000,819,819,819,819
7916,0,0.023562,0.025089,0.000000,0.00,0.00,-0.000003,0.004000,-0.001177,-0.001253,0.000000,0.000000,0.000000,0.000000,0.000297,-0.000000,0.000000,0.000000,0.000000,0.000000,0.000000,819,819,819,819
7926,0,0.023562,0.025089,0.000000,0.00,0.00,-0.000003,0.004000,-0.001177,-0.001253,0.000000,0.000000,0.000000,0.000000,0.000298,-0.000000,0.000000,0.000000,0.000000,0.000000,0.000000,819,819,819,819
7936,0,0.023562,0.025089,0.000000,0.00,0.00,-0.000006,0.004000,-0.001177,-0.001253,0.000000,0.000000,0.000000,0.000000,0.000298,-0.000000,0.000000,0.000000,0.000000,0.000000,0.000000,819,819,819,819
7946,0,0.023562,0.025089,0.000000,0.00,0.00,-0.000007,0.004000,-0.001177,-0.001253,0.000000,0.000000,0.000000,0.000000,0.000298,-0.000000,0.000000,0.000000,0.000000,0.000000,0.000000,819,819,819,819
7956,0,0.023562,0.025089,0.000000,0.00,0.00,-0.000007,0.004000,-0.001177,-0.001253,0.000000,0.000000,0.000000,0.000000,0.000298,-0.000000,0.000000,0.000000,0.000000,0.000000,0.000000,819,819,819,819
7966,0,0.023562,0.025089,0.000000,0.00,0.00,-0.000012,0.004000,-0.001177,-0.001253,0.000000,0.000000,0.000000,0.000000,0.000298,-0.000000,0.000000,0.000000,0.000000,0.000000,0.000000,819,819,819,819
7976,0,0.023562,0.025089,0.000000,0.00,0.00,-0.000014,0.004000,-0.001177,-0.001253,0.000000,0.000000,0.000000,0.000000,0.000298,-0.000000,0.000000,0.000000,0.000000,0.000000,0.000000,819,819,819,819
7986,0,0.023562,0.025089,0.000000,0.00,0.00,-0.000018,0.004000,-0.001177,-0.001253,0.000000,0.000000,0.000000,0.000000,0.000298,-0.000000,0.000000,0.000000,0.000000,0.000000,0.000000,819,819,819,819
7997,0,0.023562,0.025089,0.000000,0.00,0.00,-0.000027,0.004000,-0.001177,-0.001253,0.000000,0.000000,0.000000,0.000000,0.000297,-0.000000,0.000000,0.000000,0.000000,0.000000,0.000000,819,819,819,819
8006,0,0.023562,0.025089,0.000000,0.00,0.00,-0.000039,0.004000,-0.001177,-0.001253,0.000000,0.000000,0.000000,0.000000,0.000297,-0.000000,0.000000,0.000000,0.000000,0.000000,0.000000,819,819,819,819
8017,0,0.023562,0.025089,0.000000,0.00,0.00,-0.000046,0.004000,-0.001177,-0.001253,0.000000,0.000000,0.000000,0.000000,0.000297,-0.000000,0.000000,0.000000,0.000000,0.000000,0.000000,819,819,819,819
8026,0,0.023562,0.025089,0.000000,0.00,0.00,-0.000047,0.004000,-0.001177,-0.001253,0.000000,0.000000,0.000000,0.000000,0.000297,-0.000000,0.000000,0.000000,0.000000,0.000000,0.000000,819,819,819,819
8037,0,0.023562,0.025089,0.000000,0.00,0.00,-0.000050,0.004000,-0.001177,-0.001254,0.000000,0.000000,0.000000,0.000000,0.000298,-0.000000,0.000000,0.000000,0.000000,0.000000,0.000000,819,819,819,819
8047,0,0.023562,0.025089,0.000000,0.00,0.00,-0.000051,0.004000,-0.001177,-0.001254,0.000000,0.000000,0.000000,0.000000,0.000298,-0.000000,0.000000,0.000000,0.000000,0.000000,0.000000,819,819,819,819
8057,0,0.023562,0.025089,0.000000,0.00,0.00,-0.000057,0.004000,-0.001177,-0.001254,0.000000,0.000000,0.000000,0.000000,0.000298,-0.000000,0.000000,0.000000,0.000000,0.000000,0.000000,819,819,819,819
8067,0,0.023562,0.025089,0.000000,0.00,0.00,-0.000079,0.004000,-0.001176,-0.001254,0.000000,0.000000,0.000000,0.000000,0.000299,-0.000000,0.000000,0.000000,0.000000,0.000000,0.000000,819,819,819,819
8077,0,0.023780,0.025089,0.000000,0.00,0.00,-0.000096,0.004000,-0.001179,-0.001254,0.000000,0.000000,0.000000,0.000000,0.000327,-0.000000,0.000000,0.000000,0.000000,0.000000,0.000000,819,819,819,819
8087,0,0.023955,0.025089,0.000000,0.00,0.00,-0.000113,0.004000,-0.001182,-0.001254,0.000000,0.000000,0.000000,0.000000,0.000346,-0.000000,0.000000,0.000000,0.000000,0.000000,0.000000,819,819,819,819
8104,0,0.024094,0.025089,0.000000,0.00,0.00,-0.000118,0.004000,-0.001187,-0.001254,0.000000,0.000000,0.000000,0.000000,0.000353,-0.000000,0.000000,0.000000,0.000000,0.000000,0.000000,819,819,819,819
8116,0,0.024206,0.025089,0.000000,0.00,0.00,-0.000114,0.004000,-0.001191,-0.001254,0.000000,0.000000,0.000000,0.000000,0.000359,-0.000000,0.000000,0.000000,0.000000,0.000000,0.000000,819,819,819,819
8127,0,0.024295,0.025089,0.000000,0.00,0.00,-0.000094,0.004000,-0.001194,-0.001254,0.000000,0.000000,0.000000,0.000000,0.000364,-0.000000,0.000000,0.000000,0.000000,0.000000,0.000000,819,819,819,819
8137,0,0.024367,0.025089,0.000000,0.00,0.00,-0.000071,0.004000,-0.001197,-0.001254,0.000000,0.000000,0.000000,0.000000,0.000367,-0.000000,0.000000,0.000000,0.000000,0.000000,0.000000,819,819,819,819
8147,0,0.024424,0.025089,0.000000,0.00,0.00,-0.000059,0.004000,-0.001199,-0.001254,0.000000,0.000000,0.000000,0.000000,0.000368,-0.000000,0.000000,0.000000,0.000000,0.000000,0.000000,819,819,819,819
8157,0,0.024470,0.025089,0.000000,0.00,0.00,-0.000060,0.004000,-0.001202,-0.001254,0.000000,0.000000,0.000000,0.000000,0.000367,-0.000000,0.000000,0.000000,0.000000,0.000000,0.000000,819,819,819,819
8167,0,0.024506,0.025089,0.000000,0.00,0.00,-0.000069,0.004000,-0.001204,-0.001254,0.000000,0.000000,0.000000,0.000000,0.000367,-0.000000,0.000000,0.000000,0.000000,0.000000,0.000000,819,819,819,819
8177,0,0.024536,0.025089,0.000000,0.00,0.00,-0.000070,0.005000,-0.001206,-0.001254,0.000000,0.000000,0.000000,0.000000,0.000365,-0.000000,0.000000,0.000000,0.000000,0.000000,0.000000,819,819,819,819
8187,0,0.024559,0.025089,0.000000,0.00,0.00,-0.000058,0.005000,-0.001209,-0.001254,0.000000,0.000000,0.000000,0.000000,0.000363,-0.000000,0.000000,0.000000,0.000000,0.000000,0.000000,819,819,819,819
8197,0,0.024578,0.025089,0.000000,0.00,0.00,-0.000045,0.005000,-0.001211,-0.001254,0.000000,0.000000,0.000000,0.000000,0.000360,-0.000000,0.000000,0.000000,0.000000,0.000000,0.000000,819,819,819,819
8207,0,0.024593,0.025089,0.000000,0.00,0.00,-0.000024,0.005000,-0.001213,-0.001254,0.000000,0.000000,0.000000,0.000000,0.000357,-0.000000,0.000000,0.000000,0.000000,0.000000,0.000000,819,819,819,819
8217,0,0.024605,0.025089,0.000000,0.00,0.00,-0.000004,0.005000,-0.001214,-0.001254,0.000000,0.000000,0.000000,0.000000,0.000354,-0.000000,0.000000,0.000000,0.000000,0.000000,0.000000,819,819,819,819
8227,0,0.024614,0.025089,0.000000,0.00,0.00,0.000011,0.055000,-0.001215,-0.001254,0.000000,0.000000,0.000000,0.000000,0.000351,-0.000000,0.000000,0.054649,0.054649,0.055351,0.055351,863,884,864,884
8237,0,0.024622,0.025089,0.000000,0.00,0.00,0.000017,0.065000,-0.001217,-0.001253,0.000000,0.000000,0.000000,0.000000,0.000349,-0.000000,0.000000,0.064651,0.064651,0.065349,0.065349,872,892,872,893
8247,0,0.024628,0.025089,0.000000,0.00,0.00,0.000010,0.065000,-0.001218,-0.001254,0.000000,0.000000,0.000000,0.000000,0.000345,-0.000000,0.000000,0.064655,0.064655,0.065345,0.065345,872,892,872,893
8257,0,0.024633,0.025089,0.000000,0.00,0.00,-0.000007,0.065000,-0.001220,-0.001254,0.000000,0.000000,0.000000,0.000000,0.000342,-0.000000,0.000000,0.064658,0.064658,0.065342,0.065342,872,892,872,893
8267,0,0.024637,0.025089,0.000000,0.00,0.00,-0.000019,0.090000,-0.001221,-0.001254,0.000000,0.000000,0.000000,0.000000,0.000340,-0.000000,0.000000,0.089660,0.089660,0.090340,0.090340,892,913,893,913
8277,0,0.024640,0.025089,0.000000,0.00,0.00,-0.000025,0.090000,-0.001221,-0.001253,0.000000,0.000000,0.000000,0.000000,0.000338,-0.000000,0.000000,0.089662,0.089662,0.090338,0.090338,892,913,893,913
8288,0,0.024643,0.025089,0.000000,0.00,0.00,-0.000006,0.090000,-0.001223,-0.001254,0.000000,0.000000,0.000000,0.000000,0.000336,-0.000000,0.000000,0.089664,0.089664,0.090336,0.090336,892,913,893,913
8297,0,0.024645,0.025089,0.000000,0.00,-0.00,0.000011,0.090000,-0.001224,-0.001255,0.000000,0.000000,0.000000,0.000000,0.000333,-0.000000,0.000000,0.089667,0.089667,0.090333,0.090333,892,913,893,913
8307,0,0.024646,0.025089,0.000000,0.00,-0.00,-0.000026,0.101000,-0.001225,-0.001254,0.000000,0.000000,0.000000,0.000000,0.000330,-0.000000,0.000000,0.100670,0.100670,0.101330,0.101330,901,922,902,922
8317,0,0.024648,0.025089,0.000000,0.00,-0.00,-0.000018,0.101000,-0.001226,-0.001255,0.000000,0.000000,0.000000,0.000000,0.000328,-0.000000,0.000000,0.100672,0.100672,0.101328,0.101328,901,922,902,922
8327,0,0.024649,0.025089,0.000000,0.00,-0.00,-0.000006,0.102000,-0.001227,-0.001255,0.000000,0.000000,0.000000,0.000000,0.000324,-0.000000,0.000000,0.101676,0.101676,0.102324,0.102324,902,922,902,923
8337,0,0.024649,0.025089,0.000000,0.00,-0.00,-0.000014,0.102000,-0.001227,-0.001255,0.000000,0.000000,0.000000,0.000000,0.000323,-0.000000,0.000000,0.101677,0.101677,0.102323,0.102323,902,922,902,923
8348,0,0.024650,0.025089,0.000000,0.00,-0.00,0.000009,0.102000,-0.001228,-0.001254,0.000000,0.000000,0.000000,0.000000,0.000322,-0.000000,0.000000,0.101678,0.101678,0.102322,0.102322,902,922,902,923
8358,0,0.024651,0.025089,0.000000,0.00,-0.00,0.000021,0.104000,-0.001228,-0.001255,0.000000,0.000000,0.000000,0.000000,0.000321,-0.000000,0.000000,0.103679,0.103679,0.104321,0.104321,904,924,904,925
8368,0,0.024651,0.025089,0.000000,0.00,0.00,0.000024,0.103000,-0.001228,-0.001254,0.000000,0.000000,0.000000,0.000000,0.000321,-0.000000,0.000000,0.102679,0.102679,0.103321,0.103321,903,923,903,924
8378,0,0.024651,0.025089,0.000000,0.00,-0.00,0.000009,0.103000,-0.001229,-0.001255,0.000000,0.000000,0.000000,0.000000,0.000319,-0.000000,0.000000,0.102681,0.102681,0.103319,0.103319,903,923,903,924
8388,0,0.024652,0.025089,0.000000,0.00,-0.00,-0.000028,0.103000,-0.001229,-0.001255,0.000000,0.000000,0.000000,0.000000,0.000319,-0.000000,0.000000,0.102681,0.102681,0.103319,0.103319,903,923,903,924
8398,0,0.024652,0.025089,0.000000,0.00,0.00,-0.000070,0.105000,-0.001228,-0.001254,0.000000,0.000000,0.000000,0.000000,0.000321,-0.000000,0.000000,0.104679,0.104679,0.105321,0.105321,904,925,905,925
8407,0,0.024870,0.025089,0.000000,0.00,0.00,-0.000107,0.105000,-0.001229,-0.001254,0.000000,0.000000,0.000000,0.000000,0.000354,-0.000000,0.000000,0.104646,0.104646,0.105354,0.105354,904,925,905,925
8424,0,0.025045,0.025089,0.000000,0.00,0.00,-0.000133,0.105000,-0.001234,-0.001254,0.000000,0.000000,0.000000,0.000000,0.000366,-0.000000,0.000000,0.104634,0.104634,0.105366,0.105366,904,925,905,925
8436,0,0.025185,0.025089,0.000000,0.00,0.00,-0.000169,0.105000,-0.001238,-0.001254,0.000000,0.000000,0.000000,0.000000,0.000377,-0.000000,0.000000,0.104623,0.104623,0.105377,0.105377,904,925,905,925
8447,0,0.025515,0.025089,0.000000,0.00,0.00,-0.000200,0.106000,-0.001243,-0.001254,0.000000,0.000000,0.000000,0.000000,0.000413,-0.000000,0.000000,0.105587,0.105587,0.106413,0.106413,905,926,906,926
8457,0,0.025779,0.025089,0.000000,0.00,0.00,-0.000203,0.106000,-0.001247,-0.001254,0.000000,0.000000,0.000000,0.000000,0.000443,-0.000000,0.000000,0.105557,0.105557,0.106443,0.106443,905,926,906,926
8467,0,0.025990,0.025089,0.000000,0.00,0.00,-0.000176,0.106000,-0.001251,-0.001254,0.000000,0.000000,0.000000,0.000000,0.000464,-0.000000,0.000000,0.105536,0.105536,0.106464,0.106464,905,926,906,926
8478,0,0.026159,0.025089,1.256419,0.00,0.00,-0.000122,0.106000,-0.001256,-0.001253,0.000000,0.000000,0.000000,0.000000,0.000476,-0.000000,0.000000,0.105524,0.105524,0.106476,0.106476,905,926,906,926
8488,0,0.026294,0.025089,2.261554,0.00,0.00,-0.000045,0.106000,-0.001259,-0.001253,0.000000,0.000000,0.000000,0.000000,0.000488,-0.000000,0.000000,0.105512,0.105512,0.106488,0.106488,905,926,906,926
8498,0,0.026184,0.025089,3.065662,0.00,0.00,0.000012,0.106000,-0.001258,-0.001253,0.000000,0.000000,0.000000,0.000000,0.000473,-0.000000,0.000000,0.105527,0.105527,0.106473,0.106473,905,926,906,926
8508,0,0.026096,0.025089,-2.574237,0.00,0.00,0.000025,0.106000,-0.001256,-0.001252,0.000000,0.000000,0.000000,0.000000,0.000467,-0.000000,0.000000,0.105533,0.105533,0.106467,0.106467,905,926,906,926
8518,0,0.026025,0.025089,-2.059825,0.00,0.00,-0.000084,0.106000,-0.001256,-0.001252,0.000000,0.000000,0.000000,0.000000,0.000455,-0.000000,0.000000,0.105545,0.105545,0.106455,0.106455,905,926,906,926
8528,0,0.026187,0.025089,-1.648296,0.00,0.00,-0.000264,0.106000,-0.001263,-0.001251,0.000000,0.000000,0.000000,0.000000,0.000461,-0.000000,0.000000,0.105539,0.105539,0.106461,0.106461,905,926,906,926
8538,0,0.026535,0.025089,-1.319073,0.00,0.00,-0.000378,0.106000,-0.001274,-0.001251,0.000000,0.000000,0.000000,0.000000,0.000484,-0.000000,0.000000,0.105516,0.105516,0.106484,0.106484,905,926,906,926
8548,0,0.026813,0.025089,-1.055695,0.00,0.00,-0.000370,0.106000,-0.001285,-0.001252,0.000000,0.000000,0.000000,0.000000,0.000495,-0.000000,0.000000,0.105505,0.105505,0.106495,0.106495,905,926,906,926
8558,0,0.027254,0.025089,-0.844992,0.00,0.00,-0.000253,0.106000,-0.001298,-0.001253,0.000000,0.000000,0.000000,0.000000,0.000525,-0.000000,0.000000,0.105475,0.105475,0.106525,0.106525,905,926,906,926
8568,0,0.027388,0.025089,-0.676212,0.00,0.00,-0.000110,0.107000,-0.001309,-0.001253,0.000000,0.000000,0.000000,0.000000,0.000517,-0.000000,0.000000,0.106483,0.106483,0.107517,0.107517,906,926,907,927
8578,0,0.027277,0.025089,-0.541188,0.00,0.00,-0.000012,0.107000,-0.001317,-0.001253,0.000000,0.000000,0.000000,0.000000,0.000476,-0.000000,0.000000,0.106524,0.106524,0.107476,0.107476,906,926,907,927
8588,0,0.027189,0.025089,-0.433169,0.00,0.00,0.000012,0.107000,-0.001324,-0.001253,0.000000,0.000000,0.000000,0.000000,0.000441,-0.000000,0.000000,0.106559,0.106559,0.107441,0.107441,906,926,907,927
8598,0,0.027118,0.025089,-0.346753,0.00,0.00,0.000013,0.115000,-0.001332,-0.001252,0.000000,0.000000,0.000000,0.000000,0.000409,-0.000000,0.000000,0.114591,0.114591,0.115409,0.115409,913,933,913,934
8608,0,0.027061,0.025089,-1.534039,0.00,0.00,0.000023,0.115000,-0.001339,-0.001251,0.000000,0.000000,0.000000,0.000000,0.000378,-0.000000,0.000000,0.114622,0.114622,0.115378,0.115378,913,933,913,934
8618,0,0.027016,0.025089,-2.483869,0.00,0.00,0.000026,0.115000,-0.001345,-0.001251,0.000000,0.000000,0.000000,0.000000,0.000354,-0.000000,0.000000,0.114646,0.114646,0.115354,0.115354,913,933,913,934
8628,0,0.026761,0.025089,3.039454,-0.00,0.00,-0.000006,0.118000,-0.001348,-0.001252,0.000000,0.000000,0.000000,0.000000,0.000305,-0.000000,0.000000,0.117695,0.117695,0.118305,0.118305,915,936,916,936
8639,0,0.026558,0.025089,2.431781,-0.00,0.00,-0.000036,0.119000,-0.001351,-0.001252,0.000000,0.000000,0.000000,0.000000,0.000266,-0.000000,0.000000,0.118734,0.118734,0.119266,0.119266,916,936,916,937
8651,0,0.026613,0.025089,1.945643,-0.00,0.00,-0.000038,0.119000,-0.001355,-0.001253,0.000000,0.000000,0.000000,0.000000,0.000263,-0.000000,0.000000,0.118737,0.118737,0.119263,0.119263,916,936,916,937
8660,0,0.026657,0.025089,1.556951,-0.00,0.00,-0.000031,0.119000,-0.001357,-0.001254,0.000000,0.000000,0.000000,0.000000,0.000265,-0.000000,0.000000,0.118735,0.118735,0.119265,0.119265,916,936,916,937
8669,0,0.026693,0.025089,1.245997,-0.00,0.00,-0.000015,0.119000,-0.001359,-0.001254,0.000000,0.000000,0.000000,0.000000,0.000265,-0.000000,0.000000,0.118735,0.118735,0.119265,0.119265,916,936,916,937
8679,0,0.026503,0.025089,0.997234,-0.00,-0.00,0.000024,0.119000,-0.001357,-0.001255,0.000000,0.000000,0.000000,0.000000,0.000240,-0.000000,0.000000,0.118760,0.118760,0.119240,0.119240,916,936,916,937
8689,0,0.026351,0.025089,0.798223,-0.00,0.00,0.000064,0.120000,-0.001356,-0.001254,0.000000,0.000000,0.000000,0.000000,0.000220,-0.000000,0.000000,0.119780,0.119780,0.120220,0.120220,917,937,917,938
8698,0,0.026230,0.025089,0.639015,-0.00,0.00,0.000114,0.120000,-0.001354,-0.001254,0.000000,0.000000,0.000000,0.000000,0.000206,-0.000000,0.000000,0.119794,0.119794,0.120206,0.120206,917,937,917,938
8709,0,0.026132,0.025089,0.511867,-0.00,0.00,0.000155,0.120000,-0.001350,-0.001254,0.000000,0.000000,0.000000,0.000000,0.000202,-0.000000,0.000000,0.119798,0.119798,0.120202,0.120202,917,937,917,938
8719,0,0.026055,0.025089,0.410148,-0.00,0.00,0.000159,0.120000,-0.001346,-0.001253,0.000000,0.000000,0.000000,0.000000,0.000200,-0.000000,0.000000,0.119800,0.119800,0.120200,0.120200,917,937,917,938
8736,0,0.025774,0.025089,0.328773,-0.00,0.00,0.000178,0.122000,-0.001336,-0.001254,0.000000,0.000000,0.000000,0.000000,0.000185,-0.000000,0.000000,0.121815,0.121815,0.122185,0.122185,918,939,919,939
8748,0,0.025550,0.025089,0.263673,-0.00,-0.00,0.000159,0.123000,-0.001330,-0.001256,0.000000,0.000000,0.000000,0.000000,0.000168,-0.000000,0.000000,0.122832,0.122832,0.123168,0.123168,919,940,920,940
8758,0,0.025371,0.025089,0.211593,-0.00,-0.00,0.000141,0.123000,-0.001324,-0.001256,0.000000,0.000000,0.000000,0.000000,0.000157,-0.000000,0.000000,0.122843,0.122843,0.123157,0.123157,919,940,920,940
8768,0,0.025227,0.025089,0.169929,-0.00,-0.00,0.000125,0.127000,-0.001318,-0.001255,0.000000,0.000000,0.000000,0.000000,0.000153,-0.000000,0.000000,0.126847,0.126847,0.127153,0.127153,923,943,923,943
8778,0,0.025112,0.025089,0.136597,-0.00,-0.00,0.000088,0.127000,-0.001312,-0.001255,0.000000,0.000000,0.000000,0.000000,0.000152,-0.000000,0.000000,0.126848,0.126848,0.127152,0.127152,923,943,923,943
8789,0,0.025020,0.025089,0.109932,-0.00,0.00,0.000114,0.127000,-0.001306,-0.001254,0.000000,0.000000,0.000000,0.000000,0.000155,-0.000000,0.000000,0.126845,0.126845,0.127155,0.127155,923,943,923,943
8799,0,0.024947,0.025089,0.088600,-0.00,-0.00,0.000183,0.133000,-0.001301,-0.001255,0.000000,0.000000,0.000000,0.000000,0.000158,-0.000000,0.000000,0.132842,0.132842,0.133158,0.133158,927,948,928,948
8809,0,0.024888,0.025089,0.071535,-0.00,-0.00,0.000227,0.133000,-0.001297,-0.001255,0.000000,0.000000,0.000000,0.000000,0.000160,-0.000000,0.000000,0.132840,0.132840,0.133160,0.133160,927,948,928,948
8819,0,0.024623,0.025089,0.057882,-0.00,-0.00,0.000247,0.133000,-0.001291,-0.001255,0.000000,0.000000,0.000000,0.000000,0.000136,-0.000000,0.000000,0.132864,0.132864,0.133136,0.133136,927,948,928,948
8829,0,0.024411,0.025089,0.046960,-0.00,0.00,0.000271,0.134000,-0.001284,-0.001254,0.000000,0.000000,0.000000,0.000000,0.000121,-0.000000,0.000000,0.133879,0.133879,0.134121,0.134121,928,949,929,949
8839,0,0.024241,0.025089,0.038223,-0.00,-0.00,0.000355,0.134000,-0.001278,-0.001255,0.000000,0.000000,0.000000,0.000000,0.000113,-0.000000,0.000000,0.133887,0.133887,0.134113,0.134113,928,949,929,949
8848,0,0.023887,0.025089,0.031451,-0.00,-0.00,0.000358,0.134000,-0.001273,-0.001254,0.000000,0.000000,0.000000,0.000000,0.000072,-0.000000,0.000000,0.133928,0.133928,0.134072,0.134072,928,949,928,949
8859,0,0.023604,0.025089,0.026033,-0.00,0.00,0.000286,0.135000,-0.001264,-0.001254,0.000000,0.000000,0.000000,0.000000,0.000053,-0.000000,0.000000,0.134947,0.134947,0.135053,0.135053,929,950,929,950
8869,0,0.023377,0.025089,0.021699,-0.00,0.00,0.000206,0.136000,-0.001256,-0.001253,0.000000,0.000000,0.000000,0.000000,0.000041,-0.000000,0.000000,0.135959,0.135959,0.136041,0.136041,930,950,930,951
8879,0,0.023196,0.025089,0.018232,-0.00,0.00,0.000152,0.136000,-0.001246,-0.001253,0.000000,0.000000,0.000000,0.000000,0.000041,-0.000000,0.000000,0.135959,0.135959,0.136041,0.136041,930,950,930,951
8889,0,0.023269,0.025089,0.015458,-0.00,0.00,0.000109,0.136000,-0.001238,-0.001254,0.000000,0.000000,0.000000,0.000000,0.000076,-0.000000,0.000000,0.135924,0.135924,0.136076,0.136076,930,950,930,951
8899,0,0.023328,0.025089,0.013239,-0.00,-0.00,0.000088,0.136000,-0.001233,-0.001255,0.000000,0.000000,0.000000,0.000000,0.000101,-0.000000,0.000000,0.135899,0.135899,0.136101,0.136101,930,950,930,951
8909,0,0.023375,0.025089,0.011464,-0.00,-0.00,0.000088,0.136000,-0.001229,-0.001255,0.000000,0.000000,0.000000,0.000000,0.000119,-0.000000,0.000000,0.135881,0.135881,0.136119,0.136119,930,950,930,951
8919,0,0.023412,0.025089,0.010044,-0.00,0.00,0.000042,0.136000,-0.001227,-0.001254,0.000000,0.000000,0.000000,0.000000,0.000131,-0.000000,-0.000000,0.135869,0.135869,0.136131,0.136131,930,950,930,951
8929,0,0.023442,0.025089,0.009126,-0.00,0.00,0.000096,0.142000,-0.001224,-0.001253,0.000000,0.000000,0.000000,0.000000,0.000144,-0.000000,-0.000000,0.141856,0.141856,0.142144,0.142144,935,955,935,956
8939,0,0.023466,0.025089,0.008392,-0.00,0.00,0.000074,0.143000,-0.001221,-0.001253,0.000000,0.000000,0.000000,0.000000,0.000156,-0.000000,-0.000000,0.142844,0.142844,0.143156,0.143156,936,956,936,956
8949,0,0.023485,0.025089,0.007804,-0.00,0.00,0.000047,0.143000,-0.001216,-0.001254,0.000000,0.000000,0.000000,0.000000,0.000175,-0.000000,-0.000000,0.142825,0.142825,0.143175,0.143175,936,956,936,956
8959,0,0.023501,0.025089,0.007334,-0.00,0.00,0.000050,0.143000,-0.001211,-0.001253,0.000000,0.000000,0.000000,0.000000,0.000191,-0.000000,-0.000000,0.142809,0.142809,0.143191,0.143191,936,956,936,956
8969,0,0.023513,0.025089,0.006958,-0.00,0.00,0.000042,0.143000,-0.001208,-0.001254,0.000000,0.000000,0.000000,0.000000,0.000202,-0.000000,-0.000000,0.142798,0.142798,0.143202,0.143202,936,956,936,956
8979,0,0.023523,0.025089,0.006657,-0.00,0.00,0.000095,0.143000,-0.001205,-0.001253,0.000000,0.000000,0.000000,0.000000,0.000212,-0.000000,-0.000000,0.142788,0.142788,0.143212,0.143212,936,956,936,956
8989,0,0.023531,0.025089,0.006417,-0.00,0.00,0.000110,0.144000,-0.001202,-0.001253,0.000000,0.000000,0.000000,0.000000,0.000222,-0.000000,-0.000000,0.143778,0.143778,0.144222,0.144222,936,957,937,957
8999,0,0.023319,0.025089,0.006224,-0.00,0.00,0.000043,0.144000,-0.001196,-0.001254,0.000000,0.000000,0.000000,0.000000,0.000204,-0.000000,-0.000000,0.143796,0.143796,0.144204,0.144204,936,957,937,957
9009,0,0.023367,0.025089,0.006070,-0.00,0.00,0.000030,0.144000,-0.001196,-0.001253,0.000000,0.000000,0.000000,0.000000,0.000213,-0.000000,-0.000000,0.143787,0.143787,0.144213,0.144213,936,957,937,957
9019,0,0.023406,0.025089,0.005947,-0.00,0.00,0.000011,0.144000,-0.001195,-0.001252,0.000000,0.000000,0.000000,0.000000,0.000220,-0.000000,-0.000000,0.143780,0.143780,0.144220,0.144220,936,957,937,957
9029,0,0.023437,0.025089,0.005848,-0.00,0.00,0.000073,0.146000,-0.001193,-0.001251,0.000000,0.000000,0.000000,0.000000,0.000231,-0.000000,-0.000000,0.145769,0.145769,0.146231,0.146231,938,959,938,959
9041,0,0.023244,0.025089,0.005770,-0.00,0.00,0.000070,0.146000,-0.001186,-0.001253,0.000000,0.000000,0.000000,0.000000,0.000221,-0.000000,-0.000000,0.145779,0.145779,0.146221,0.146221,938,959,938,959
9058,0,0.023090,0.025089,0.005706,-0.00,-0.00,0.000087,0.150000,-0.001179,-0.001255,0.000000,0.000000,0.000000,0.000000,0.000218,-0.000000,-0.000000,0.149782,0.149782,0.150218,0.150218,941,962,942,962
9069,0,0.022966,0.025089,0.005656,-0.00,0.00,0.000126,0.152000,-0.001177,-0.001253,0.000000,0.000000,0.000000,0.000000,0.000205,-0.000000,-0.000000,0.151795,0.151795,0.152205,0.152205,943,963,943,964
9079,0,0.022649,0.025089,0.005616,-0.00,0.00,0.000215,0.152000,-0.001170,-0.001253,0.000000,0.000000,0.000000,0.000000,0.000176,-0.000000,-0.000000,0.151824,0.151824,0.152176,0.152176,943,963,943,964
9089,0,0.022395,0.025089,0.005583,-0.00,-0.00,0.000240,0.155000,-0.001162,-0.001256,0.000000,0.000000,0.000000,0.000000,0.000158,-0.000000,-0.000000,0.154842,0.154842,0.155158,0.155158,945,966,946,966
9099,0,0.022192,0.025089,0.005558,-0.00,-0.00,0.000262,0.156000,-0.001155,-0.001260,0.000000,0.000000,0.000000,0.000000,0.000148,-0.000000,-0.000000,0.155852,0.155852,0.156148,0.156148,946,967,947,967
9109,0,0.021812,0.025089,0.005537,-0.00,-0.00,0.000279,0.156000,-0.001147,-0.001262,0.000000,0.000000,0.000000,0.000000,0.000111,-0.000000,-0.000000,0.155889,0.155889,0.156111,0.156111,946,967,947,967
9119,0,0.021507,0.025307,0.005520,-0.00,0.00,0.000276,0.156000,-0.001140,-0.001265,0.000000,0.000000,0.000000,0.000000,0.000083,-0.000000,-0.000000,0.155917,0.155917,0.156083,0.156083,946,967,947,967
9131,0,0.021264,0.025264,0.005725,-0.00,0.00,0.000264,0.158000,-0.001132,-0.001263,0.000000,0.000000,0.000000,0.000000,0.000069,-0.000000,-0.000000,0.157931,0.157931,0.158069,0.158069,948,968,948,969
9140,0,0.020851,0.025229,0.005889,-0.00,-0.00,0.000306,0.158000,-0.001124,-0.001262,0.000000,0.000000,0.000000,0.000000,0.000027,-0.000000,-0.000000,0.157973,0.157973,0.158027,0.158027,948,969,948,969
9150,0,0.020520,0.025419,0.006020,-0.00,0.00,0.000416,0.159000,-0.001114,-0.001269,0.000000,0.000000,0.000000,0.000000,0.000004,-0.000000,-0.000000,0.158996,0.158996,0.159004,0.159004,949,969,949,969
9160,0,0.020256,0.025571,0.006125,-0.00,0.00,0.000559,0.159000,-0.001103,-0.001274,0.000000,0.000000,0.000000,0.000000,-0.000006,-0.000000,-0.000000,0.159006,0.159006,0.158994,0.158994,949,969,949,969
9170,0,0.019826,0.025693,0.006209,-0.00,0.00,0.000698,0.160000,-0.001090,-0.001278,0.000000,0.000000,0.000000,0.000000,-0.000035,-0.000000,-0.000000,0.160035,0.160035,0.159965,0.159965,950,970,950,970
9180,0,0.019264,0.025790,0.006276,-0.00,0.00,0.000753,0.160000,-0.001075,-0.001280,0.000000,0.000000,0.000000,0.000000,-0.000081,-0.000000,-0.000000,0.160081,0.160081,0.159919,0.159919,950,970,950,970
9190,0,0.018597,0.025868,0.006330,-0.00,0.00,0.000869,0.161000,-0.001059,-0.001282,0.000000,0.000000,0.000000,0.000000,-0.000139,-0.000000,-0.000000,0.161139,0.161139,0.160861,0.160861,951,971,950,971
9200,0,0.017844,0.025931,0.006373,-0.00,0.00,0.000953,0.162000,-0.001040,-0.001284,0.000000,0.000000,0.000000,0.000000,-0.000202,-0.000000,-0.000000,0.162202,0.162202,0.161798,0.161798,952,972,951,972
9210,0,0.017024,0.025980,0.006407,-0.00,0.00,0.000948,0.162000,-0.001017,-0.001285,0.000000,0.000000,0.000000,0.000000,-0.000262,-0.000000,-0.000000,0.162262,0.162262,0.161738,0.161738,952,972,951,972
9220,0,0.016368,0.025802,0.006435,-0.00,0.00,0.000934,0.162000,-0.000994,-0.001281,0.000000,0.000000,0.000000,0.000000,-0.000301,-0.000000,-0.000000,0.162301,0.162301,0.161699,0.161699,952,972,951,972
9230,0,0.015626,0.025660,0.006457,-0.00,0.00,0.000917,0.163000,-0.000970,-0.001278,0.000000,0.000000,0.000000,0.000000,-0.000348,-0.000000,-0.000000,0.163348,0.163348,0.162652,0.162652,952,973,952,972
9240,0,0.015031,0.025545,0.006475,-0.00,0.00,0.000971,0.163000,-0.000947,-0.001276,0.000000,0.000000,0.000000,0.000000,-0.000375,-0.000000,-0.000000,0.163375,0.163375,0.162625,0.162625,952,973,952,972
9250,0,0.014337,0.025454,0.006489,-0.00,-0.00,0.000996,0.163000,-0.000921,-0.001275,0.000000,0.000000,0.000000,0.000000,-0.000407,-0.000000,-0.000000,0.163407,0.163407,0.162593,0.162593,953,973,952,972
9260,0,0.013564,0.025381,0.006500,-0.00,-0.00,0.001056,0.164000,-0.000894,-0.001273,0.000000,0.000000,0.000000,0.000000,-0.000450,-0.000000,-0.000000,0.164450,0.164450,0.163550,0.163550,953,974,953,973
9270,0,0.012946,0.025323,0.006509,-0.00,-0.00,0.001118,0.164000,-0.000868,-0.001270,0.000000,0.000000,0.000000,0.000000,-0.000474,-0.000000,-0.000000,0.164474,0.164474,0.163526,0.163526,953,974,953,973
9280,0,0.012233,0.025276,0.006516,-0.00,-0.00,0.001261,0.164000,-0.000843,-0.001268,0.000000,0.000000,0.000000,0.000000,-0.000512,-0.000000,-0.000000,0.164512,0.164512,0.163488,0.163488,953,974,953,973
9290,0,0.011226,0.025239,0.006740,-0.00,-0.00,0.001346,0.164000,-0.000812,-0.001265,0.000000,0.000000,0.000000,0.000000,-0.000581,-0.000000,-0.000000,0.164581,0.164581,0.163419,0.163419,953,974,953,973
9299,0,0.010203,0.025209,0.006919,-0.00,-0.00,0.001415,0.165000,-0.000784,-0.001263,0.000000,0.000000,0.000000,0.000000,-0.000659,-0.000000,-0.000000,0.165659,0.165659,0.164341,0.164341,954,975,953,974
9309,0,0.009166,0.025185,0.007063,-0.00,-0.00,0.001478,0.165000,-0.000748,-0.001260,0.000000,0.000000,0.000000,0.000000,-0.000718,-0.000000,-0.000000,0.165718,0.165718,0.164282,0.164282,954,975,953,974
9320,0,0.008118,0.025166,0.007177,-0.00,-0.00,0.001546,0.165000,-0.000706,-0.001261,0.000000,0.000000,0.000000,0.000000,-0.000762,-0.000000,-0.000000,0.165762,0.165762,0.164238,0.164238,954,975,953,974
9330,0,0.007062,0.025150,0.007269,-0.00,-0.00,0.001601,0.166000,-0.000667,-0.001261,0.000000,0.000000,0.000000,0.000000,-0.000813,-0.000000,-0.000000,0.166813,0.166813,0.165187,0.165187,955,976,954,974
9340,0,0.005998,0.025138,0.007342,-0.00,-0.00,0.001567,0.166000,-0.000626,-0.001260,0.000000,0.000000,0.000000,0.000000,-0.000862,-0.000000,-0.000000,0.166862,0.166862,0.165138,0.165138,955,976,954,974
9350,0,0.004930,0.025128,0.007401,-0.00,-0.00,0.001555,0.166000,-0.000586,-0.001258,0.000000,0.000000,0.000000,0.000000,-0.000913,-0.000000,-0.000000,0.166913,0.166913,0.165087,0.165087,955,976,954,974
9360,0,0.004075,0.025120,0.007666,-0.00,-0.00,0.001581,0.168000,-0.000546,-0.001258,0.000000,0.000000,0.000000,0.000000,-0.000934,-0.000000,-0.000000,0.168934,0.168934,0.167066,0.167066,957,978,956,976
9377,0,0.002736,0.025114,0.007878,-0.00,-0.00,0.001682,0.170000,-0.000479,-0.001260,0.000000,0.000000,0.000000,0.000000,-0.000950,-0.000000,-0.000000,0.170950,0.170950,0.169050,0.169050,959,979,957,978
9389,0,0.001447,0.025109,0.008048,-0.00,-0.00,0.001810,0.171000,-0.000426,-0.001260,0.000000,0.000000,0.000000,0.000000,-0.000999,-0.000000,-0.000000,0.171999,0.171999,0.170001,0.170001,960,980,958,978
9401,0,0.000198,0.024887,0.008184,-0.00,-0.00,0.001853,0.172000,-0.000377,-0.001247,0.000000,0.000000,0.000000,0.000000,-0.001053,-0.000000,-0.000000,0.173053,0.173053,0.170947,0.170947,960,981,959,979
9410,0,-0.001238,0.024709,0.008729,-0.00,-0.00,0.001871,0.172000,-0.000342,-0.001241,0.000000,0.000000,0.000000,0.000000,-0.001176,-0.000000,-0.000000,0.173176,0.173176,0.170824,0.170824,961,981,959,979
9420,0,-0.002387,0.024567,0.009165,-0.00,-0.00,0.002030,0.174000,-0.000302,-0.001239,0.000000,0.000000,0.000000,0.000000,-0.001242,-0.000000,-0.000000,0.175242,0.175242,0.172758,0.172758,962,983,960,981
9430,0,-0.003524,0.024453,0.009513,-0.00,-0.00,0.002144,0.174000,-0.000260,-0.001239,0.000000,0.000000,0.000000,0.000000,-0.001297,-0.000000,-0.000000,0.175297,0.175297,0.172703,0.172703,962,983,960,981
9441,0,-0.004870,0.024362,0.010010,-0.00,-0.00,0.002246,0.174000,-0.000206,-0.001235,0.000000,0.000000,0.000000,0.000000,-0.001354,-0.000000,-0.000000,0.175354,0.175354,0.172646,0.172646,962,983,960,981
9450,0,-0.006383,0.024289,0.010626,-0.00,-0.00,0.002348,0.174000,-0.000163,-0.001228,0.000000,0.000000,0.000000,0.000000,-0.001466,-0.000000,-0.000000,0.175466,0.175466,0.172534,0.172534,962,983,960,980
9460,0,-0.007812,0.024231,0.011337,-0.00,-0.00,0.002390,0.178000,-0.000112,-0.001224,0.000000,0.000000,0.000000,0.000000,-0.001542,-0.000000,-0.000000,0.179542,0.179542,0.176458,0.176458,966,986,963,984
9470,0,-0.009391,0.024185,0.011906,-0.00,-0.00,0.002442,0.179000,-0.000059,-0.001223,0.000000,0.000000,0.000000,0.000000,-0.001637,-0.000000,-0.000000,0.180637,0.180637,0.177363,0.177363,967,987,964,984
9480,0,-0.010872,0.024147,0.012579,-0.00,-0.00,0.002487,0.179000,-0.000008,-0.001219,0.000000,0.000000,0.000000,0.000000,-0.001722,-0.000000,-0.000000,0.180722,0.180722,0.177278,0.177278,967,987,964,984
9491,0,-0.012494,0.024118,0.013336,-0.00,-0.00,0.002417,0.179000,0.000052,-0.001210,0.000000,0.000000,0.000000,0.000000,-0.001804,-0.000000,-0.000000,0.180804,0.180804,0.177196,0.177196,967,987,964,984
9503,0,-0.014010,0.023657,0.014596,-0.00,-0.00,0.002307,0.179000,0.000116,-0.001190,0.000000,0.000000,0.000000,0.000000,-0.001857,-0.000000,-0.000000,0.180857,0.180857,0.177143,0.177143,967,987,964,984
9512,0,-0.015440,0.023289,0.015822,-0.00,-0.00,0.002225,0.179000,0.000160,-0.001182,0.000000,0.000000,0.000000,0.000000,-0.001953,-0.000000,-0.000000,0.180953,0.180953,0.177047,0.177047,967,987,964,984
9521,0,-0.016584,0.023213,0.017239,-0.00,-0.00,0.002088,0.181000,0.000201,-0.001186,0.000000,0.000000,0.000000,0.000000,-0.002013,-0.000000,-0.000000,0.183013,0.183013,0.178987,0.178987,969,989,965,986
9531,0,-0.017500,0.023152,0.018809,-0.00,-0.00,0.001960,0.181000,0.000243,-0.001185,0.000000,0.000000,0.000000,0.000000,-0.002035,-0.000000,-0.000000,0.183035,0.183035,0.178965,0.178965,969,989,965,986
9541,0,-0.018232,0.023103,0.020501,-0.00,-0.00,0.001745,0.181000,0.000284,-0.001176,0.000000,0.000000,0.000000,0.000000,-0.002033,-0.000000,-0.000000,0.183033,0.183033,0.178967,0.178967,969,989,965,986
9551,0,-0.018818,0.023064,0.021855,-0.00,-0.00,0.001492,0.182000,0.000321,-0.001167,0.000000,0.000000,0.000000,0.000000,-0.002017,-0.000000,-0.000000,0.184017,0.184017,0.179983,0.179983,969,990,966,987
9561,0,-0.019287,0.022814,0.023375,-0.00,-0.00,0.001283,0.183000,0.000354,-0.001152,0.000000,0.000000,0.000000,0.000000,-0.001997,-0.000000,-0.000000,0.184997,0.184997,0.181003,0.181003,970,991,967,987
9571,0,-0.019444,0.022397,0.025027,-0.00,-0.00,0.001024,0.184000,0.000379,-0.001131,0.000000,0.000000,0.000000,0.000000,-0.001948,-0.000000,-0.000000,0.185948,0.185948,0.182052,0.182052,971,991,968,988
9581,0,-0.019351,0.021844,0.027003,-0.00,-0.00,0.000717,0.184000,0.000397,-0.001101,0.000000,0.000000,0.000000,0.000000,-0.001881,-0.000000,-0.000000,0.185881,0.185881,0.182119,0.182119,971,991,968,988
9591,0,-0.019059,0.021184,0.029238,-0.00,-0.00,0.000495,0.185000,0.000409,-0.001065,0.000000,0.000000,0.000000,0.000000,-0.001801,-0.000000,-0.000000,0.186801,0.186801,0.183199,0.183199,972,992,969,989
9601,0,-0.018607,0.020220,0.031462,-0.00,-0.00,0.000285,0.186000,0.000416,-0.001024,0.000000,0.000000,0.000000,0.000000,-0.001710,-0.000000,-0.000000,0.187710,0.187710,0.184290,0.184290,972,993,970,990
9610,0,-0.018027,0.019012,0.033897,-0.00,-0.00,0.000045,0.186000,0.000421,-0.000982,0.000000,0.000000,0.000000,0.000000,-0.001607,-0.000000,-0.000000,0.187607,0.187607,0.184393,0.184393,972,993,970,990
9621,0,-0.017345,0.017610,0.036498,-0.00,-0.00,-0.000231,0.189000,0.000415,-0.000928,0.000000,0.000000,0.000000,0.000000,-0.001516,0.000000,0.000000,0.190516,0.190516,0.187484,0.187484,975,995,972,993
9631,0,-0.016581,0.016269,0.039234,-0.00,-0.00,-0.000509,0.191000,0.000403,-0.000870,0.000000,0.000000,0.000000,0.000000,-0.001434,0.000000,0.000000,0.192434,0.192434,0.189566,0.189566,976,997,974,994
9641,0,-0.015534,0.014761,0.042296,-0.00,-0.00,-0.000721,0.191000,0.000387,-0.000809,0.000000,0.000000,0.000000,0.000000,-0.001314,0.000000,0.000000,0.192314,0.192314,0.189686,0.189686,976,997,974,995
9651,0,-0.014260,0.013118,0.045399,-0.00,-0.00,-0.000909,0.191000,0.000364,-0.000746,0.000000,0.000000,0.000000,0.000000,-0.001181,0.000000,0.000000,0.192181,0.192181,0.189819,0.189819,976,997,974,995
9661,0,-0.013022,0.011585,0.048537,-0.00,-0.00,-0.001103,0.192000,0.000337,-0.000687,0.000000,0.000000,0.000000,0.000000,-0.001065,0.000000,0.000000,0.193065,0.193065,0.190935,0.190935,977,997,975,996
9671,0,-0.011596,0.009922,0.051701,-0.00,-0.00,-0.001252,0.192000,0.000304,-0.000626,0.000000,0.000000,0.000000,0.000000,-0.000939,0.000000,0.000000,0.192939,0.192939,0.191061,0.191061,977,997,975,996
9688,0,-0.010237,0.008374,0.055760,-0.00,-0.00,-0.001372,0.192000,0.000243,-0.000558,0.000000,0.000000,0.000000,0.000000,-0.000902,0.000000,0.000000,0.192902,0.192902,0.191098,0.191098,977,997,975,996
9697,0,-0.008713,0.007136,0.059880,-0.00,-0.00,-0.001482,0.192000,0.000207,-0.000515,0.000000,0.000000,0.000000,0.000000,-0.000766,0.000000,0.000000,0.192766,0.192766,0.191234,0.191234,977,997,975,996
9707,0,-0.007276,0.006145,0.064048,-0.00,-0.00,-0.001600,0.193000,0.000159,-0.000473,0.000000,0.000000,0.000000,0.000000,-0.000679,0.000000,0.000000,0.193679,0.193679,0.192321,0.192321,977,998,976,997
9718,0,-0.005908,0.005352,0.068037,-0.00,-0.00,-0.001630,0.193000,0.000105,-0.000437,0.000000,0.000000,0.000000,0.000000,-0.000621,0.000000,0.000000,0.193621,0.193621,0.192379,0.192379,977,998,976,997
9731,0,-0.004814,0.004936,0.072101,-0.00,-0.00,-0.001593,0.193000,0.000048,-0.000423,0.000000,0.000000,0.000000,0.000000,-0.000614,0.000000,0.000000,0.193614,0.193614,0.192386,0.192386,977,998,976,997
9741,0,-0.003720,0.005040,0.076225,-0.00,-0.00,-0.001548,0.193000,0.000002,-0.000422,0.000000,0.000000,0.000000,0.000000,-0.000576,0.000000,0.000000,0.193576,0.193576,0.192424,0.192424,977,998,976,997
9751,0,-0.002627,0.005341,0.080179,-0.00,-0.00,-0.001515,0.193000,-0.000044,-0.000427,0.000000,0.000000,0.000000,0.000000,-0.000538,0.000000,0.000000,0.193538,0.193538,0.192462,0.192462,977,998,976,997
9761,0,-0.001752,0.006018,0.084214,-0.00,-0.00,-0.001411,0.194000,-0.000089,-0.000445,0.000000,0.000000,0.000000,0.000000,-0.000529,0.000000,0.000000,0.194529,0.194529,0.193471,0.193471,978,998,977,998
9771,0,-0.000835,0.006996,0.088315,-0.00,-0.00,-0.001248,0.194000,-0.000135,-0.000480,0.000000,0.000000,0.000000,0.000000,-0.000517,0.000000,0.000000,0.194517,0.194517,0.193483,0.193483,978,998,977,998
9781,0,-0.000101,0.008215,0.092251,-0.00,-0.00,-0.000999,0.194000,-0.000180,-0.000522,0.000000,0.000000,0.000000,0.000000,-0.000532,0.000000,0.000000,0.194532,0.194532,0.193468,0.193468,978,998,977,998
9792,0,0.000269,0.009844,0.096272,-0.00,-0.00,-0.000711,0.194000,-0.000222,-0.000578,0.000000,0.000000,0.000000,0.000000,-0.000595,0.000000,0.000000,0.194595,0.194595,0.193405,0.193405,978,999,977,998
9801,0,0.000346,0.011584,0.100361,-0.00,-0.00,-0.000415,0.194000,-0.000255,-0.000631,0.000000,0.000000,0.000000,0.000000,-0.000678,0.000000,0.000000,0.194678,0.194678,0.193322,0.193322,978,999,977,997
9811,0,0.000189,0.013631,0.104287,-0.00,-0.00,-0.000112,0.194000,-0.000282,-0.000697,0.000000,0.000000,0.000000,0.000000,-0.000781,-0.000000,0.000000,0.194781,0.194781,0.193219,0.193219,978,999,977,997
9821,0,-0.000154,0.015704,0.108301,-0.00,0.00,0.000221,0.194000,-0.000305,-0.000772,0.000000,0.000000,0.000000,0.000000,-0.000900,-0.000000,-0.000000,0.194900,0.194900,0.193100,0.193100,978,999,977,997
9831,0,-0.000865,0.018018,0.112166,-0.00,0.00,0.000545,0.194000,-0.000319,-0.000860,0.000000,0.000000,0.000000,0.000000,-0.001052,-0.000000,-0.000000,0.195052,0.195052,0.192948,0.192948,978,999,977,997
9842,0,-0.001870,0.020523,0.116131,-0.00,0.00,0.000812,0.194000,-0.000324,-0.000962,0.000000,0.000000,0.000000,0.000000,-0.001224,-0.000000,-0.000000,0.195224,0.195224,0.192776,0.192776,979,999,977,997
9851,0,-0.002674,0.023181,0.120176,-0.00,0.00,0.000924,0.194000,-0.000333,-0.001060,0.000000,0.000000,0.000000,0.000000,-0.001375,-0.000000,-0.000000,0.195375,0.195375,0.192625,0.192625,979,999,976,997
9861,0,-0.003536,0.025963,0.124066,-0.00,0.00,0.001063,0.194000,-0.000332,-0.001176,0.000000,0.000000,0.000000,0.000000,-0.001507,-0.000000,-0.000000,0.195507,0.195507,0.192493,0.192493,979,999,976,997
9871,0,-0.004443,0.029060,0.128050,-0.00,0.00,0.001293,0.194000,-0.000327,-0.001305,0.000000,0.000000,0.000000,0.000000,-0.001635,-0.000000,-0.000000,0.195635,0.195635,0.192365,0.192365,979,999,976,997
9881,0,-0.005605,0.032630,0.132111,-0.00,0.00,0.001581,0.194000,-0.000317,-0.001446,0.000000,0.000000,0.000000,0.000000,-0.001788,-0.000000,-0.000000,0.195788,0.195788,0.192212,0.192212,979,1000,976,997
9892,0,-0.006971,0.036357,0.136232,-0.00,0.00,0.001942,0.194000,-0.000296,-0.001599,0.000000,0.000000,0.000000,0.000000,-0.001940,-0.000000,-0.000000,0.195940,0.195940,0.192060,0.192060,979,1000,976,996
9901,0,-0.008500,0.039994,0.140402,-0.00,0.00,0.002306,0.195000,-0.000278,-0.001732,0.000000,0.000000,0.000000,0.000000,-0.002129,-0.000000,-0.000000,0.197129,0.197129,0.192871,0.192871,980,1001,977,997
9911,0,-0.010378,0.043558,0.144392,-0.01,0.00,0.002604,0.195000,-0.000243,-0.001878,0.000000,0.000000,0.000000,0.000000,-0.002320,-0.000000,-0.000000,0.197320,0.197320,0.192680,0.192680,980,1001,976,997
9921,0,-0.012535,0.047282,0.148456,-0.01,0.00,0.002961,0.195000,-0.000196,-0.002028,0.000000,0.000000,0.000000,0.000000,-0.002522,-0.000000,-0.000000,0.197522,0.197522,0.192478,0.192478,980,1001,976,997
9931,0,-0.014915,0.050916,0.152581,-0.01,0.00,0.003385,0.194000,-0.000141,-0.002178,0.000000,0.000000,0.000000,0.000000,-0.002734,-0.000000,-0.000000,0.196734,0.196734,0.191266,0.191266,980,1000,975,996
9942,0,-0.017473,0.054259,0.156535,-0.01,0.00,0.003704,0.194000,-0.000066,-0.002328,0.000000,0.000000,0.000000,0.000000,-0.002921,-0.000000,-0.000000,0.196921,0.196921,0.191079,0.191079,980,1000,975,996
9951,0,-0.020175,0.057588,0.160353,-0.01,0.00,0.003992,0.195000,-0.000006,-0.002462,0.000000,0.000000,0.000000,0.000000,-0.003171,-0.000000,-0.000000,0.198171,0.198171,0.191829,0.191829,981,1001,976,996
9961,0,-0.022990,0.060687,0.164280,-0.01,0.00,0.004105,0.195000,0.000073,-0.002595,0.000000,0.000000,0.000000,0.000000,-0.003381,-0.000000,-0.000000,0.198381,0.198381,0.191619,0.191619,981,1002,976,996
9972,0,-0.025897,0.063385,0.168076,-0.01,0.00,0.004127,0.195000,0.000170,-0.002722,0.000000,0.000000,0.000000,0.000000,-0.003559,-0.000000,-0.000000,0.198559,0.198559,0.191441,0.191441,981,1002,975,996
9982,0,-0.028659,0.065762,0.171985,-0.01,0.00,0.004146,0.195000,0.000258,-0.002831,0.000000,0.000000,0.000000,0.000000,-0.003737,-0.000000,-0.000000,0.198737,0.198737,0.191263,0.191263,981,1002,975,996
9992,0,-0.031305,0.067881,0.175767,-0.02,0.00,0.004108,0.194000,0.000351,-0.002930,0.000000,0.000000,0.000000,0.000000,-0.003882,-0.000000,-0.000000,0.197882,0.197882,0.190118,0.190118,981,1001,974,995
10009,0,-0.033858,0.069576,0.180320,-0.02,0.00,0.003993,0.194000,0.000491,-0.003030,0.000000,0.000000,0.000000,0.000000,-0.003878,-0.000000,-0.000000,0.197878,0.197878,0.190122,0.190122,981,1001,974,995
10021,0,-0.036336,0.070496,0.184835,-0.02,0.00,0.003876,0.194000,0.000603,-0.003090,0.000000,0.000000,0.000000,0.000000,-0.003944,-0.000000,-0.000000,0.197944,0.197944,0.190056,0.190056,981,1001,974,995
10031,0,-0.038319,0.071232,0.189101,-0.02,0.00,0.003611,0.195000,0.000700,-0.003139,0.000000,0.000000,0.000000,0.000000,-0.003974,-0.000000,-0.000000,0.198974,0.198974,0.191026,0.191026,982,1002,975,996
