t,is_crashed,roll,pitch,yaw,p,q,r,throttle,p_cmd,q_cmd,r_cmd,roll_cmd,pitch_cmd,yaw_cmd,roll_pid_out,pitch_pid_out,yaw_pid_out,motor_fl,motor_bl,motor_fr,motor_br,pwm_fl,pwm_bl,pwm_fr,pwm_br
6973,0,0.007418,0.004363,1.256419,-0.00,-0.00,-0.000002,0.005000,0.000000,0.000000,0.000000,0.000000,0.000000,0.000000,-0.000000,0.000000,0.000000,0.000000,0.000000,0.000000,0.000000,0,0,0,0
6984,0,0.011868,0.006981,2.261554,0.00,0.00,0.000000,0.005000,0.000000,0.000000,0.000000,0.000000,0.000000,0.000000,0.000208,-0.000122,-0.000000,0.000000,0.000000,0.000000,0.000000,819,819,819,819
6994,0,0.015429,0.009076,3.065662,0.00,0.00,0.000000,0.005000,0.000000,0.000000,0.000000,0.000000,0.000000,0.000000,0.000370,-0.000217,-0.000000,0.000000,0.000000,0.000000,0.000000,819,819,819,819
7004,0,0.018277,0.010751,-2.574237,0.00,0.00,0.000000,0.005000,0.000000,0.000000,0.000000,0.000000,0.000000,0.000000,0.000480,-0.000282,-0.000000,0.000000,0.000000,0.000000,0.000000,819,819,819,819
7014,0,0.020556,0.012092,-2.059607,0.00,0.00,0.000000,0.005000,0.000000,0.000000,0.000000,0.000000,0.000000,0.000000,0.000549,-0.000323,-0.000000,0.000000,0.000000,0.000000,0.000000,819,819,819,819
7024,0,0.022379,0.013164,-1.647904,0.00,0.00,0.000004,0.005000,0.000000,0.000000,0.000000,0.000000,0.000000,0.000000,0.000588,-0.000346,-0.000000,0.000000,0.000000,0.000000,0.000000,819,819,819,819
7034,0,0.023837,0.014022,-1.318541,0.00,0.00,0.000005,0.005000,0.000000,0.000000,0.000000,0.000000,0.000000,0.000000,0.000604,-0.000355,-0.000000,0.000000,0.000000,0.000000,0.000000,819,819,819,819
7044,0,0.025004,0.014708,-1.055051,0.00,0.00,0.000008,0.005000,0.000000,0.000000,0.000000,0.000000,0.000000,0.000000,0.000603,-0.000355,-0.000000,0.000000,0.000000,0.000000,0.000000,819,819,819,819
7054,0,0.025937,0.015257,-0.844259,0.00,0.00,0.000009,0.005000,0.000000,0.000000,0.000000,0.000000,0.000000,0.000000,0.000591,-0.000348,-0.000001,0.000000,0.000000,0.000000,0.000000,819,819,819,819
7064,0,0.026684,0.015696,-0.675626,0.00,0.00,0.000007,0.005000,0.000000,0.000000,0.000000,0.000000,0.000000,0.000000,0.000570,-0.000335,-0.000000,0.000000,0.000000,0.000000,0.000000,819,819,819,819
7074,0,0.027281,0.016048,-0.540719,0.00,0.00,0.000011,0.005000,0.000000,0.000000,0.000000,0.000000,0.000000,0.000000,0.000544,-0.000320,-0.000001,0.000000,0.000000,0.000000,0.000000,819,819,819,819
7085,0,0.027759,0.016329,-0.432793,0.00,0.00,0.000012,0.005000,0.000000,0.000000,0.000000,0.000000,0.000000,0.000000,0.000514,-0.000302,-0.000001,0.000000,0.000000,0.000000,0.000000,819,819,819,819
7102,0,0.028141,0.016554,-0.346453,0.00,0.00,0.000007,0.005000,0.000000,0.000000,0.000000,0.000000,0.000000,0.000000,0.000474,-0.000278,-0.000000,0.000000,0.000000,0.000000,0.000000,819,819,819,819
7113,0,0.028447,0.016734,-0.277381,0.00,0.00,0.000005,0.005000,0.000000,0.000000,0.000000,0.000000,0.000000,0.000000,0.000441,-0.000259,-0.000000,0.000000,0.000000,0.000000,0.000000,819,819,819,819
7124,0,0.028692,0.016878,-0.222123,0.00,0.00,0.000004,0.005000,0.000000,0.000000,0.000000,0.000000,0.000000,0.000000,0.000408,-0.000240,-0.000000,0.000000,0.000000,0.000000,0.000000,819,819,819,819
7134,0,0.028888,0.016993,-0.177917,0.00,0.00,0.000008,0.005000,0.000000,0.000000,0.000000,0.000000,0.000000,0.000000,0.000378,-0.000222,-0.000000,0.000000,0.000000,0.000000,0.000000,819,819,819,819
7144,0,0.029044,0.017085,-0.142552,0.00,0.00,0.000011,0.005000,0.000000,0.000000,0.000000,0.000000,0.000000,0.000000,0.000348,-0.000205,-0.000001,0.000000,0.000000,0.000000,0.000000,819,819,819,819
7154,0,0.029170,0.017159,-0.114260,0.00,0.00,0.000013,0.005000,0.000000,0.000000,0.000000,0.000000,0.000000,0.000000,0.000320,-0.000189,-0.000001,0.000000,0.000000,0.000000,0.000000,819,819,819,819
7164,0,0.029270,0.017217,-0.091626,0.00,0.00,0.000012,0.005000,0.000000,0.000000,0.000000,0.000000,0.000000,0.000000,0.000293,-0.000173,-0.000001,0.000000,0.000000,0.000000,0.000000,819,819,819,819
7174,0,0.029350,0.017265,-0.073519,0.00,0.00,0.000011,0.005000,0.000000,0.000000,0.000000,0.000000,0.000000,0.000000,0.000267,-0.000159,-0.000001,0.000000,0.000000,0.000000,0.000000,819,819,819,819
7185,0,0.029414,0.017302,-0.059034,0.00,0.00,0.000010,0.005000,0.000000,0.000000,0.000000,0.000000,0.000000,0.000000,0.000244,-0.000144,-0.000001,0.000000,0.000000,0.000000,0.000000,819,819,819,819
7194,0,0.029465,0.017333,-0.047445,0.00,0.00,0.000009,0.005000,0.000000,0.000000,0.000000,0.000000,0.000000,0.000000,0.000222,-0.000132,-0.000000,0.000000,0.000000,0.000000,0.000000,819,819,819,819
7204,0,0.029506,0.017357,-0.038174,0.00,0.00,0.000006,0.005000,0.000000,0.000000,0.000000,0.000000,0.000000,0.000000,0.000202,-0.000120,-0.000000,0.000000,0.000000,0.000000,0.000000,819,819,819,819
7214,0,0.029539,0.017376,-0.030758,0.00,0.00,0.000006,0.005000,0.000000,0.000000,0.000000,0.000000,0.000000,0.000000,0.000183,-0.000109,-0.000000,0.000000,0.000000,0.000000,0.000000,819,819,819,819
7225,0,0.029566,0.017391,-0.024824,0.00,0.00,0.000007,0.005000,0.000000,0.000000,0.000000,0.000000,0.000000,0.000000,0.000166,-0.000098,-0.000000,0.000000,0.000000,0.000000,0.000000,819,819,819,819
7235,0,0.029587,0.017404,-0.020078,0.00,0.00,0.000010,0.005000,0.000000,0.000000,0.000000,0.000000,0.000000,0.000000,0.000151,-0.000090,-0.000001,0.000000,0.000000,0.000000,0.000000,819,819,819,819
7245,0,0.029603,0.017414,-0.016280,0.00,0.00,0.000011,0.005000,0.000000,0.000000,0.000000,0.000000,0.000000,0.000000,0.000136,-0.000081,-0.000001,0.000000,0.000000,0.000000,0.000000,819,819,819,819
7255,0,0.029617,0.017422,-0.013243,0.00,0.00,0.000011,0.005000,0.000000,0.000000,0.000000,0.000000,0.000000,0.000000,0.000123,-0.000073,-0.000001,0.000000,0.000000,0.000000,0.000000,819,819,819,819
7265,0,0.029628,0.017428,-0.010812,0.00,0.00,0.000014,0.005000,0.000000,0.000000,0.000000,0.000000,0.000000,0.000000,0.000111,-0.000067,-0.000001,0.000000,0.000000,0.000000,0.000000,819,819,819,819
7275,0,0.029636,0.017433,-0.008868,0.00,0.00,0.000014,0.005000,0.000000,0.000000,0.000000,0.000000,0.000000,0.000000,0.000101,-0.000061,-0.000001,0.000000,0.000000,0.000000,0.000000,819,819,819,819
7285,0,0.029643,0.017437,-0.007313,0.00,0.00,0.000009,0.005000,0.000000,0.000000,0.000000,0.000000,0.000000,0.000000,0.000091,-0.000055,-0.000001,0.000000,0.000000,0.000000,0.000000,819,819,819,819
7295,0,0.029649,0.017440,-0.006069,0.00,0.00,0.000003,0.005000,0.000000,0.000000,0.000000,0.000000,0.000000,0.000000,0.000082,-0.000050,-0.000000,0.000000,0.000000,0.000000,0.000000,819,819,819,819
7305,0,0.029653,0.017443,-0.005073,0.00,0.00,0.000005,0.005000,0.000000,0.000000,0.000000,0.000000,0.000000,0.000000,0.000074,-0.000045,-0.000000,0.000000,0.000000,0.000000,0.000000,819,819,819,819
7315,0,0.029656,0.017445,-0.004277,0.00,0.00,0.000004,0.005000,0.000000,0.000000,0.000000,0.000000,0.000000,0.000000,0.000066,-0.000041,-0.000000,0.000000,0.000000,0.000000,0.000000,819,819,819,819
7325,0,0.029659,0.017447,-0.003640,0.00,0.00,0.000004,0.005000,0.000000,0.000000,0.000000,0.000000,0.000000,0.000000,0.000060,-0.000036,-0.000000,0.000000,0.000000,0.000000,0.000000,819,819,819,819
7335,0,0.029662,0.017448,-0.003130,0.00,0.00,0.000002,0.005000,0.000000,0.000000,0.000000,0.000000,0.000000,0.000000,0.000054,-0.000033,-0.000000,0.000000,0.000000,0.000000,0.000000,819,819,819,819
7345,0,0.029663,0.017449,-0.002722,0.00,0.00,0.000005,0.005000,0.000000,0.000000,0.000000,0.000000,0.000000,0.000000,0.000049,-0.000030,-0.000000,0.000000,0.000000,0.000000,0.000000,819,819,819,819
7355,0,0.029665,0.017450,-0.002396,0.00,0.00,0.000006,0.005000,0.000000,0.000000,0.000000,0.000000,0.000000,0.000000,0.000044,-0.000026,-0.000000,0.000000,0.000000,0.000000,0.000000,819,819,819,819
7365,0,0.029666,0.017451,-0.002135,0.00,0.00,0.000000,0.005000,0.000000,0.000000,0.000000,0.000000,0.000000,0.000000,0.000040,-0.000024,-0.000000,0.000000,0.000000,0.000000,0.000000,819,819,819,819
7375,0,0.029667,0.017451,-0.001927,0.00,0.00,0.000004,0.005000,0.000000,0.000000,0.000000,0.000000,0.000000,0.000000,0.000037,-0.000021,-0.000000,0.000000,0.000000,0.000000,0.000000,819,819,819,819
7385,0,0.029668,0.017452,-0.001759,0.00,0.00,0.000004,0.005000,0.000000,0.000000,0.000000,0.000000,0.000000,0.000000,0.000033,-0.000019,-0.000000,0.000000,0.000000,0.000000,0.000000,819,819,819,819
7395,0,0.029668,0.017452,-0.001626,0.00,0.00,0.000003,0.005000,0.000000,0.000000,0.000000,0.000000,0.000000,0.000000,0.000030,-0.000017,-0.000000,0.000000,0.000000,0.000000,0.000000,819,819,819,819
7405,0,0.029669,0.017452,-0.001519,0.00,0.00,0.000003,0.005000,0.000000,0.000000,0.000000,0.000000,0.000000,0.000000,0.000027,-0.000015,-0.000000,0.000000,0.000000,0.000000,0.000000,819,819,819,819
7422,0,0.029669,0.017452,-0.001433,0.00,0.00,0.000000,0.005000,0.000000,0.000000,0.000000,0.000000,0.000000,0.000000,0.000024,-0.000014,-0.000000,0.000000,0.000000,0.000000,0.000000,819,819,819,819
7435,0,0.029669,0.017453,-0.001365,0.00,0.00,0.000000,0.005000,0.000000,0.000000,0.000000,0.000000,0.000000,0.000000,0.000022,-0.000012,-0.000000,0.000000,0.000000,0.000000,0.000000,819,819,819,819
7445,0,0.029670,0.017453,-0.001310,0.00,0.00,0.000004,0.005000,0.000000,0.000000,0.000000,0.000000,0.000000,0.000000,0.000020,-0.000010,-0.000000,0.000000,0.000000,0.000000,0.000000,819,819,819,819
7455,0,0.029670,0.017453,-0.001267,0.00,0.00,0.000006,0.005000,0.000000,0.000000,0.000000,0.000000,0.000000,0.000000,0.000018,-0.000009,-0.000000,0.000000,0.000000,0.000000,0.000000,819,819,819,819
7465,0,0.029670,0.017453,-0.001231,0.00,0.00,0.000005,0.005000,0.000000,0.000000,0.000000,0.000000,0.000000,0.000000,0.000017,-0.000008,-0.000000,0.000000,0.000000,0.000000,0.000000,819,819,819,819
7475,0,0.029670,0.017453,-0.001203,0.00,0.00,0.000006,0.005000,0.000000,0.000000,0.000000,0.000000,0.000000,0.000000,0.000015,-0.000007,-0.000000,0.000000,0.000000,0.000000,0.000000,819,819,819,819
7486,0,0.029670,0.017453,-0.001181,0.00,0.00,0.000004,0.005000,0.000000,0.000000,0.000000,0.000000,0.000000,0.000000,0.000014,-0.000006,-0.000000,0.000000,0.000000,0.000000,0.000000,819,819,819,819
7495,0,0.029670,0.017453,-0.001163,0.00,0.00,0.000009,0.005000,0.000000,0.000000,0.000000,0.000000,0.000000,0.000000,0.000013,-0.000005,-0.000000,0.000000,0.000000,0.000000,0.000000,819,819,819,819
7505,0,0.029670,0.017453,-0.001148,0.00,0.00,0.000012,0.005000,0.000000,0.000000,0.000000,0.000000,0.000000,0.000000,0.000011,-0.000004,-0.000001,0.000000,0.000000,0.000000,0.000000,819,819,819,819
7515,0,0.029670,0.017453,-0.001137,0.00,0.00,0.000014,0.005000,0.000000,0.000000,0.000000,0.000000,0.000000,0.000000,0.000010,-0.000003,-0.000001,0.000000,0.000000,0.000000,0.000000,819,819,819,819
7525,0,0.029670,0.017453,-0.001128,0.00,0.00,0.000013,0.005000,0.000000,0.000000,0.000000,0.000000,0.000000,0.000000,0.000010,-0.000002,-0.000001,0.000000,0.000000,0.000000,0.000000,819,819,819,819
7536,0,0.029670,0.017453,-0.001121,0.00,0.00,0.000014,0.005000,0.000000,0.000000,0.000000,0.000000,0.000000,0.000000,0.000009,-0.000002,-0.000001,0.000000,0.000000,0.000000,0.000000,819,819,819,819
7546,0,0.029670,0.017453,-0.001115,0.00,0.00,0.000016,0.005000,0.000000,0.000000,0.000000,0.000000,0.000000,0.000000,0.000008,-0.000002,-0.000002,0.000000,0.000000,0.000000,0.000000,819,819,819,819
7556,0,0.029671,0.017453,-0.001110,0.00,0.00,0.000013,0.005000,0.000000,0.000000,0.000000,0.000000,0.000000,0.000000,0.000007,-0.000002,-0.000001,0.000000,0.000000,0.000000,0.000000,819,819,819,819
7566,0,0.029671,0.017453,-0.001106,0.00,0.00,0.000011,0.005000,0.000000,0.000000,0.000000,0.000000,0.000000,0.000000,0.000007,-0.000002,-0.000001,0.000000,0.000000,0.000000,0.000000,819,819,819,819
7576,0,0.029671,0.017453,-0.001103,0.00,0.00,0.000016,0.005000,0.000000,0.000000,0.000000,0.000000,0.000000,0.000000,0.000006,-0.000002,-0.000002,0.000000,0.000000,0.000000,0.000000,819,819,819,819
7586,0,0.029671,0.017453,-0.001101,0.00,0.00,0.000014,0.005000,0.000000,0.000000,0.000000,0.000000,0.000000,0.000000,0.000006,-0.000002,-0.000001,0.000000,0.000000,0.000000,0.000000,819,819,819,819
7596,0,0.029671,0.017453,-0.001099,0.00,0.00,0.000013,0.005000,0.000000,0.000000,0.000000,0.000000,0.000000,0.000000,0.000005,-0.000001,-0.000001,0.000000,0.000000,0.000000,0.000000,819,819,819,819
7606,0,0.029671,0.017453,-0.001097,0.00,0.00,0.000010,0.005000,0.000000,0.000000,0.000000,0.000000,0.000000,0.000000,0.000005,-0.000001,-0.000001,0.000000,0.000000,0.000000,0.000000,819,819,819,819
7615,0,0.029671,0.017453,-0.001096,0.00,0.00,0.000009,0.005000,0.000000,0.000000,0.000000,0.000000,0.000000,0.000000,0.000005,-0.000001,-0.000000,0.000000,0.000000,0.000000,0.000000,819,819,819,819
7625,0,0.029671,0.017453,-0.001095,0.00,0.00,0.000003,0.005000,0.000000,0.000000,0.000000,0.000000,0.000000,0.000000,0.000005,-0.000001,-0.000000,0.000000,0.000000,0.000000,0.000000,819,819,819,819
7636,0,0.029671,0.017453,-0.001095,0.00,0.00,0.000000,0.005000,0.000000,0.000000,0.000000,0.000000,0.000000,0.000000,0.000004,-0.000001,-0.000000,0.000000,0.000000,0.000000,0.000000,819,819,819,819
7646,0,0.029671,0.017453,-0.001094,0.00,0.00,-0.000001,0.005000,0.000000,0.000000,0.000000,0.000000,0.000000,0.000000,0.000004,-0.000001,0.000000,0.000000,0.000000,0.000000,0.000000,819,819,819,819
7656,0,0.029671,0.017453,-0.001093,0.00,0.00,0.000000,0.005000,0.000000,0.000000,0.000000,0.000000,0.000000,0.000000,0.000004,-0.000000,-0.000000,0.000000,0.000000,0.000000,0.000000,819,819,819,819
7666,0,0.029671,0.017453,-0.001093,0.00,-0.00,0.000000,0.005000,0.000000,0.000000,0.000000,0.000000,0.000000,0.000000,0.000004,0.000000,-0.000000,0.000000,0.000000,0.000000,0.000000,819,819,819,819
7676,0,0.029671,0.017453,-0.001092,0.00,-0.00,0.000000,0.005000,0.000000,0.000000,0.000000,0.000000,0.000000,0.000000,0.000003,0.000000,-0.000000,0.000000,0.000000,0.000000,0.000000,819,819,819,819
7686,0,0.029671,0.017453,-0.001092,0.00,-0.00,0.000002,0.005000,0.000000,0.000000,0.000000,0.000000,0.000000,0.000000,0.000003,0.000000,-0.000000,0.000000,0.000000,0.000000,0.000000,819,819,819,819
7696,0,0.029671,0.017453,-0.001092,0.00,-0.00,0.000004,0.005000,0.000000,0.000000,0.000000,0.000000,0.000000,0.000000,0.000003,0.000000,-0.000000,0.000000,0.000000,0.000000,0.000000,819,819,819,819
7706,0,0.029671,0.017453,-0.001092,0.00,-0.00,0.000005,0.005000,0.000000,0.000000,0.000000,0.000000,0.000000,0.000000,0.000003,0.000000,-0.000000,0.000000,0.000000,0.000000,0.000000,819,819,819,819
7716,0,0.029671,0.017453,-0.001092,0.00,-0.00,0.000005,0.005000,0.000000,0.000000,0.000000,0.000000,0.000000,0.000000,0.000002,0.000000,-0.000000,0.000000,0.000000,0.000000,0.000000,819,819,819,819
7726,0,0.029671,0.017453,-0.001092,0.00,-0.00,0.000006,0.006000,0.000000,0.000000,0.000000,0.000000,0.000000,0.000000,0.000002,0.000001,-0.000000,0.000000,0.000000,0.000000,0.000000,819,819,819,819
7741,0,0.029671,0.017453,-0.001092,0.00,-0.00,0.000009,0.006000,0.000000,0.000000,0.000000,0.000000,0.000000,0.000000,0.000002,0.000000,-0.000000,0.000000,0.000000,0.000000,0.000000,819,819,819,819
7753,0,0.029671,0.017453,-0.001092,0.00,-0.00,0.000010,0.005000,0.000000,0.000000,0.000000,0.000000,0.000000,0.000000,0.000002,0.000000,-0.000001,0.000000,0.000000,0.000000,0.000000,819,819,819,819
7765,0,0.029671,0.017453,-0.001092,0.00,-0.00,0.000011,0.005000,0.000000,0.000000,0.000000,0.000000,0.000000,0.000000,0.000002,0.000000,-0.000001,0.000000,0.000000,0.000000,0.000000,819,819,819,819
7776,0,0.029671,0.017453,-0.001092,0.00,-0.00,0.000017,0.006000,0.000000,0.000000,0.000000,0.000000,0.000000,0.000000,0.000002,0.000001,-0.000002,0.000000,0.000000,0.000000,0.000000,819,819,819,819
7786,0,0.029671,0.017453,-0.001092,0.00,-0.00,0.000016,0.006000,0.000000,0.000000,0.000000,0.000000,0.000000,0.000000,0.000002,0.000001,-0.000002,0.000000,0.000000,0.000000,0.000000,819,819,819,819
7796,0,0.029671,0.017453,-0.001092,0.00,-0.00,0.000014,0.006000,0.000000,0.000000,0.000000,0.000000,0.000000,0.000000,0.000003,0.000001,-0.000001,0.000000,0.000000,0.000000,0.000000,819,819,819,819
7806,0,0.029671,0.017453,-0.001092,0.00,-0.00,0.000013,0.006000,0.000000,0.000000,0.000000,0.000000,0.000000,0.000000,0.000003,0.000002,-0.000001,0.000000,0.000000,0.000000,0.000000,819,819,819,819
7816,0,0.029671,0.017453,-0.001092,0.00,-0.00,0.000015,0.006000,0.000000,0.000000,0.000000,0.000000,0.000000,0.000000,0.000003,0.000002,-0.000002,0.000000,0.000000,0.000000,0.000000,819,819,819,819
7865,0,0.029671,0.017453,-0.001092,0.00,-0.00,0.000014,0.006000,0.000000,0.000000,0.000000,0.000000,0.000000,0.000000,0.000003,0.000002,-0.000001,0.000000,0.000000,0.000000,0.000000,819,819,819,819
7876,0,0.029671,0.017453,-0.001092,0.00,-0.00,0.000014,0.006000,0.000000,0.000000,0.000000,0.000000,0.000000,0.000000,0.000003,0.000002,-0.000001,0.000000,0.000000,0.000000,0.000000,819,819,819,819
7887,0,0.029671,0.017453,-0.001092,0.00,-0.00,0.000015,0.006000,0.000000,0.000000,0.000000,0.000000,0.000000,0.000000,0.000002,0.000001,-0.000002,0.000000,0.000000,0.000000,0.000000,819,819,819,819
7897,0,0.029671,0.017453,-0.001092,0.00,-0.00,0.000017,0.006000,0.000000,0.000000,0.000000,0.000000,0.000000,0.000000,0.000002,0.000000,-0.000002,0.000000,0.000000,0.000000,0.000000,819,819,819,819
7907,0,0.029671,0.017453,-0.001092,0.00,-0.00,0.000013,0.006000,0.000000,0.000000,0.000000,0.000000,0.000000,0.000000,0.000002,0.000000,-0.000001,0.000000,0.000000,0.000000,0.000000,819,819,819,819
7917,0,0.029671,0.017453,-0.001092,0.00,-0.00,0.000018,0.006000,0.000000,0.000000,0.000000,0.000000,0.000000,0.000000,0.000001,-0.000000,-0.000002,0.000000,0.000000,0.000000,0.000000,819,819,819,819
7927,0,0.029671,0.017453,-0.001092,0.00,-0.00,0.000018,0.006000,0.000000,0.000000,0.000000,0.000000,0.000000,0.000000,0.000001,-0.000000,-0.000002,0.000000,0.000000,0.000000,0.000000,819,819,819,819
7937,0,0.029671,0.017453,-0.001092,0.00,-0.00,0.000020,0.006000,0.000000,0.000000,0.000000,0.000000,0.000000,0.000000,0.000001,0.000000,-0.000002,0.000000,0.000000,0.000000,0.000000,819,819,819,819
7947,0,0.029671,0.017453,-0.001092,0.00,-0.00,0.000018,0.006000,0.000000,0.000000,0.000000,0.000000,0.000000,0.000000,0.000000,0.000000,-0.000002,0.000000,0.000000,0.000000,0.000000,819,819,819,819
7957,0,0.029671,0.017453,-0.001092,0.00,-0.00,0.000014,0.006000,0.000000,0.000000,0.000000,0.000000,0.000000,0.000000,0.000001,-0.000000,-0.000001,0.000000,0.000000,0.000000,0.000000,819,819,819,819
7967,0,0.029671,0.017453,-0.001092,0.00,-0.00,0.000013,0.006000,0.000000,0.000000,0.000000,0.000000,0.000000,0.000000,0.000001,-0.000000,-0.000001,0.000000,0.000000,0.000000,0.000000,819,819,819,819
7977,0,0.029671,0.017453,-0.001092,0.00,-0.00,0.000008,0.006000,0.000000,0.000000,0.000000,0.000000,0.000000,0.000000,0.000001,-0.000000,-0.000000,0.000000,0.000000,0.000000,0.000000,819,819,819,819
7987,0,0.029671,0.017453,-0.001092,0.00,-0.00,0.000007,0.006000,0.000000,0.000000,0.000000,0.000000,0.000000,0.000000,0.000001,0.000000,-0.000000,0.000000,0.000000,0.000000,0.000000,819,819,819,819
7997,0,0.029671,0.017453,-0.001092,0.00,0.00,0.000010,0.006000,0.000000,0.000000,0.000000,0.000000,0.000000,0.000000,0.000001,-0.000000,-0.000001,0.000000,0.000000,0.000000,0.000000,819,819,819,819
8007,0,0.029671,0.017453,-0.001092,0.00,0.00,0.000006,0.006000,0.000000,0.000000,0.000000,0.000000,0.000000,0.000000,0.000001,-0.000000,-0.000000,0.000000,0.000000,0.000000,0.000000,819,819,819,819
8017,0,0.029671,0.017453,-0.001092,0.00,0.00,0.000007,0.006000,0.000000,0.000000,0.000000,0.000000,0.000000,0.000000,0.000001,-0.000001,-0.000000,0.000000,0.000000,0.000000,0.000000,819,819,819,819
8027,0,0.029671,0.017453,-0.001092,0.00,0.00,0.000006,0.006000,0.000000,0.000000,0.000000,0.000000,0.000000,0.000000,0.000001,-0.000000,-0.000000,0.000000,0.000000,0.000000,0.000000,819,819,819,819
8037,0,0.029671,0.017453,-0.001092,0.00,0.00,0.000006,0.007000,0.000000,0.000000,0.000000,0.000000,0.000000,0.000000,0.000001,-0.000000,-0.000000,0.000000,0.000000,0.000000,0.000000,819,819,819,819
8047,0,0.029671,0.017453,-0.001092,0.00,0.00,0.000005,0.007000,0.000000,0.000000,0.000000,0.000000,0.000000,0.000000,0.000001,-0.000000,-0.000000,0.000000,0.000000,0.000000,0.000000,819,819,819,819
8057,0,0.029671,0.017453,-0.001092,0.00,-0.00,0.000006,0.008000,0.000000,0.000000,0.000000,0.000000,0.000000,0.000000,0.000001,0.000000,-0.000000,0.000000,0.000000,0.000000,0.000000,819,819,819,819
8067,0,0.029671,0.017453,-0.001092,0.00,-0.00,0.000009,0.010000,0.000000,0.000000,0.000000,0.000000,0.000000,0.000000,0.000001,0.000000,-0.000001,0.000000,0.000000,0.000000,0.000000,819,819,819,819
8077,0,0.029671,0.017453,-0.001092,0.00,-0.00,0.000010,0.010000,0.000000,0.000000,0.000000,0.000000,0.000000,0.000000,0.000002,0.000001,-0.000001,0.000000,0.000000,0.000000,0.000000,819,819,819,819
8087,0,0.029671,0.017453,-0.001092,0.00,-0.00,0.000009,0.015000,0.000000,0.000000,0.000000,0.000000,0.000000,0.000000,0.000002,0.000002,-0.000001,0.000000,0.000000,0.000000,0.000000,819,819,819,819
8097,0,0.029671,0.017453,-0.001092,0.00,-0.00,0.000005,0.026000,0.000000,0.000000,0.000000,0.000000,0.000000,0.000000,0.000001,0.000002,-0.000000,0.026000,0.025998,0.026003,0.025999,840,860,840,860
8107,0,0.029671,0.017453,-0.001092,0.00,-0.00,0.000008,0.026000,0.000000,0.000000,0.000000,0.000000,0.000000,0.000000,0.000001,0.000002,-0.000000,0.026000,0.025998,0.026004,0.025999,840,860,840,860
8117,0,0.029671,0.017453,-0.001092,0.00,-0.00,0.000011,0.033000,0.000000,0.000000,0.000000,0.000000,0.000000,0.000000,0.000001,0.000002,-0.000001,0.033000,0.032998,0.033004,0.032998,846,866,846,866
8127,0,0.029671,0.017453,-0.001092,0.00,-0.00,0.000015,0.034000,0.000000,0.000000,0.000000,0.000000,0.000000,0.000000,0.000000,0.000002,-0.000002,0.033999,0.033999,0.034004,0.033998,847,867,847,867
8137,0,0.029671,0.017453,-0.001092,-0.00,-0.00,0.000019,0.034000,0.000000,0.000000,0.000000,0.000000,0.000000,0.000000,0.000000,0.000002,-0.000002,0.034000,0.034000,0.034004,0.033996,847,867,847,867
8147,0,0.029671,0.017453,-0.001092,-0.00,-0.00,0.000021,0.034000,0.000000,0.000000,0.000000,0.000000,0.000000,0.000000,0.000000,0.000002,-0.000002,0.033999,0.034000,0.034004,0.033996,847,867,847,867
8157,0,0.029671,0.017453,-0.001092,-0.00,-0.00,0.000019,0.037000,0.000000,0.000000,0.000000,0.000000,0.000000,0.000000,-0.000000,0.000002,-0.000002,0.037000,0.037000,0.037004,0.036996,849,869,849,869
8174,0,0.029671,0.017453,-0.001092,-0.00,-0.00,0.000017,0.037000,0.000000,0.000000,0.000000,0.000000,0.000000,0.000000,-0.000000,0.000002,-0.000002,0.037000,0.037000,0.037004,0.036996,849,869,849,869
8186,0,0.029671,0.017453,-0.001092,-0.00,-0.00,0.000017,0.037000,0.000000,0.000000,0.000000,0.000000,0.000000,0.000000,0.000000,0.000002,-0.000002,0.037000,0.037000,0.037004,0.036996,849,869,849,869
8197,0,0.029671,0.017453,-0.001092,-0.00,-0.00,0.000016,0.037000,0.000000,0.000000,0.000000,0.000000,0.000000,0.000000,0.000000,0.000002,-0.000002,0.037000,0.037000,0.037004,0.036997,849,869,849,869
8207,0,0.029671,0.017453,-0.001092,-0.00,-0.00,0.000016,0.037000,0.000000,0.000000,0.000000,0.000000,0.000000,0.000000,-0.000000,0.000002,-0.000002,0.037000,0.037000,0.037003,0.036997,849,869,849,869
8217,0,0.029671,0.017453,-0.001092,-0.00,-0.00,0.000011,0.037000,0.000000,0.000000,0.000000,0.000000,0.000000,0.000000,0.000000,0.000002,-0.000001,0.037000,0.036999,0.037003,0.036997,849,869,849,869
8227,0,0.029671,0.017453,-0.001092,0.00,-0.00,0.000012,0.037000,0.000000,0.000000,0.000000,0.000000,0.000000,0.000000,0.000000,0.000002,-0.000001,0.037000,0.036999,0.037003,0.036998,849,869,849,869
8238,0,0.029671,0.017453,-0.001092,0.00,-0.00,0.000014,0.037000,0.000000,0.000000,0.000000,0.000000,0.000000,0.000000,0.000000,0.000001,-0.000001,0.036999,0.036999,0.037004,0.036998,849,869,849,869
8247,0,0.029671,0.017453,-0.001092,0.00,-0.00,0.000011,0.037000,0.000000,0.000000,0.000000,0.000000,0.000000,0.000000,0.000001,0.000000,-0.000001,0.036999,0.036999,0.037003,0.036999,849,869,849,869
8257,0,0.029671,0.017453,-0.001092,0.00,-0.00,0.000008,0.037000,0.000000,0.000000,0.000000,0.000000,0.000000,0.000000,0.000000,0.000000,-0.000000,0.036999,0.036999,0.037002,0.036999,849,869,849,869
8267,0,0.029671,0.017453,-0.001092,0.00,-0.00,0.000006,0.037000,0.000000,0.000000,0.000000,0.000000,0.000000,0.000000,0.000000,0.000000,-0.000000,0.036999,0.036999,0.037002,0.037000,849,869,849,869
8277,0,0.029671,0.017453,-0.001092,0.00,-0.00,0.000005,0.037000,0.000000,0.000000,0.000000,0.000000,0.000000,0.000000,0.000000,0.000000,-0.000000,0.036999,0.036999,0.037002,0.037000,849,869,849,869
8288,0,0.029671,0.017453,-0.001092,0.00,-0.00,0.000005,0.037000,0.000000,0.000000,0.000000,0.000000,0.000000,0.000000,0.000000,0.000000,-0.000000,0.037000,0.036999,0.037002,0.036999,849,869,849,869
8298,0,0.029671,0.017453,-0.001092,0.00,-0.00,0.000002,0.037000,0.000000,0.000000,0.000000,0.000000,0.000000,0.000000,0.000000,0.000000,-0.000000,0.037000,0.036999,0.037002,0.037000,849,869,849,869
8308,0,0.029671,0.017453,-0.001092,0.00,-0.00,0.000004,0.037000,0.000000,0.000000,0.000000,0.000000,0.000000,0.000000,0.000000,0.000001,-0.000000,0.037000,0.036999,0.037002,0.036999,849,869,849,869
8318,0,0.029671,0.017453,-0.001092,0.00,-0.00,0.000005,0.037000,0.000000,0.000000,0.000000,0.000000,0.000000,0.000000,0.000000,0.000001,-0.000000,0.037000,0.036999,0.037002,0.036999,849,869,849,869
8328,0,0.029671,0.017453,-0.001092,-0.00,-0.00,0.000005,0.037000,0.000000,0.000000,0.000000,0.000000,0.000000,0.000000,0.000000,0.000001,-0.000000,0.037001,0.036999,0.037002,0.036998,849,869,849,869
8338,0,0.029671,0.017453,-0.001092,-0.00,-0.00,0.000010,0.037000,0.000000,0.000000,0.000000,0.000000,0.000000,0.000000,0.000000,0.000001,-0.000001,0.037000,0.037000,0.037002,0.036998,849,869,849,869
8348,0,0.029671,0.017453,-0.001092,-0.00,-0.00,0.000013,0.037000,0.000000,0.000000,0.000000,0.000000,0.000000,0.000000,0.000000,0.000002,-0.000001,0.037000,0.036999,0.037003,0.036997,849,869,849,869
8358,0,0.029671,0.017453,-0.001092,0.00,-0.00,0.000011,0.037000,0.000000,0.000000,0.000000,0.000000,0.000000,0.000000,0.000000,0.000001,-0.000001,0.036999,0.037000,0.037003,0.036998,849,869,849,869
8368,0,0.029671,0.017453,-0.001092,-0.00,-0.00,0.000010,0.037000,0.000000,0.000000,0.000000,0.000000,0.000000,0.000000,0.000000,0.000000,-0.000001,0.037000,0.037000,0.037002,0.036998,849,869,849,869
8378,0,0.029671,0.017453,-0.001092,-0.00,-0.00,0.000009,0.037000,0.000000,0.000000,0.000000,0.000000,0.000000,0.000000,-0.000000,0.000000,-0.000001,0.036999,0.037001,0.037001,0.036999,849,869,849,869
8388,0,0.029671,0.017453,-0.001092,-0.00,-0.00,0.000007,0.037000,0.000000,0.000000,0.000000,0.000000,0.000000,0.000000,0.000000,0.000000,-0.000000,0.037000,0.037000,0.037001,0.036999,849,869,849,869
8398,0,0.029671,0.017453,-0.001092,-0.00,0.00,0.000006,0.037000,0.000000,0.000000,0.000000,0.000000,0.000000,0.000000,-0.000000,-0.000000,-0.000000,0.036999,0.037001,0.037000,0.037000,849,869,849,869
8408,0,0.029671,0.017453,-0.001092,-0.00,0.00,0.000002,0.037000,0.000000,0.000000,0.000000,0.000000,0.000000,0.000000,-0.000000,-0.000000,-0.000000,0.037000,0.037001,0.037000,0.037000,849,869,849,869
8418,0,0.029671,0.017453,-0.001092,-0.00,-0.00,0.000003,0.038000,0.000000,0.000000,0.000000,0.000000,0.000000,0.000000,-0.000000,-0.000000,-0.000000,0.038000,0.038001,0.038000,0.037999,850,870,850,870
8428,0,0.029671,0.017453,-0.001092,-0.00,0.00,0.000003,0.038000,0.000000,0.000000,0.000000,0.000000,0.000000,0.000000,-0.000000,-0.000000,-0.000000,0.038000,0.038001,0.037999,0.037999,850,870,850,870
8438,0,0.029671,0.017453,-0.001092,-0.00,-0.00,0.000001,0.038000,0.000000,0.000000,0.000000,0.000000,0.000000,0.000000,-0.000000,-0.000000,-0.000000,0.038000,0.038001,0.037999,0.037999,850,870,850,870
8448,0,0.029671,0.017453,-0.001092,-0.00,0.00,0.000000,0.038000,0.000000,0.000000,0.000000,0.000000,0.000000,0.000000,-0.000000,-0.000000,-0.000000,0.038000,0.038001,0.037999,0.038000,850,870,850,870
8458,0,0.029671,0.017453,-0.001092,-0.00,0.00,0.000004,0.038000,0.000000,0.000000,0.000000,0.000000,0.000000,0.000000,-0.000000,-0.000000,-0.000000,0.037999,0.038001,0.038000,0.038000,850,870,850,870
8468,0,0.029671,0.017453,-0.001092,-0.00,0.00,0.000002,0.038000,0.000000,0.000000,0.000000,0.000000,0.000000,0.000000,0.000000,-0.000001,-0.000000,0.037999,0.038001,0.037999,0.038001,850,870,850,870
8478,0,0.029671,0.017453,-0.001092,-0.00,0.00,0.000000,0.038000,0.000000,0.000000,0.000000,0.000000,0.000000,0.000000,0.000000,-0.000000,-0.000000,0.037999,0.038001,0.038000,0.038001,850,870,850,870
8490,0,0.029671,0.017453,-0.001092,-0.00,0.00,-0.000002,0.039000,0.000000,0.000000,0.000000,0.000000,0.000000,0.000000,0.000000,-0.000000,0.000000,0.038999,0.039000,0.038999,0.039001,851,871,851,871
8499,0,0.029671,0.017453,-0.001092,-0.00,0.00,-0.000005,0.039000,0.000000,0.000000,0.000000,0.000000,0.000000,0.000000,0.000000,-0.000001,0.000000,0.038999,0.039001,0.038998,0.039002,851,871,851,871
8509,0,0.029671,0.017453,-0.001092,-0.00,0.00,-0.000006,0.039000,0.000000,0.000000,0.000000,0.000000,0.000000,0.000000,0.000000,-0.000001,0.000000,0.038999,0.039000,0.038998,0.039002,851,871,851,871
8518,0,0.029671,0.017453,-0.001092,0.00,0.00,-0.000009,0.039000,0.000000,0.000000,0.000000,0.000000,0.000000,0.000000,0.000000,-0.000001,0.000001,0.038999,0.039000,0.038998,0.039003,851,871,851,871
8528,0,0.029671,0.017453,-0.001092,-0.00,0.00,-0.000010,0.039000,0.000000,0.000000,0.000000,0.000000,0.000000,0.000000,0.000000,-0.000001,0.000001,0.039000,0.039000,0.038998,0.039002,851,871,851,871
8538,0,0.029671,0.017453,-0.001092,-0.00,0.00,-0.000011,0.039000,0.000000,0.000000,0.000000,0.000000,0.000000,0.000000,0.000000,-0.000001,0.000001,0.039000,0.039000,0.038998,0.039002,851,871,851,871
8548,0,0.029671,0.017453,-0.001092,0.00,0.00,-0.000008,0.039000,0.000000,0.000000,0.000000,0.000000,0.000000,0.000000,0.000000,-0.000001,0.000000,0.038999,0.039000,0.038998,0.039003,851,871,851,871
8558,0,0.029671,0.017453,-0.001092,0.00,0.00,-0.000008,0.041000,0.000000,0.000000,0.000000,0.000000,0.000000,0.000000,0.000000,-0.000002,0.000000,0.040998,0.041000,0.040998,0.041003,852,873,852,873
8568,0,0.029671,0.017453,-0.001092,0.00,0.00,-0.000005,0.041000,0.000000,0.000000,0.000000,0.000000,0.000000,0.000000,0.000000,-0.000002,0.000000,0.040998,0.041001,0.040998,0.041003,852,873,852,873
8578,0,0.029671,0.017453,-0.001092,0.00,0.00,-0.000008,0.041000,0.000000,0.000000,0.000000,0.000000,0.000000,0.000000,0.000000,-0.000002,0.000000,0.040999,0.041000,0.040998,0.041003,852,873,852,873
8589,0,0.029671,0.017453,-0.001092,0.00,0.00,-0.000007,0.043000,0.000000,0.000000,0.000000,0.000000,0.000000,0.000000,0.000000,-0.000000,0.000000,0.042999,0.043000,0.042999,0.043002,854,874,854,874
8598,0,0.029671,0.017453,-0.001092,-0.00,0.00,-0.000010,0.046000,0.000000,0.000000,0.000000,0.000000,0.000000,0.000000,0.000000,-0.000000,0.000001,0.046000,0.045999,0.045999,0.046002,856,877,856,877
8608,0,0.029671,0.017453,-0.001092,-0.00,0.00,-0.000009,0.046000,0.000000,0.000000,0.000000,0.000000,0.000000,0.000000,0.000000,-0.000001,0.000000,0.046000,0.046000,0.045998,0.046002,856,877,856,877
8618,0,0.029671,0.017453,-0.001092,-0.00,0.00,-0.000008,0.046000,0.000000,0.000000,0.000000,0.000000,0.000000,0.000000,-0.000000,-0.000002,0.000000,0.045999,0.046001,0.045997,0.046002,856,877,856,877
8628,0,0.029671,0.017453,-0.001092,-0.00,0.00,-0.000009,0.047000,0.000000,0.000000,0.000000,0.000000,0.000000,0.000000,-0.000000,-0.000001,0.000001,0.047000,0.047001,0.046997,0.047002,857,878,857,878
8639,0,0.029671,0.017453,-0.001092,-0.00,0.00,-0.000009,0.047000,0.000000,0.000000,0.000000,0.000000,0.000000,0.000000,-0.000000,-0.000001,0.000000,0.047000,0.047000,0.046998,0.047002,857,878,857,878
8649,0,0.029671,0.017453,-0.001092,-0.00,0.00,-0.000006,0.047000,0.000000,0.000000,0.000000,0.000000,0.000000,0.000000,-0.000000,-0.000001,0.000000,0.047000,0.047001,0.046998,0.047002,857,878,857,878
8659,0,0.029671,0.017453,-0.001092,-0.00,0.00,-0.000005,0.048000,0.000000,0.000000,0.000000,0.000000,0.000000,0.000000,-0.000000,-0.000001,0.000000,0.047999,0.048001,0.047998,0.048002,858,878,858,878
8669,0,0.029671,0.017453,-0.001092,-0.00,0.00,-0.000007,0.048000,0.000000,0.000000,0.000000,0.000000,0.000000,0.000000,0.000000,-0.000001,0.000000,0.047999,0.048000,0.047998,0.048002,858,878,858,878
8678,0,0.029671,0.017453,-0.001092,0.00,0.00,-0.000008,0.048000,0.000000,0.000000,0.000000,0.000000,0.000000,0.000000,0.000000,-0.000002,0.000000,0.047999,0.048000,0.047998,0.048003,858,878,858,878
8689,0,0.029671,0.017453,-0.001092,-0.00,0.00,-0.000009,0.049000,0.000000,0.000000,0.000000,0.000000,0.000000,0.000000,0.000000,-0.000001,0.000000,0.048999,0.049000,0.048998,0.049002,859,879,859,879
8701,0,0.029671,0.017453,-0.001092,-0.00,0.00,-0.000006,0.050000,0.000000,0.000000,0.000000,0.000000,0.000000,0.000000,0.000000,-0.000001,0.000000,0.049999,0.050001,0.049998,0.050002,860,880,860,880
8711,0,0.029671,0.017453,-0.001092,-0.00,0.00,-0.000004,0.050000,0.000000,0.000000,0.000000,0.000000,0.000000,0.000000,-0.000000,-0.000001,0.000000,0.050000,0.050001,0.049998,0.050001,860,880,860,880
8720,0,0.029671,0.017453,-0.001092,-0.00,0.00,-0.000005,0.052000,0.000000,0.000000,0.000000,0.000000,0.000000,0.000000,-0.000000,-0.000001,0.000000,0.051999,0.052001,0.051998,0.052002,861,882,861,882
8729,0,0.029671,0.017453,-0.001092,-0.00,0.00,-0.000003,0.052000,0.000000,0.000000,0.000000,0.000000,0.000000,0.000000,-0.000000,-0.000001,0.000000,0.051999,0.052001,0.051999,0.052001,861,882,861,882
8739,0,0.029671,0.017453,-0.001092,-0.00,0.00,-0.000003,0.052000,0.000000,0.000000,0.000000,0.000000,0.000000,0.000000,0.000000,-0.000000,0.000000,0.052000,0.052000,0.051999,0.052001,861,882,861,882
8749,0,0.029671,0.017453,-0.001092,-0.00,0.00,-0.000006,0.056000,0.000000,0.000000,0.000000,0.000000,0.000000,0.000000,-0.000000,-0.000000,0.000000,0.056000,0.056000,0.055998,0.056001,865,885,865,885
8759,0,0.029671,0.017453,-0.001092,-0.00,0.00,-0.000007,0.057000,0.000000,0.000000,0.000000,0.000000,0.000000,0.000000,-0.000000,-0.000000,0.000000,0.057000,0.057000,0.056998,0.057001,865,886,865,886
8769,0,0.029671,0.017453,-0.001092,-0.00,0.00,-0.000003,0.057000,0.000000,0.000000,0.000000,0.000000,0.000000,0.000000,-0.000000,-0.000000,0.000000,0.057000,0.057001,0.056998,0.057001,865,886,865,886
8779,0,0.029671,0.017453,-0.001092,-0.00,0.00,-0.000000,0.062000,0.000000,0.000000,0.000000,0.000000,0.000000,0.000000,-0.000000,-0.000001,0.000000,0.061999,0.062002,0.061998,0.062001,869,890,869,890
8794,0,0.029671,0.017453,-0.001092,-0.00,0.00,-0.000003,0.062000,0.000000,0.000000,0.000000,0.000000,0.000000,0.000000,-0.000000,-0.000002,0.000000,0.061999,0.062002,0.061997,0.062002,869,890,869,890
8806,0,0.029671,0.017453,-0.001092,-0.00,0.00,-0.000002,0.066000,0.000000,0.000000,0.000000,0.000000,0.000000,0.000000,-0.000000,-0.000002,0.000000,0.065999,0.066002,0.065997,0.066002,873,893,873,893
8818,0,0.029671,0.017453,-0.001092,-0.00,0.00,-0.000006,0.066000,0.000000,0.000000,0.000000,0.000000,0.000000,0.000000,-0.000000,-0.000002,0.000000,0.065999,0.066002,0.065996,0.066002,873,893,873,893
8829,0,0.029671,0.017453,-0.001092,-0.00,0.00,-0.000003,0.068000,0.000000,0.000000,0.000000,0.000000,0.000000,0.000000,-0.000000,-0.000002,0.000000,0.067999,0.068002,0.067997,0.068002,874,895,874,895
8839,0,0.029671,0.017453,-0.001092,-0.00,0.00,-0.000003,0.068000,0.000000,0.000000,0.000000,0.000000,0.000000,0.000000,-0.000000,-0.000002,0.000000,0.067999,0.068002,0.067997,0.068002,874,895,874,895
8849,0,0.029671,0.017453,-0.001092,-0.00,0.00,-0.000003,0.070000,0.000000,0.000000,0.000000,0.000000,0.000000,0.000000,-0.000000,-0.000002,0.000000,0.069999,0.070002,0.069997,0.070002,876,896,876,896
8859,0,0.029671,0.017453,-0.001092,-0.00,0.00,-0.000004,0.070000,0.000000,0.000000,0.000000,0.000000,0.000000,0.000000,-0.000000,-0.000002,0.000000,0.069999,0.070002,0.069997,0.070002,876,896,876,896
8869,0,0.029671,0.017453,-0.001092,-0.00,0.00,-0.000006,0.070000,0.000000,0.000000,0.000000,0.000000,0.000000,0.000000,-0.000000,-0.000002,0.000000,0.070000,0.070002,0.069997,0.070002,876,896,876,896
8879,0,0.029671,0.017453,-0.001092,-0.00,0.00,-0.000012,0.078000,0.000000,0.000000,0.000000,0.000000,0.000000,0.000000,-0.000000,-0.000001,0.000001,0.078000,0.078000,0.077997,0.078002,883,903,883,903
8889,0,0.029671,0.017453,-0.001092,-0.00,0.00,-0.000015,0.079000,0.000000,0.000000,0.000000,0.000000,0.000000,0.000000,-0.000000,-0.000000,0.000002,0.079001,0.079000,0.078997,0.079002,883,904,883,904
8899,0,0.029671,0.017453,-0.001092,-0.00,0.00,-0.000013,0.079000,0.000000,0.000000,0.000000,0.000000,0.000000,0.000000,-0.000000,-0.000000,0.000001,0.079002,0.078999,0.078998,0.079001,883,904,883,904
8909,0,0.029671,0.017453,-0.001092,-0.00,0.00,-0.000010,0.079000,0.000000,0.000000,0.000000,0.000000,0.000000,0.000000,-0.000000,-0.000000,0.000001,0.079001,0.079000,0.078998,0.079001,883,904,883,904
8919,0,0.029671,0.017453,-0.001092,-0.00,0.00,-0.000009,0.080000,0.000000,0.000000,0.000000,0.000000,0.000000,0.000000,-0.000000,-0.000000,0.000001,0.080001,0.080000,0.079998,0.080001,884,905,884,905
8929,0,0.029671,0.017453,-0.001092,-0.00,0.00,-0.000008,0.080000,0.000000,0.000000,0.000000,0.000000,0.000000,0.000000,-0.000000,-0.000000,0.000000,0.080000,0.080000,0.079998,0.080001,884,905,884,905
8939,0,0.029671,0.017453,-0.001092,-0.00,0.00,-0.000009,0.080000,0.000000,0.000000,0.000000,0.000000,0.000000,0.000000,-0.000000,-0.000000,0.000001,0.080001,0.080000,0.079998,0.080001,884,905,884,905
8949,0,0.029671,0.017453,-0.001092,-0.00,-0.00,-0.000009,0.080000,0.000000,0.000000,0.000000,0.000000,0.000000,0.000000,-0.000000,0.000000,0.000000,0.080002,0.080000,0.079999,0.080000,884,905,884,905
8959,0,0.029671,0.017453,-0.001092,-0.00,-0.00,-0.000011,0.082000,0.000000,0.000000,0.000000,0.000000,0.000000,0.000000,-0.000000,0.000000,0.000001,0.082002,0.081999,0.081999,0.082000,886,906,886,906
8969,0,0.029671,0.017453,-0.001092,-0.00,-0.00,-0.000014,0.082000,0.000000,0.000000,0.000000,0.000000,0.000000,0.000000,-0.000001,0.000000,0.000001,0.082003,0.081999,0.081998,0.082000,886,906,886,906
8979,0,0.029671,0.017453,-0.001092,-0.00,-0.00,-0.000018,0.084000,0.000000,0.000000,0.000000,0.000000,0.000000,0.000000,-0.000001,0.000000,0.000002,0.084003,0.083999,0.083997,0.084000,887,908,887,908
8990,0,0.029671,0.017453,-0.001092,-0.00,-0.00,-0.000022,0.084000,0.000000,0.000000,0.000000,0.000000,0.000000,0.000000,-0.000001,-0.000000,0.000002,0.084003,0.083999,0.083996,0.084001,887,908,887,908
9000,0,0.029671,0.017453,-0.001092,-0.00,0.00,-0.000020,0.084000,0.000000,0.000000,0.000000,0.000000,0.000000,0.000000,-0.000001,-0.000000,0.000002,0.084003,0.084000,0.083996,0.084001,887,908,887,908
9010,0,0.029671,0.017453,-0.001092,-0.00,-0.00,-0.000016,0.084000,0.000000,0.000000,0.000000,0.000000,0.000000,0.000000,-0.000001,-0.000000,0.000002,0.084003,0.084000,0.083997,0.084000,887,908,887,908
9019,0,0.029671,0.017453,-0.001092,-0.00,0.00,-0.000009,0.086000,0.000000,0.000000,0.000000,0.000000,0.000000,0.000000,-0.000002,-0.000000,0.000000,0.086002,0.086001,0.085997,0.086000,889,910,889,910
9030,0,0.029671,0.017453,-0.001092,-0.00,0.00,-0.000006,0.091000,0.000000,0.000000,0.000000,0.000000,0.000000,0.000000,-0.000002,-0.000000,0.000000,0.091001,0.091002,0.090997,0.091000,893,914,893,914
9040,0,0.029671,0.017453,-0.001092,-0.00,0.00,-0.000011,0.091000,0.000000,0.000000,0.000000,0.000000,0.000000,0.000000,-0.000001,-0.000000,0.000001,0.091002,0.091001,0.090997,0.091000,893,914,893,914
9050,0,0.029671,0.017453,-0.001092,-0.00,-0.00,-0.000021,0.094000,0.000000,0.000000,0.000000,0.000000,0.000000,0.000000,-0.000001,0.000000,0.000002,0.094004,0.093999,0.093997,0.094000,896,916,896,916
9060,0,0.029671,0.017453,-0.001092,-0.00,-0.00,-0.000021,0.094000,0.000000,0.000000,0.000000,0.000000,0.000000,0.000000,-0.000002,0.000000,0.000002,0.094004,0.093999,0.093997,0.094000,896,916,896,916
9070,0,0.029671,0.017453,-0.001092,-0.00,0.00,-0.000044,0.094000,0.000000,0.000000,0.000000,0.000000,0.000000,0.000000,-0.000002,-0.000000,0.000005,0.094006,0.093998,0.093993,0.094003,896,916,896,916
9080,0,0.029671,0.017453,-0.001092,-0.00,0.00,-0.000042,0.098000,0.000000,0.000000,0.000000,0.000000,0.000000,0.000000,-0.000002,-0.000002,0.000004,0.098005,0.097999,0.097992,0.098004,899,919,899,919
9090,0,0.029671,0.017453,-0.001092,-0.00,0.00,-0.000023,0.100000,0.000000,0.000000,0.000000,0.000000,0.000000,0.000000,-0.000003,-0.000001,0.000002,0.100004,0.100002,0.099994,0.100001,901,921,901,921
9100,0,0.029671,0.017453,-0.001092,-0.00,0.00,-0.000001,0.100000,0.000000,0.000000,0.000000,0.000000,0.000000,0.000000,-0.000003,-0.000001,0.000000,0.100001,0.100004,0.099996,0.099999,901,921,901,921
9117,0,0.029671,0.017453,-0.001092,-0.00,0.00,0.000004,0.100000,0.000000,0.000000,0.000000,0.000000,0.000000,0.000000,-0.000003,-0.000000,-0.000000,0.100001,0.100004,0.099997,0.099998,901,921,901,921
9130,0,0.029671,0.017453,-0.001092,-0.00,0.00,-0.000003,0.100000,0.000000,0.000000,0.000000,0.000000,0.000000,0.000000,-0.000002,-0.000001,0.000000,0.100001,0.100003,0.099996,0.099999,901,921,901,921
9140,0,0.029671,0.017453,-0.001092,-0.00,0.00,-0.000023,0.100000,0.000000,0.000000,0.000000,0.000000,0.000000,0.000000,-0.000002,-0.000002,0.000002,0.100002,0.100002,0.099994,0.100002,901,921,901,921
9150,0,0.029671,0.017453,-0.001092,-0.00,0.00,-0.000041,0.102000,0.000000,0.000000,0.000000,0.000000,0.000000,0.000000,-0.000002,-0.000003,0.000004,0.102002,0.102001,0.101991,0.102006,902,923,902,923
9160,0,0.029671,0.017453,-0.001092,-0.00,0.00,-0.000064,0.102000,0.000000,0.000000,0.000000,0.000000,0.000000,0.000000,-0.000001,-0.000003,0.000007,0.102005,0.101998,0.101989,0.102008,902,923,902,923
9170,0,0.029671,0.017453,-0.001092,-0.00,0.00,-0.000090,0.102000,0.000000,0.000000,0.000000,0.000000,0.000000,0.000000,-0.000001,-0.000003,0.000009,0.102007,0.101995,0.101987,0.102011,902,923,902,923
9180,0,0.029671,0.017453,-0.001092,-0.00,0.00,-0.000109,0.102000,0.000000,0.000000,0.000000,0.000000,0.000000,0.000000,-0.000000,-0.000002,0.000011,0.102010,0.101992,0.101986,0.102013,902,923,902,923
9190,0,0.029671,0.017453,-0.001092,-0.00,0.00,-0.000135,0.102000,0.000000,0.000000,0.000000,0.000000,0.000000,0.000000,-0.000000,-0.000003,0.000014,0.102012,0.101990,0.101983,0.102015,902,923,902,923
9200,0,0.029889,0.017453,-0.001092,0.00,0.00,-0.000160,0.102000,0.000000,0.000000,0.000000,0.000000,0.000000,0.000000,0.000010,-0.000003,0.000016,0.102003,0.101977,0.101991,0.102029,902,923,902,923
9210,0,0.030063,0.017453,-0.001092,0.00,0.00,-0.000190,0.102000,0.000000,0.000000,0.000000,0.000000,0.000000,0.000000,0.000018,-0.000003,0.000019,0.101999,0.101966,0.101995,0.102040,902,923,902,923
9220,0,0.030203,0.017453,-0.001092,0.00,0.00,-0.000204,0.102000,0.000000,0.000000,0.000000,0.000000,0.000000,0.000000,0.000023,-0.000003,0.000021,0.101995,0.101959,0.101999,0.102047,902,923,902,923
9230,0,0.030315,0.017453,-0.001092,0.00,0.00,-0.000216,0.102000,0.000000,0.000000,0.000000,0.000000,0.000000,0.000000,0.000026,-0.000003,0.000022,0.101994,0.101955,0.102001,0.102050,902,923,902,923
9240,0,0.030404,0.017453,-0.001092,0.00,0.00,-0.000221,0.102000,0.000000,0.000000,0.000000,0.000000,0.000000,0.000000,0.000027,-0.000003,0.000023,0.101992,0.101953,0.102002,0.102053,902,923,902,923
9250,0,0.030694,0.017453,-0.001092,0.00,0.00,-0.000227,0.102000,0.000000,0.000000,0.000000,0.000000,0.000000,0.000000,0.000039,-0.000002,0.000023,0.101982,0.101940,0.102013,0.102064,902,923,902,923
9260,0,0.030925,0.017453,-0.001092,0.00,0.00,-0.000229,0.102000,0.000000,0.000000,0.000000,0.000000,0.000000,0.000000,0.000045,-0.000002,0.000023,0.101976,0.101933,0.102020,0.102071,902,923,902,923
9270,0,0.031111,0.017453,-0.001092,0.00,0.00,-0.000223,0.102000,0.000000,0.000000,0.000000,0.000000,0.000000,0.000000,0.000049,-0.000003,0.000023,0.101971,0.101931,0.102023,0.102075,902,923,902,923
9280,0,0.031259,0.017453,-0.001092,0.00,0.00,-0.000211,0.103000,0.000000,0.000000,0.000000,0.000000,0.000000,0.000000,0.000050,-0.000004,0.000022,0.102968,0.102933,0.103024,0.103075,903,923,903,924
9290,0,0.031378,0.017453,-0.001092,0.00,0.00,-0.000178,0.103000,0.000000,0.000000,0.000000,0.000000,0.000000,0.000000,0.000049,-0.000005,0.000018,0.102964,0.102937,0.103026,0.103072,903,923,903,924
9300,0,0.031473,0.017453,-0.001092,0.00,0.00,-0.000136,0.103000,0.000000,0.000000,0.000000,0.000000,0.000000,0.000000,0.000048,-0.000005,0.000014,0.102961,0.102944,0.103029,0.103067,903,923,903,924
9310,0,0.031549,0.017453,-0.001092,0.00,0.00,-0.000102,0.103000,0.000000,0.000000,0.000000,0.000000,0.000000,0.000000,0.000046,-0.000005,0.000010,0.102959,0.102949,0.103030,0.103061,903,923,903,924
9320,0,0.031609,0.017453,-0.001092,0.00,0.00,-0.000070,0.104000,0.000000,0.000000,0.000000,0.000000,0.000000,0.000000,0.000043,-0.000005,0.000007,0.103959,0.103955,0.104030,0.104055,904,924,904,924
9330,0,0.031440,0.017453,-0.001092,0.00,0.00,-0.000056,0.104000,0.000000,0.000000,0.000000,0.000000,0.000000,0.000000,0.000029,-0.000005,0.000006,0.103971,0.103971,0.104018,0.104040,904,924,904,924
9341,0,0.031304,0.017453,-0.001092,0.00,0.00,-0.000062,0.104000,0.000000,0.000000,0.000000,0.000000,0.000000,0.000000,0.000019,-0.000006,0.000006,0.103982,0.103980,0.104007,0.104031,904,924,904,924
9350,0,0.031196,0.017453,-0.001092,0.00,0.00,-0.000103,0.104000,0.000000,0.000000,0.000000,0.000000,0.000000,0.000000,0.000010,-0.000007,0.000011,0.103993,0.103987,0.103992,0.104028,904,924,904,924
9360,0,0.031327,0.017453,-0.001092,0.00,0.00,-0.000175,0.105000,0.000000,0.000000,0.000000,0.000000,0.000000,0.000000,0.000016,-0.000009,0.000018,0.104993,0.104976,0.104989,0.105043,905,925,905,925
9370,0,0.031432,0.017453,-0.001092,0.00,0.00,-0.000245,0.105000,0.000000,0.000000,0.000000,0.000000,0.000000,0.000000,0.000018,-0.000010,0.000025,0.104996,0.104967,0.104983,0.105054,905,925,905,925
9380,0,0.031734,0.017453,-0.001092,0.00,0.00,-0.000281,0.106000,0.000000,0.000000,0.000000,0.000000,0.000000,0.000000,0.000031,-0.000010,0.000029,0.105988,0.105950,0.105993,0.106069,905,926,905,926
9391,0,0.031976,0.017453,-0.001092,0.00,0.00,-0.000242,0.106000,0.000000,0.000000,0.000000,0.000000,0.000000,0.000000,0.000038,-0.000008,0.000025,0.105978,0.105945,0.106006,0.106071,905,926,905,926
9400,0,0.032169,0.017453,-0.001092,0.00,0.00,-0.000154,0.106000,0.000000,0.000000,0.000000,0.000000,0.000000,0.000000,0.000045,-0.000005,0.000016,0.105966,0.105944,0.106025,0.106065,905,926,906,926
9410,0,0.032324,0.017453,-0.001092,0.00,0.00,-0.000056,0.113000,0.000000,0.000000,0.000000,0.000000,0.000000,0.000000,0.000048,-0.000002,0.000006,0.112955,0.112949,0.113040,0.113056,911,932,911,932
9421,0,0.032230,0.017453,-0.001092,0.00,0.00,0.000027,0.113000,0.000000,0.000000,0.000000,0.000000,0.000000,0.000000,0.000038,-0.000002,-0.000003,0.112958,0.112967,0.113038,0.113037,911,932,911,932
9438,0,0.032154,0.017453,-0.001092,0.00,0.00,0.000054,0.117000,0.000000,0.000000,0.000000,0.000000,0.000000,0.000000,0.000031,-0.000004,-0.000005,0.116960,0.116979,0.117032,0.117029,914,935,915,935
9449,0,0.032094,0.017453,-0.001092,0.00,0.00,0.000030,0.117000,0.000000,0.000000,0.000000,0.000000,0.000000,0.000000,0.000023,-0.000007,-0.000003,0.116967,0.116986,0.117020,0.117027,914,935,915,935
9460,0,0.032046,0.017453,-0.001092,0.00,0.00,0.000008,0.119000,0.000000,0.000000,0.000000,0.000000,0.000000,0.000000,0.000018,-0.000009,-0.000000,0.118972,0.118992,0.119009,0.119027,916,937,916,937
9470,0,0.032007,0.017453,-0.001092,0.00,0.00,-0.000038,0.119000,0.000000,0.000000,0.000000,0.000000,0.000000,0.000000,0.000014,-0.000007,0.000004,0.118983,0.118989,0.119003,0.119025,916,937,916,937
9481,0,0.031976,0.017453,-0.001092,0.00,0.00,-0.000078,0.120000,0.000000,0.000000,0.000000,0.000000,0.000000,0.000000,0.000011,-0.000005,0.000008,0.119991,0.119986,0.119998,0.120025,917,937,917,937
9491,0,0.031951,0.017453,-0.001092,0.00,0.00,-0.000092,0.119000,0.000000,0.000000,0.000000,0.000000,0.000000,0.000000,0.000009,-0.000004,0.000009,0.118997,0.118986,0.118995,0.119022,916,937,916,937
9501,0,0.031931,0.017453,-0.001092,0.00,0.00,-0.000085,0.119000,0.000000,0.000000,0.000000,0.000000,0.000000,0.000000,0.000007,-0.000004,0.000009,0.118998,0.118989,0.118994,0.119020,916,937,916,937
9511,0,0.031916,0.017453,-0.001092,0.00,0.00,-0.000061,0.120000,0.000000,0.000000,0.000000,0.000000,0.000000,0.000000,0.000004,-0.000005,0.000006,0.119997,0.119994,0.119993,0.120015,917,937,917,937
9521,0,0.031903,0.017453,-0.001092,0.00,0.00,-0.000044,0.120000,0.000000,0.000000,0.000000,0.000000,0.000000,0.000000,0.000003,-0.000005,0.000005,0.119997,0.119998,0.119993,0.120013,917,937,917,937
9531,0,0.031893,0.017453,-0.001092,0.00,0.00,-0.000028,0.120000,0.000000,0.000000,0.000000,0.000000,0.000000,0.000000,0.000002,-0.000007,0.000003,0.119995,0.120002,0.119992,0.120011,917,937,917,937
9541,0,0.031885,0.017235,-0.001092,0.00,-0.00,-0.000005,0.120000,0.000000,0.000000,0.000000,0.000000,0.000000,0.000000,0.000000,0.000003,0.000000,0.120003,0.119995,0.120003,0.119998,917,937,917,937
9555,0,0.031878,0.017279,-0.001092,-0.00,-0.00,-0.000006,0.119000,0.000000,0.000000,0.000000,0.000000,0.000000,0.000000,0.000000,0.000001,0.000000,0.119002,0.118998,0.119001,0.119000,916,937,916,937
9566,0,0.032091,0.017314,-0.001092,0.00,-0.00,-0.000026,0.119000,0.000000,0.000000,0.000000,0.000000,0.000000,0.000000,0.000010,-0.000000,0.000003,0.118993,0.118988,0.119007,0.119013,916,937,916,937
9579,0,0.032262,0.017342,-0.001092,0.00,0.00,-0.000038,0.119000,0.000000,0.000000,0.000000,0.000000,0.000000,0.000000,0.000015,-0.000002,0.000004,0.118987,0.118982,0.119010,0.119021,916,937,916,937
9590,0,0.032398,0.017364,-0.001092,0.00,0.00,-0.000054,0.119000,0.000000,0.000000,0.000000,0.000000,0.000000,0.000000,0.000020,-0.000002,0.000006,0.118983,0.118977,0.119012,0.119028,916,937,916,937
9602,0,0.032507,0.017382,-0.001092,0.00,0.00,-0.000085,0.119000,0.000000,0.000000,0.000000,0.000000,0.000000,0.000000,0.000022,-0.000003,0.000009,0.118984,0.118972,0.119010,0.119033,916,937,916,937
9612,0,0.032594,0.017396,-0.001092,0.00,0.00,-0.000097,0.119000,0.000000,0.000000,0.000000,0.000000,0.000000,0.000000,0.000023,-0.000005,0.000010,0.118981,0.118972,0.119008,0.119038,916,937,916,937
9621,0,0.032664,0.017408,-0.001092,0.00,0.00,-0.000111,0.119000,0.000000,0.000000,0.000000,0.000000,0.000000,0.000000,0.000023,-0.000007,0.000011,0.118982,0.118973,0.119005,0.119041,916,937,916,937
9631,0,0.032938,0.017417,-0.001092,0.00,0.00,-0.000128,0.119000,0.000000,0.000000,0.000000,0.000000,0.000000,0.000000,0.000033,-0.000007,0.000013,0.118974,0.118961,0.119013,0.119053,916,937,916,937
9641,0,0.033157,0.017424,-0.001092,0.00,0.00,-0.000123,0.119000,0.000000,0.000000,0.000000,0.000000,0.000000,0.000000,0.000037,-0.000007,0.000013,0.118968,0.118957,0.119018,0.119057,916,937,916,937
9651,0,0.033332,0.017430,-0.001092,0.00,0.00,-0.000124,0.119000,0.000000,0.000000,0.000000,0.000000,0.000000,0.000000,0.000041,-0.000007,0.000013,0.118965,0.118953,0.119021,0.119060,916,937,916,937
9661,0,0.033473,0.017435,-0.001092,0.00,0.00,-0.000112,0.119000,0.000000,0.000000,0.000000,0.000000,0.000000,0.000000,0.000041,-0.000005,0.000011,0.118966,0.118953,0.119024,0.119057,916,937,916,937
9671,0,0.033585,0.017438,-0.001092,0.00,0.00,-0.000091,0.119000,0.000000,0.000000,0.000000,0.000000,0.000000,0.000000,0.000038,-0.000005,0.000009,0.118966,0.118958,0.119023,0.119053,916,937,916,937
9681,0,0.033675,0.017441,-1.257511,0.00,0.00,-0.000064,0.119000,0.000000,0.000000,0.000000,0.000000,0.000000,0.000000,0.000034,-0.000007,0.000007,0.118966,0.118967,0.119020,0.119047,916,937,916,937
9692,0,0.033528,0.017444,-2.262646,0.00,0.00,-0.000025,0.119000,0.000000,0.000000,0.000000,0.000000,0.000000,0.000000,0.000019,-0.000006,0.000003,0.118978,0.118985,0.119010,0.119027,916,937,916,937
9701,0,0.033411,0.017446,-3.066754,0.00,0.00,0.000002,0.119000,0.000000,0.000000,0.000000,0.000000,0.000000,0.000000,0.000004,-0.000005,-0.000000,0.118990,0.119001,0.118999,0.119009,916,937,916,937
9711,0,0.033318,0.017447,2.573145,-0.00,0.00,0.000042,0.119000,0.000000,0.000000,0.000000,0.000000,0.000000,0.000000,-0.000007,-0.000005,-0.000004,0.118997,0.119016,0.118992,0.118994,916,937,916,937
9721,0,0.033243,0.017448,2.058734,-0.00,0.00,0.000083,0.119000,0.000000,0.000000,0.000000,0.000000,0.000000,0.000000,-0.000017,-0.000003,-0.000008,0.119005,0.119028,0.118988,0.118978,916,937,916,937
9731,0,0.033183,0.017449,1.647206,-0.00,0.00,0.000110,0.119000,0.000000,0.000000,0.000000,0.000000,0.000000,0.000000,-0.000028,-0.000003,-0.000011,0.119014,0.119042,0.118980,0.118963,916,937,916,937
9742,0,0.033135,0.017232,1.318201,-0.00,-0.00,0.000105,0.119000,0.000000,0.000000,0.000000,0.000000,0.000000,0.000000,-0.000040,0.000007,-0.000011,0.119036,0.119044,0.118978,0.118942,916,937,916,937
9757,0,0.033097,0.017276,1.055215,-0.00,-0.00,0.000077,0.119000,0.000000,0.000000,0.000000,0.000000,0.000000,0.000000,-0.000049,0.000007,-0.000008,0.119049,0.119050,0.118966,0.118936,916,937,916,937
9769,0,0.033066,0.017312,0.845045,-0.00,-0.00,-0.000007,0.119000,0.000000,0.000000,0.000000,0.000000,0.000000,0.000000,-0.000057,0.000005,0.000000,0.119063,0.119051,0.118947,0.118939,916,937,916,937
9780,0,0.033259,0.017340,0.676909,-0.00,-0.00,-0.000080,0.119000,0.000000,0.000000,0.000000,0.000000,0.000000,0.000000,-0.000052,0.000004,0.000008,0.119064,0.119040,0.118944,0.118952,916,937,916,937
9792,0,0.033414,0.017363,0.542618,-0.00,-0.00,-0.000143,0.119000,0.000000,0.000000,0.000000,0.000000,0.000000,0.000000,-0.000047,0.000003,0.000015,0.119064,0.119029,0.118941,0.118965,916,937,916,937
9802,0,0.033538,0.017381,0.435185,-0.00,0.00,-0.000182,0.119000,0.000000,0.000000,0.000000,0.000000,0.000000,0.000000,-0.000039,-0.000001,0.000019,0.119056,0.119022,0.118941,0.118981,916,937,916,937
9812,0,0.033856,0.017177,0.349239,-0.00,-0.00,-0.000177,0.119000,0.000000,0.000000,0.000000,0.000000,0.000000,0.000000,-0.000023,0.000007,0.000018,0.119048,0.118998,0.118965,0.118988,916,937,916,937
9822,0,0.034109,0.017014,0.280482,-0.00,-0.00,-0.000133,0.119000,0.000000,0.000000,0.000000,0.000000,0.000000,0.000000,-0.000011,0.000013,0.000014,0.119038,0.118984,0.118989,0.118989,916,937,916,937
9832,0,0.034094,0.016884,0.225476,-0.00,-0.00,-0.000045,0.119000,0.000000,0.000000,0.000000,0.000000,0.000000,0.000000,-0.000013,0.000018,0.000005,0.119035,0.118990,0.119001,0.118974,916,937,916,937
9842,0,0.034082,0.016780,0.181472,-0.00,-0.00,0.000057,0.119000,0.000000,0.000000,0.000000,0.000000,0.000000,0.000000,-0.000013,0.000023,-0.000006,0.119031,0.118996,0.119016,0.118957,916,937,916,937
9852,0,0.034073,0.016914,0.146268,-0.00,-0.00,0.000124,0.119000,0.000000,0.000000,0.000000,0.000000,0.000000,0.000000,-0.000014,0.000015,-0.000013,0.119017,0.119011,0.119014,0.118958,916,937,916,937
9862,0,0.033847,0.017022,0.118106,-0.00,-0.00,0.000217,0.119000,0.000000,0.000000,0.000000,0.000000,0.000000,0.000000,-0.000025,0.000009,-0.000022,0.119012,0.119038,0.119006,0.118943,916,937,916,937
9872,0,0.033666,0.017108,0.095575,-0.00,-0.00,0.000251,0.119000,0.000000,0.000000,0.000000,0.000000,0.000000,0.000000,-0.000033,0.000005,-0.000026,0.119012,0.119053,0.118998,0.118937,916,937,916,937
9882,0,0.033303,0.017177,0.077551,-0.00,-0.00,0.000242,0.119000,0.000000,0.000000,0.000000,0.000000,0.000000,0.000000,-0.000050,0.000000,-0.000025,0.119025,0.119075,0.118975,0.118925,916,937,916,937
9892,0,0.033013,0.017233,0.063350,-0.00,0.00,0.000202,0.119000,0.000000,0.000000,0.000000,0.000000,0.000000,0.000000,-0.000060,-0.000003,-0.000021,0.119037,0.119083,0.118958,0.118922,916,937,916,937
9902,0,0.032781,0.017277,0.051989,-0.00,0.00,0.000113,0.119000,0.000000,0.000000,0.000000,0.000000,0.000000,0.000000,-0.000066,-0.000004,-0.000011,0.119050,0.119082,0.118941,0.118927,916,937,916,937
9912,0,0.032813,0.017312,0.042900,-0.00,0.00,0.000004,0.119000,0.000000,0.000000,0.000000,0.000000,0.000000,0.000000,-0.000059,-0.000007,-0.000000,0.119052,0.119067,0.118934,0.118947,916,937,916,937
9922,0,0.032839,0.017340,0.035629,-0.00,0.00,-0.000081,0.119000,0.000000,0.000000,0.000000,0.000000,0.000000,0.000000,-0.000053,-0.000008,0.000008,0.119054,0.119053,0.118930,0.118963,916,937,916,937
9932,0,0.033078,0.017363,0.029812,-0.00,0.00,-0.000130,0.119000,0.000000,0.000000,0.000000,0.000000,0.000000,0.000000,-0.000036,-0.000008,0.000013,0.119042,0.119031,0.118942,0.118985,916,937,916,937
9942,0,0.033269,0.017381,0.025159,-0.00,0.00,-0.000159,0.119000,0.000000,0.000000,0.000000,0.000000,0.000000,0.000000,-0.000024,-0.000009,0.000016,0.119031,0.119016,0.118951,0.119001,916,937,916,937
9952,0,0.033422,0.017395,0.021436,-0.00,0.00,-0.000129,0.119000,0.000000,0.000000,0.000000,0.000000,0.000000,0.000000,-0.000015,-0.000006,0.000013,0.119022,0.119008,0.118966,0.119005,916,937,916,937
9962,0,0.033545,0.017407,0.018458,-0.00,0.00,-0.000101,0.119000,0.000000,0.000000,0.000000,0.000000,0.000000,0.000000,-0.000009,-0.000005,0.000010,0.119014,0.119003,0.118976,0.119006,916,937,916,937
9972,0,0.033642,0.017416,0.016075,-0.00,0.00,-0.000073,0.119000,0.000000,0.000000,0.000000,0.000000,0.000000,0.000000,-0.000004,-0.000007,0.000007,0.119005,0.119003,0.118982,0.119010,916,937,916,937
9982,0,0.033721,0.017424,0.014169,-0.00,0.00,-0.000003,0.119000,0.000000,0.000000,0.000000,0.000000,0.000000,0.000000,-0.000000,-0.000006,0.000000,0.118994,0.119006,0.118993,0.119006,916,937,916,937
9992,0,0.033783,0.017430,0.012644,0.00,0.00,0.000028,0.119000,0.000000,0.000000,0.000000,0.000000,0.000000,0.000000,0.000003,-0.000007,-0.000003,0.118988,0.119007,0.118999,0.119007,916,937,916,937
10002,0,0.033834,0.017434,0.011424,0.00,0.00,0.000073,0.119000,0.000000,0.000000,0.000000,0.000000,0.000000,0.000000,0.000004,-0.000008,-0.000007,0.118981,0.119011,0.119004,0.119005,916,937,916,937
10012,0,0.033655,0.017438,0.010449,-0.00,0.00,0.000098,0.119000,0.000000,0.000000,0.000000,0.000000,0.000000,0.000000,-0.000005,-0.000006,-0.000010,0.118989,0.119022,0.118998,0.118991,916,937,916,937
10022,0,0.033513,0.017441,0.009668,-0.00,0.00,0.000083,0.119000,0.000000,0.000000,0.000000,0.000000,0.000000,0.000000,-0.000013,-0.000005,-0.000008,0.118999,0.119027,0.118990,0.118984,916,937,916,937
10032,0,0.033399,0.017444,0.009043,-0.00,0.00,0.000070,0.119000,0.000000,0.000000,0.000000,0.000000,0.000000,0.000000,-0.000018,-0.000004,-0.000007,0.119008,0.119029,0.118985,0.118978,916,937,916,937
10042,0,0.033308,0.017446,0.008544,-0.00,0.00,0.000083,0.119000,0.000000,0.000000,0.000000,0.000000,0.000000,0.000000,-0.000021,-0.000002,-0.000008,0.119011,0.119032,0.118985,0.118972,916,937,916,937
10052,0,0.033235,0.017447,0.008144,-0.00,0.00,0.000059,0.119000,0.000000,0.000000,0.000000,0.000000,0.000000,0.000000,-0.000024,-0.000003,-0.000006,0.119014,0.119033,0.118979,0.118974,916,937,916,937
10062,0,0.033177,0.017448,0.007824,-0.00,0.00,0.000034,0.119000,0.000000,0.000000,0.000000,0.000000,0.000000,0.000000,-0.000025,-0.000006,-0.000003,0.119016,0.119034,0.118973,0.118978,916,937,916,937
10080,0,0.033130,0.017449,0.007568,-0.00,0.00,0.000009,0.119000,0.000000,0.000000,0.000000,0.000000,0.000000,0.000000,-0.000025,-0.000007,-0.000000,0.119017,0.119032,0.118970,0.118981,916,937,916,937
10092,0,0.033311,0.017232,0.007364,-0.00,-0.00,0.000004,0.119000,0.000000,0.000000,0.000000,0.000000,0.000000,0.000000,-0.000014,0.000005,-0.000000,0.119018,0.119010,0.118991,0.118981,916,937,916,937
10102,0,0.033455,0.017058,0.007200,-0.00,-0.00,-0.000018,0.119000,0.000000,0.000000,0.000000,0.000000,0.000000,0.000000,-0.000005,0.000016,0.000002,0.119023,0.118987,0.119009,0.118980,916,937,916,937
