t,is_crashed,roll,pitch,yaw,p,q,r,throttle,roll_cmd,pitch_cmd,yaw_cmd,roll_pid_out,pitch_pid_out,yaw_pid_out,motor_fl,motor_bl,motor_fr,motor_br,pwm_fl,pwm_bl,pwm_fr,pwm_br
6923,0,0.01,-0.07,0.00,-0.00,-0.00,-0.00,-1.00,-1.05,-1.05,0.00,-0.00,0.00,0.00,0.00,0.00,0.00,0.00,0,0,0,0
6933,0,0.00,0.00,0.00,-0.00,-0.00,-0.00,0.02,0.00,0.00,0.00,-0.00,0.00,0.00,0.00,0.00,0.00,0.00,819,819,819,819
6941,0,0.00,0.00,0.00,-0.00,-0.00,-0.00,0.02,0.00,0.00,0.00,-0.00,0.00,0.00,0.00,0.00,0.00,0.00,819,819,819,819
6948,0,0.00,0.01,0.00,-0.00,-0.00,-0.00,0.02,0.00,0.00,0.00,-0.00,0.00,0.00,0.00,0.00,0.00,0.00,819,819,819,819
6956,0,0.00,0.01,0.00,-0.00,-0.00,-0.00,0.02,0.00,0.00,0.00,-0.00,0.00,0.00,0.00,0.00,0.00,0.00,819,819,819,819
6964,0,0.00,0.02,0.01,-0.00,-0.00,-0.00,0.02,0.00,0.00,0.00,-0.00,0.00,0.00,0.00,0.00,0.00,0.00,819,819,819,819
6973,0,0.00,0.02,0.01,-0.00,-0.00,-0.00,0.02,0.00,0.00,0.00,-0.00,0.00,0.00,0.00,0.00,0.00,0.00,819,819,819,819
6983,0,0.00,0.02,0.01,-0.00,-0.00,-0.00,0.02,0.00,0.00,0.00,-0.00,0.00,0.00,0.00,0.00,0.00,0.00,819,819,819,819
6996,0,0.00,0.03,0.01,-0.00,-0.00,-0.00,0.02,0.00,0.00,0.00,-0.00,0.00,0.00,0.00,0.00,0.00,0.00,819,819,819,819
7004,0,0.00,0.03,0.01,-0.00,-0.00,-0.00,0.02,0.00,0.00,0.00,-0.00,0.00,0.00,0.00,0.00,0.00,0.00,819,819,819,819
7013,0,0.00,0.03,0.01,-0.00,-0.00,-0.00,0.02,0.00,0.00,0.00,-0.00,0.00,0.00,0.00,0.00,0.00,0.00,819,819,819,819
7022,0,0.01,0.04,0.02,-0.00,-0.00,-0.00,0.02,0.00,0.00,0.00,-0.00,0.00,0.00,0.00,0.00,0.00,0.00,819,819,819,819
7032,0,0.01,0.04,0.02,-0.00,-0.00,-0.00,0.02,0.00,0.00,0.00,-0.00,0.00,0.00,0.00,0.00,0.00,0.00,819,819,819,819
7042,0,0.01,0.04,0.02,-0.00,-0.00,-0.00,0.02,0.00,0.00,0.00,-0.00,0.00,0.00,0.00,0.00,0.00,0.00,819,819,819,819
7050,0,0.01,0.04,0.02,-0.00,-0.00,-0.00,0.02,0.00,0.00,0.00,-0.00,0.00,0.00,0.00,0.00,0.00,0.00,819,819,819,819
7059,0,0.01,0.05,0.02,-0.00,-0.00,-0.00,0.02,0.00,0.00,0.00,-0.00,0.00,0.00,0.00,0.00,0.00,0.00,819,819,819,819
7067,0,0.01,0.05,0.03,-0.00,-0.00,-0.00,0.02,0.00,0.00,0.00,-0.00,0.00,0.00,0.00,0.00,0.00,0.00,819,819,819,819
7075,0,0.01,0.05,0.03,-0.00,-0.00,0.00,0.02,0.00,0.00,0.00,-0.00,0.00,0.00,0.00,0.00,0.00,0.00,819,819,819,819
7084,0,0.01,0.05,0.03,-0.00,-0.00,0.00,0.02,0.00,0.00,0.00,-0.00,0.00,0.00,0.00,0.00,0.00,0.00,819,819,819,819
7091,0,0.01,0.05,0.03,-0.00,-0.00,0.00,0.03,0.00,0.00,0.00,-0.00,0.00,0.00,0.03,0.03,0.03,0.03,844,843,860,842
7099,0,0.01,0.05,0.03,-0.00,-0.00,0.00,0.03,0.00,0.00,0.00,-0.00,0.00,-0.00,0.03,0.03,0.03,0.03,846,845,861,844
7107,0,0.01,0.05,0.03,-0.00,-0.00,0.00,0.03,0.00,0.00,0.00,-0.00,0.00,0.00,0.03,0.03,0.03,0.03,846,845,861,844
7115,0,0.01,0.05,0.04,-0.00,0.00,0.00,0.03,0.00,0.00,0.00,-0.00,0.00,0.00,0.03,0.03,0.03,0.03,845,845,861,844
7124,0,0.01,0.05,0.04,-0.00,0.00,0.00,0.04,0.00,0.00,0.00,-0.00,-0.00,-0.00,0.04,0.04,0.04,0.04,849,849,864,848
7133,0,0.00,0.05,0.04,-0.00,0.00,0.00,0.04,0.00,0.00,0.00,-0.00,-0.00,-0.00,0.04,0.04,0.04,0.04,849,849,864,848
7141,0,0.00,0.05,0.04,-0.00,0.00,0.00,0.04,0.00,0.00,0.00,-0.00,-0.00,-0.00,0.04,0.04,0.04,0.04,850,850,866,849
7149,0,0.00,0.05,0.04,-0.00,0.00,0.00,0.04,0.00,0.00,0.00,-0.00,-0.00,-0.00,0.04,0.04,0.04,0.04,850,850,866,849
7157,0,0.00,0.05,0.04,-0.00,0.00,0.00,0.04,0.00,0.00,0.00,-0.00,-0.00,-0.00,0.04,0.04,0.04,0.04,851,851,867,850
7165,0,0.00,0.05,0.05,-0.00,0.00,0.00,0.04,0.00,0.00,0.00,-0.00,-0.00,-0.00,0.04,0.04,0.04,0.04,851,852,866,850
7173,0,0.00,0.05,0.05,-0.00,0.00,0.00,0.04,0.00,0.00,0.00,-0.00,-0.00,-0.00,0.04,0.04,0.04,0.04,851,852,866,850
7183,0,0.00,0.05,0.05,-0.00,0.00,0.00,0.04,0.00,0.00,0.00,-0.00,-0.00,-0.00,0.04,0.04,0.04,0.04,851,852,866,850
7191,0,0.00,0.05,0.05,-0.00,0.00,0.00,0.04,0.00,0.00,0.00,-0.00,-0.00,-0.00,0.04,0.04,0.04,0.04,851,852,866,850
7199,0,0.00,0.04,0.05,-0.00,0.00,0.00,0.04,0.00,0.00,0.00,-0.00,-0.00,-0.00,0.04,0.04,0.04,0.04,851,852,866,850
7206,0,0.00,0.04,0.06,-0.00,0.00,0.00,0.04,0.00,0.00,0.00,-0.00,-0.00,-0.00,0.04,0.04,0.04,0.04,852,854,868,852
7214,0,0.00,0.04,0.06,-0.00,0.00,0.00,0.04,0.00,0.00,0.00,-0.00,-0.00,-0.00,0.04,0.04,0.04,0.04,852,854,868,852
7223,0,0.00,0.04,0.06,-0.00,0.00,0.00,0.04,0.00,0.00,0.00,-0.00,-0.00,-0.00,0.04,0.04,0.04,0.04,852,854,868,852
7233,0,0.00,0.04,0.06,-0.00,0.00,0.00,0.04,0.00,0.00,0.00,-0.00,-0.00,-0.00,0.04,0.04,0.04,0.04,852,854,868,852
7241,0,0.00,0.04,0.06,-0.00,0.00,0.00,0.04,0.00,0.00,0.00,-0.00,-0.00,-0.00,0.04,0.04,0.04,0.04,854,855,869,853
7248,0,0.00,0.04,0.07,-0.00,0.00,0.00,0.04,0.00,0.00,0.00,-0.00,-0.00,-0.00,0.04,0.04,0.04,0.04,854,855,869,853
7263,0,-0.00,0.03,0.07,-0.00,0.00,0.00,0.04,0.00,0.00,0.00,-0.00,-0.00,-0.00,0.04,0.05,0.04,0.04,855,856,870,854
7273,0,-0.00,0.03,0.07,-0.00,0.00,0.00,0.04,0.00,0.00,0.00,-0.00,-0.00,-0.00,0.04,0.05,0.04,0.04,855,856,870,854
7283,0,-0.00,0.03,0.07,-0.00,0.00,0.00,0.04,0.00,0.00,0.00,-0.00,-0.00,-0.00,0.04,0.05,0.04,0.04,855,856,870,854
7291,0,-0.00,0.03,0.08,-0.00,-0.00,0.00,0.04,0.00,0.00,0.00,-0.00,0.00,-0.00,0.04,0.04,0.04,0.04,855,855,871,854
7299,0,-0.00,0.03,0.08,-0.00,-0.00,0.00,0.04,0.00,0.00,0.00,-0.00,0.00,-0.00,0.05,0.04,0.04,0.04,856,855,871,854
7307,0,-0.00,0.03,0.08,-0.00,-0.00,0.00,0.04,0.00,0.00,0.00,-0.00,0.00,-0.00,0.05,0.04,0.04,0.04,856,855,871,853
7314,0,-0.00,0.04,0.08,-0.00,-0.00,0.00,0.04,0.00,0.00,0.00,-0.00,0.00,-0.00,0.05,0.04,0.04,0.04,856,855,871,853
7324,0,-0.00,0.04,0.08,-0.00,-0.00,-0.00,0.04,0.00,0.00,0.00,-0.00,0.00,0.00,0.05,0.04,0.04,0.04,856,855,871,853
7333,0,-0.00,0.04,0.09,-0.00,-0.00,-0.00,0.04,0.00,0.00,0.00,-0.00,0.00,0.00,0.05,0.04,0.04,0.04,856,855,871,853
7341,0,-0.00,0.04,0.09,-0.00,-0.00,-0.00,0.04,0.00,0.00,0.00,-0.00,0.00,0.00,0.05,0.04,0.04,0.04,856,855,871,853
7349,0,-0.00,0.04,0.09,-0.00,-0.00,-0.00,0.04,0.00,0.00,0.00,-0.00,0.00,0.00,0.05,0.04,0.04,0.04,856,855,871,853
7357,0,-0.00,0.04,0.09,-0.00,-0.00,-0.00,0.04,0.00,0.00,0.00,-0.00,0.00,0.00,0.05,0.04,0.04,0.04,856,855,871,853
7365,0,-0.00,0.04,0.10,-0.00,-0.00,-0.00,0.04,0.00,0.00,0.00,-0.00,0.00,0.00,0.05,0.04,0.04,0.04,856,855,871,853
7374,0,-0.00,0.04,0.10,-0.00,-0.00,-0.00,0.04,0.00,0.00,0.00,-0.00,0.00,0.00,0.05,0.04,0.04,0.04,856,855,871,853
7384,0,-0.00,0.04,0.10,-0.00,-0.00,-0.00,0.04,0.00,0.00,0.00,-0.00,0.00,0.00,0.05,0.04,0.04,0.04,856,855,871,853
7392,0,-0.00,0.04,0.10,-0.00,-0.00,-0.00,0.04,0.00,0.00,0.00,-0.00,0.00,0.00,0.05,0.04,0.04,0.04,856,855,871,853
7399,0,0.00,0.05,0.10,-0.00,-0.00,-0.00,0.04,0.00,0.00,0.00,-0.00,0.00,0.00,0.05,0.04,0.04,0.04,856,855,871,853
7407,0,0.00,0.05,0.10,-0.00,-0.00,-0.00,0.04,0.00,0.00,0.00,-0.00,0.00,0.00,0.05,0.04,0.04,0.04,857,854,871,853
7415,0,0.00,0.05,0.11,-0.00,-0.00,-0.00,0.04,0.00,0.00,0.00,-0.00,0.00,0.00,0.05,0.04,0.04,0.04,857,854,871,853
7424,0,0.00,0.05,0.11,-0.00,-0.00,-0.00,0.04,0.00,0.00,0.00,-0.00,0.00,0.00,0.05,0.04,0.04,0.04,857,854,871,853
7434,0,0.00,0.05,0.11,-0.00,-0.00,-0.00,0.04,0.00,0.00,0.00,-0.00,0.00,0.00,0.05,0.04,0.04,0.04,857,854,871,853
7441,0,0.00,0.05,0.11,-0.00,-0.00,-0.00,0.04,0.00,0.00,0.00,-0.00,0.00,0.00,0.05,0.04,0.04,0.04,857,855,871,853
7449,0,0.00,0.06,0.11,-0.00,-0.00,-0.00,0.04,0.00,0.00,0.00,-0.00,0.00,0.00,0.05,0.04,0.04,0.04,857,855,871,853
7457,0,0.00,0.06,0.11,-0.00,-0.00,0.00,0.04,0.00,0.00,0.00,-0.00,0.00,0.00,0.05,0.05,0.04,0.04,857,856,872,854
7465,0,0.00,0.06,0.12,-0.00,-0.00,0.00,0.04,0.00,0.00,0.00,-0.00,0.00,0.00,0.05,0.05,0.04,0.04,857,856,872,854
7474,0,0.00,0.06,0.12,-0.00,-0.00,0.00,0.04,0.00,0.00,0.00,-0.00,0.00,-0.00,0.05,0.05,0.04,0.04,857,856,872,854
7484,0,0.00,0.06,0.12,-0.00,-0.00,0.00,0.04,0.00,0.00,0.00,-0.00,0.00,-0.00,0.05,0.05,0.04,0.04,857,856,872,854
7492,0,0.00,0.06,0.12,-0.00,-0.00,0.00,0.04,0.00,0.00,0.00,-0.00,0.00,-0.00,0.05,0.05,0.04,0.04,857,856,871,854
7499,0,0.00,0.06,0.12,-0.00,-0.00,0.00,0.07,0.00,0.00,0.00,-0.00,0.00,-0.00,0.07,0.07,0.07,0.06,874,873,888,872
7507,0,0.00,0.06,0.12,-0.00,0.00,0.00,0.07,0.00,0.00,0.00,-0.00,-0.00,-0.00,0.07,0.07,0.07,0.07,877,877,892,875
7515,0,0.00,0.06,0.12,-0.00,0.00,0.00,0.07,0.00,0.00,0.00,-0.00,-0.00,-0.00,0.07,0.07,0.07,0.07,879,880,894,878
7528,0,0.00,0.06,0.13,-0.00,0.00,0.00,0.08,0.00,0.00,0.00,-0.00,-0.00,-0.00,0.08,0.08,0.07,0.08,881,882,896,880
7537,0,0.00,0.05,0.13,-0.00,0.00,0.00,0.08,0.00,0.00,0.00,-0.00,-0.00,-0.00,0.08,0.08,0.07,0.08,881,882,896,880
7545,0,0.00,0.05,0.13,-0.00,0.00,0.00,0.08,0.00,0.00,0.00,-0.00,-0.00,-0.00,0.08,0.08,0.07,0.08,881,882,896,880
7552,0,0.00,0.05,0.13,-0.00,0.00,0.00,0.08,0.00,0.00,0.00,-0.00,-0.00,-0.00,0.08,0.08,0.07,0.08,881,882,896,880
7562,0,0.00,0.05,0.13,-0.00,0.00,0.00,0.08,0.00,0.00,0.00,-0.00,-0.00,-0.00,0.08,0.08,0.07,0.08,881,882,896,880
7571,0,0.00,0.05,0.13,-0.00,0.00,0.00,0.08,0.00,0.00,0.00,-0.00,-0.00,0.00,0.08,0.08,0.07,0.08,881,882,896,880
7581,0,0.00,0.05,0.13,-0.00,0.00,-0.00,0.08,0.00,0.00,0.00,-0.00,-0.00,0.00,0.08,0.08,0.08,0.08,886,886,900,884
7588,0,0.00,0.05,0.13,-0.00,0.00,0.00,0.08,0.00,0.00,0.00,-0.00,-0.00,-0.00,0.08,0.08,0.08,0.08,886,886,900,884
7596,0,0.00,0.05,0.13,-0.00,0.00,0.00,0.08,0.00,0.00,0.00,-0.00,-0.00,-0.00,0.08,0.08,0.08,0.08,886,886,901,884
7604,0,0.00,0.05,0.13,-0.00,0.00,0.00,0.08,0.00,0.00,0.00,-0.00,-0.00,-0.00,0.08,0.08,0.08,0.08,886,886,901,884
7614,0,0.00,0.05,0.13,-0.00,0.00,0.00,0.08,0.00,0.00,0.00,-0.00,-0.00,-0.00,0.08,0.08,0.08,0.08,886,886,901,884
7624,0,0.00,0.05,0.13,-0.00,0.00,0.00,0.08,0.00,0.00,0.00,-0.00,-0.00,-0.00,0.08,0.08,0.08,0.08,886,886,901,884
7634,0,0.00,0.05,0.13,-0.00,0.00,0.00,0.08,0.00,0.00,0.00,-0.00,-0.00,-0.00,0.08,0.08,0.08,0.08,886,886,901,884
7642,0,0.00,0.05,0.13,-0.00,0.00,0.00,0.08,0.00,0.00,0.00,-0.00,-0.00,0.00,0.08,0.08,0.08,0.08,886,886,901,884
7649,0,0.00,0.04,0.13,0.00,0.00,-0.00,0.08,0.00,0.00,0.00,-0.00,-0.00,0.00,0.08,0.08,0.08,0.08,886,886,901,884
7657,0,0.00,0.04,0.13,0.00,0.00,-0.00,0.08,0.00,0.00,0.00,-0.00,-0.00,0.00,0.08,0.08,0.08,0.08,886,886,901,884
7665,0,0.00,0.04,0.13,0.00,0.00,-0.00,0.08,0.00,0.00,0.00,-0.00,-0.00,0.00,0.08,0.08,0.08,0.08,886,886,901,885
7674,0,0.00,0.04,0.13,0.00,0.00,-0.00,0.08,0.00,0.00,0.00,-0.00,-0.00,0.00,0.08,0.08,0.08,0.08,886,886,901,884
7684,0,0.00,0.04,0.13,0.00,0.00,-0.00,0.08,0.00,0.00,0.00,-0.00,-0.00,0.00,0.08,0.08,0.08,0.08,886,886,901,884
7692,0,0.00,0.04,0.13,0.00,0.00,-0.00,0.08,0.00,0.00,0.00,-0.00,0.00,0.00,0.08,0.08,0.08,0.08,886,886,901,884
7700,0,0.00,0.04,0.13,0.00,0.00,-0.00,0.08,0.00,0.00,0.00,-0.00,0.00,0.00,0.08,0.08,0.08,0.08,886,885,901,884
7708,0,0.00,0.04,0.13,0.00,0.00,-0.00,0.08,0.00,0.00,0.00,-0.00,0.00,0.00,0.08,0.08,0.08,0.08,886,885,901,884
7716,0,0.00,0.04,0.13,0.00,0.00,-0.00,0.08,0.00,0.00,0.00,-0.00,0.00,0.00,0.08,0.08,0.08,0.08,886,885,901,884
7725,0,0.00,0.04,0.13,0.00,0.00,-0.00,0.08,0.00,0.00,0.00,-0.00,0.00,0.00,0.08,0.08,0.08,0.08,886,885,901,884
7734,0,0.00,0.04,0.13,0.00,0.00,-0.00,0.08,0.00,0.00,0.00,-0.00,0.00,0.00,0.08,0.08,0.08,0.08,886,885,901,884
7742,0,0.00,0.04,0.13,0.00,0.00,-0.00,0.08,0.00,0.00,0.00,-0.00,0.00,0.00,0.08,0.08,0.08,0.08,886,885,901,884
7750,0,0.00,0.04,0.13,0.00,-0.00,-0.00,0.08,0.00,0.00,0.00,-0.00,0.00,0.00,0.08,0.08,0.08,0.08,886,885,901,884
7758,0,0.00,0.04,0.13,0.00,-0.00,-0.00,0.08,0.00,0.00,0.00,-0.00,0.00,0.00,0.08,0.08,0.08,0.08,886,885,901,884
7766,0,0.00,0.04,0.13,0.00,-0.00,-0.00,0.08,0.00,0.00,0.00,-0.00,0.00,0.00,0.08,0.08,0.08,0.08,886,885,901,884
7775,0,0.00,0.04,0.13,0.00,-0.00,-0.00,0.08,0.00,0.00,0.00,-0.00,0.00,0.00,0.08,0.08,0.08,0.08,886,885,901,884
7784,0,0.00,0.04,0.13,0.00,-0.00,-0.00,0.08,0.00,0.00,0.00,-0.00,0.00,0.00,0.08,0.08,0.08,0.08,886,885,901,884
7795,0,0.00,0.04,0.13,-0.00,-0.00,-0.00,0.08,0.00,0.00,0.00,-0.00,0.00,0.00,0.08,0.08,0.08,0.08,886,885,901,884
7803,0,0.00,0.05,0.13,-0.00,-0.00,-0.00,0.08,0.00,0.00,0.00,-0.00,0.00,0.00,0.08,0.08,0.08,0.08,886,885,901,884
7811,0,0.00,0.05,0.13,-0.00,-0.00,-0.00,0.08,0.00,0.00,0.00,-0.00,0.00,0.00,0.08,0.08,0.08,0.08,886,885,901,884
7819,0,0.00,0.05,0.13,-0.00,-0.00,-0.00,0.08,0.00,0.00,0.00,-0.00,0.00,0.00,0.08,0.08,0.08,0.08,886,885,901,884
7827,0,0.00,0.05,0.13,-0.00,-0.00,0.00,0.08,0.00,0.00,0.00,-0.00,0.00,0.00,0.08,0.08,0.08,0.08,886,885,901,884
7835,0,0.00,0.05,0.13,-0.00,-0.00,0.00,0.08,0.00,0.00,0.00,-0.00,0.00,-0.00,0.08,0.08,0.08,0.08,886,885,901,884
7843,0,0.00,0.05,0.13,-0.00,-0.00,0.00,0.08,0.00,0.00,0.00,-0.00,0.00,-0.00,0.08,0.08,0.08,0.08,886,885,901,884
7851,0,0.00,0.05,0.13,-0.00,-0.00,0.00,0.08,0.00,0.00,0.00,-0.00,0.00,-0.00,0.08,0.08,0.08,0.08,886,886,901,884
7859,0,0.00,0.05,0.13,-0.00,-0.00,0.00,0.08,0.00,0.00,0.00,-0.00,0.00,-0.00,0.08,0.08,0.08,0.08,886,886,901,884
7866,0,0.00,0.05,0.13,-0.00,0.00,0.00,0.08,0.00,0.00,0.00,-0.00,0.00,-0.00,0.08,0.08,0.08,0.08,886,886,901,884
7875,0,0.00,0.05,0.13,-0.00,0.00,0.00,0.08,0.00,0.00,0.00,-0.00,0.00,-0.00,0.08,0.08,0.08,0.08,886,886,901,884
7885,0,0.00,0.05,0.13,-0.00,0.00,0.00,0.08,0.00,0.00,0.00,-0.00,0.00,-0.00,0.08,0.08,0.08,0.08,886,886,901,884
7895,0,-0.00,0.05,0.13,-0.00,0.00,0.00,0.08,0.00,0.00,0.00,-0.00,0.00,-0.00,0.08,0.08,0.08,0.08,886,886,901,884
7902,0,-0.00,0.05,0.14,-0.00,0.00,0.00,0.08,0.00,0.00,0.00,-0.00,-0.00,-0.00,0.08,0.08,0.08,0.08,886,886,901,884
7910,0,-0.00,0.05,0.14,-0.00,0.00,0.00,0.08,0.00,0.00,0.00,-0.00,-0.00,-0.00,0.08,0.08,0.08,0.08,886,886,901,884
7918,0,-0.00,0.05,0.14,-0.00,0.00,0.00,0.08,0.00,0.00,0.00,-0.00,-0.00,-0.00,0.08,0.08,0.08,0.08,886,886,901,884
7926,0,-0.00,0.05,0.14,-0.00,0.00,0.00,0.08,0.00,0.00,0.00,-0.00,0.00,-0.00,0.08,0.08,0.08,0.08,886,886,901,884
7935,0,-0.00,0.05,0.14,-0.00,0.00,0.00,0.08,0.00,0.00,0.00,-0.00,0.00,-0.00,0.08,0.08,0.08,0.08,886,886,901,884
7943,0,-0.00,0.05,0.14,-0.00,0.00,0.00,0.08,0.00,0.00,0.00,-0.00,0.00,-0.00,0.08,0.08,0.08,0.08,886,886,901,884
7951,0,-0.00,0.05,0.14,-0.00,-0.00,0.00,0.08,0.00,0.00,0.00,-0.00,0.00,-0.00,0.08,0.08,0.08,0.08,886,886,901,884
7959,0,-0.00,0.05,0.14,-0.00,0.00,0.00,0.08,0.00,0.00,0.00,-0.00,0.00,-0.00,0.08,0.08,0.08,0.08,886,886,901,883
7967,0,-0.01,0.05,0.15,-0.00,0.00,0.00,0.08,0.00,0.00,0.00,-0.00,0.00,-0.00,0.08,0.08,0.08,0.08,886,886,901,883
7975,0,-0.01,0.05,0.15,-0.00,0.00,0.00,0.08,0.00,0.00,0.00,-0.00,0.00,-0.00,0.08,0.08,0.08,0.08,885,887,901,883
7985,0,-0.01,0.05,0.15,-0.00,0.00,0.00,0.08,0.00,0.00,0.00,-0.00,0.00,-0.00,0.08,0.08,0.08,0.08,885,887,901,883
7993,0,-0.01,0.05,0.15,-0.00,0.00,0.00,0.08,0.00,0.00,0.00,-0.00,-0.00,-0.00,0.08,0.08,0.08,0.08,885,887,901,883
8001,0,-0.01,0.05,0.15,-0.00,0.00,0.00,0.08,0.00,0.00,0.00,-0.00,-0.00,-0.00,0.08,0.08,0.08,0.08,885,887,901,883
8008,0,-0.02,0.05,0.15,-0.00,0.00,0.00,0.08,0.00,0.00,0.00,-0.00,-0.00,-0.00,0.08,0.08,0.08,0.08,885,887,901,884
8016,0,-0.02,0.05,0.15,-0.00,0.00,0.00,0.08,0.00,0.00,0.00,-0.00,0.00,-0.00,0.08,0.08,0.08,0.08,886,886,901,884
8025,0,-0.02,0.05,0.15,-0.00,0.00,0.00,0.08,0.00,0.00,0.00,-0.00,0.00,-0.00,0.08,0.08,0.08,0.08,886,886,901,883
8035,0,-0.02,0.04,0.15,-0.00,0.00,0.00,0.08,0.00,0.00,0.00,-0.00,0.00,-0.00,0.08,0.08,0.08,0.08,886,886,901,883
8043,0,-0.02,0.05,0.15,-0.00,0.00,0.00,0.08,0.00,0.00,0.00,-0.00,0.00,-0.00,0.08,0.08,0.08,0.08,886,886,901,883
8056,0,-0.02,0.05,0.15,-0.00,-0.00,0.00,0.08,0.00,0.00,0.00,-0.00,0.00,-0.00,0.08,0.08,0.08,0.08,886,886,901,883
8065,0,-0.02,0.05,0.15,-0.00,-0.00,0.00,0.08,0.00,0.00,0.00,-0.00,0.00,-0.00,0.08,0.08,0.08,0.08,886,886,901,883
8075,0,-0.02,0.05,0.16,-0.00,-0.00,0.00,0.08,0.00,0.00,0.00,-0.00,0.00,-0.00,0.08,0.08,0.08,0.08,886,886,901,883
8085,0,-0.02,0.05,0.16,-0.00,-0.00,0.00,0.08,0.00,0.00,0.00,-0.00,0.00,-0.00,0.08,0.08,0.08,0.08,886,886,901,883
8093,0,-0.02,0.05,0.16,-0.00,-0.00,0.00,0.08,0.00,0.00,0.00,-0.00,0.00,-0.00,0.08,0.08,0.08,0.08,886,886,901,883
8101,0,-0.03,0.05,0.16,-0.00,-0.00,0.00,0.08,0.00,0.00,0.00,-0.00,0.00,-0.00,0.08,0.08,0.08,0.08,886,886,902,883
8109,0,-0.03,0.05,0.16,-0.00,-0.00,0.00,0.08,0.00,0.00,0.00,-0.00,0.00,-0.00,0.08,0.08,0.08,0.08,886,886,902,883
8116,0,-0.03,0.05,0.16,-0.00,-0.00,0.00,0.08,0.00,0.00,0.00,-0.00,0.00,-0.00,0.08,0.08,0.08,0.08,886,885,902,883
8125,0,-0.03,0.05,0.16,-0.00,-0.00,0.00,0.08,0.00,0.00,0.00,-0.00,0.00,-0.00,0.08,0.08,0.08,0.08,887,886,903,884
8135,0,-0.03,0.05,0.16,-0.00,-0.00,0.00,0.08,0.00,0.00,0.00,-0.00,0.00,-0.00,0.08,0.08,0.08,0.08,887,886,903,884
8143,0,-0.03,0.06,0.16,0.00,-0.00,0.00,0.08,0.00,0.00,0.00,-0.00,0.00,-0.00,0.08,0.08,0.08,0.08,887,886,903,884
8150,0,-0.03,0.06,0.16,0.00,-0.00,0.00,0.08,0.00,0.00,0.00,-0.00,0.00,-0.00,0.08,0.08,0.08,0.08,887,886,903,884
8162,0,-0.03,0.06,0.16,0.00,-0.00,0.00,0.08,0.00,0.00,0.00,-0.00,0.00,-0.00,0.08,0.08,0.08,0.08,887,886,903,884
8170,0,-0.03,0.06,0.16,0.00,-0.00,0.00,0.08,0.00,0.00,0.00,-0.00,0.00,-0.00,0.08,0.08,0.08,0.08,887,886,903,884
8177,0,-0.03,0.06,0.16,0.00,-0.00,0.00,0.08,0.00,0.00,0.00,-0.00,0.00,-0.00,0.08,0.08,0.08,0.08,887,886,902,884
8186,0,-0.03,0.06,0.16,0.00,-0.00,0.00,0.08,0.00,0.00,0.00,-0.00,0.00,-0.00,0.08,0.08,0.08,0.08,887,886,902,884
8194,0,-0.03,0.07,0.16,0.00,-0.00,0.00,0.08,0.00,0.00,0.00,-0.00,0.00,-0.00,0.08,0.08,0.08,0.08,887,886,902,884
8201,0,-0.03,0.07,0.15,0.00,-0.00,0.00,0.08,0.00,0.00,0.00,-0.00,0.00,-0.00,0.08,0.08,0.08,0.08,887,886,902,884
8209,0,-0.03,0.07,0.15,0.00,-0.00,0.00,0.08,0.00,0.00,0.00,-0.00,0.00,-0.00,0.08,0.08,0.08,0.08,887,886,902,884
8217,0,-0.03,0.07,0.15,0.00,-0.00,0.00,0.08,0.00,0.00,0.00,-0.00,0.00,-0.00,0.08,0.08,0.08,0.08,887,886,902,884
8226,0,-0.03,0.07,0.15,0.00,-0.00,0.00,0.08,0.00,0.00,0.00,-0.00,0.00,-0.00,0.08,0.08,0.08,0.08,887,886,902,884
8236,0,-0.03,0.07,0.15,0.00,-0.00,0.00,0.08,0.00,0.00,0.00,-0.00,0.00,-0.00,0.08,0.08,0.08,0.08,887,886,902,884
8244,0,-0.03,0.07,0.15,0.00,-0.00,0.00,0.08,0.00,0.00,0.00,-0.00,0.00,-0.00,0.08,0.08,0.08,0.08,887,886,903,884
8251,0,-0.03,0.07,0.15,0.00,-0.00,0.00,0.08,0.00,0.00,0.00,-0.00,0.00,-0.00,0.08,0.08,0.08,0.08,887,886,903,884
8259,0,-0.03,0.07,0.15,0.00,-0.00,0.00,0.08,0.00,0.00,0.00,-0.00,0.00,-0.00,0.08,0.08,0.08,0.08,887,886,903,884
8267,0,-0.03,0.07,0.15,0.00,-0.00,0.00,0.08,0.00,0.00,0.00,-0.00,0.00,-0.00,0.08,0.08,0.08,0.08,887,886,903,884
8276,0,-0.03,0.07,0.15,0.00,-0.00,0.00,0.08,0.00,0.00,0.00,-0.00,0.00,-0.00,0.08,0.08,0.08,0.08,887,886,903,884
8286,0,-0.03,0.08,0.15,0.00,-0.00,0.00,0.08,0.00,0.00,0.00,-0.00,0.00,-0.00,0.08,0.08,0.08,0.08,887,886,903,884
8294,0,-0.03,0.08,0.15,0.00,-0.00,0.00,0.08,0.00,0.00,0.00,-0.00,0.00,-0.00,0.08,0.08,0.08,0.08,887,886,903,884
8301,0,-0.03,0.08,0.15,0.00,-0.00,0.00,0.08,0.00,0.00,0.00,-0.00,0.00,-0.00,0.08,0.08,0.08,0.08,887,886,903,884
8316,0,-0.04,0.08,0.15,0.00,-0.00,0.00,0.08,0.00,0.00,0.00,-0.00,0.00,-0.00,0.08,0.08,0.08,0.08,887,886,902,884
8326,0,-0.04,0.08,0.15,0.00,-0.00,0.00,0.08,0.00,0.00,0.00,-0.00,0.00,-0.00,0.08,0.08,0.08,0.08,887,886,902,884
8336,0,-0.04,0.08,0.15,0.00,-0.00,0.00,0.08,0.00,0.00,0.00,-0.00,0.00,-0.00,0.08,0.08,0.08,0.08,887,886,902,884
8343,0,-0.04,0.08,0.15,0.00,-0.00,0.00,0.08,0.00,0.00,0.00,-0.00,0.00,-0.00,0.08,0.08,0.08,0.08,887,887,902,884
8351,0,-0.04,0.08,0.15,0.00,-0.00,0.00,0.08,0.00,0.00,0.00,-0.00,0.00,-0.00,0.08,0.08,0.08,0.08,887,887,902,884
8359,0,-0.04,0.08,0.14,0.00,0.00,0.00,0.08,0.00,0.00,0.00,-0.00,0.00,-0.00,0.08,0.08,0.08,0.08,886,887,902,884
8367,0,-0.04,0.08,0.14,0.00,0.00,0.00,0.08,0.00,0.00,0.00,-0.00,0.00,-0.00,0.08,0.08,0.08,0.08,886,887,902,885
8376,0,-0.04,0.08,0.14,0.00,0.00,0.00,0.08,0.00,0.00,0.00,-0.00,0.00,-0.00,0.08,0.08,0.08,0.08,886,887,902,885
8386,0,-0.04,0.08,0.14,0.00,0.00,0.00,0.08,0.00,0.00,0.00,-0.00,0.00,-0.00,0.08,0.08,0.08,0.08,886,887,902,885
8394,0,-0.04,0.08,0.14,0.00,0.00,0.00,0.08,0.00,0.00,0.00,-0.00,0.00,-0.00,0.08,0.08,0.08,0.08,886,887,902,885
8402,0,-0.04,0.08,0.14,0.00,0.00,0.00,0.08,0.00,0.00,0.00,-0.00,0.00,-0.00,0.08,0.08,0.08,0.08,884,884,899,882
8409,0,-0.04,0.08,0.14,0.00,0.00,-0.00,0.07,0.00,0.00,0.00,-0.00,-0.00,-0.00,0.07,0.07,0.07,0.07,876,876,891,874
8417,0,-0.04,0.08,0.14,0.00,0.00,0.00,0.05,0.00,0.00,0.00,-0.00,-0.00,-0.00,0.05,0.05,0.05,0.05,858,858,873,856
8426,0,-0.04,0.08,0.14,0.00,0.00,0.00,0.05,0.00,0.00,0.00,-0.00,-0.00,-0.00,0.05,0.05,0.05,0.05,858,858,873,856
8436,0,-0.04,0.08,0.14,0.00,0.00,0.00,0.02,0.00,0.00,0.00,-0.00,-0.00,-0.00,0.02,0.02,0.02,0.02,838,839,853,837
8444,0,-0.04,0.07,0.14,0.00,0.00,0.00,0.01,0.00,0.00,0.00,-0.00,-0.00,-0.00,0.00,0.00,0.00,0.00,819,819,819,819
8451,0,-0.04,0.07,0.14,-0.00,0.00,0.00,0.01,0.00,0.00,0.00,-0.00,-0.00,-0.00,0.00,0.00,0.00,0.00,819,819,819,819
8459,0,-0.04,0.07,0.14,-0.00,0.00,0.00,0.01,0.00,0.00,0.00,-0.00,-0.00,-0.00,0.00,0.00,0.00,0.00,819,819,819,819
8467,0,-0.04,0.07,0.14,0.00,0.00,0.00,0.01,0.00,0.00,0.00,-0.00,-0.00,-0.00,0.00,0.00,0.00,0.00,819,819,819,819
8476,0,-0.04,0.07,0.14,0.00,0.00,0.00,0.01,0.00,0.00,0.00,-0.00,-0.00,-0.00,0.00,0.00,0.00,0.00,819,819,819,819
8486,0,-0.04,0.07,0.14,0.00,0.00,-0.00,0.01,0.00,0.00,0.00,-0.00,-0.00,-0.00,0.00,0.00,0.00,0.00,819,819,819,819
8494,0,-0.04,0.07,0.14,-0.00,0.00,-0.00,0.01,0.00,0.00,0.00,-0.00,-0.00,-0.00,0.00,0.00,0.00,0.00,819,819,819,819
8501,0,-0.04,0.07,0.14,0.00,0.00,-0.00,0.00,0.00,0.00,0.00,-0.00,-0.00,-0.00,0.00,0.00,0.00,0.00,819,819,819,819
8509,0,-0.04,0.07,0.14,-0.00,0.00,-0.00,0.00,0.00,0.00,0.00,-0.00,-0.00,-0.00,0.00,0.00,0.00,0.00,819,819,819,819
8517,0,-0.04,0.07,0.14,-0.00,0.00,-0.00,0.00,0.00,0.00,0.00,-0.00,-0.00,-0.00,0.00,0.00,0.00,0.00,819,819,819,819
8526,0,-0.04,0.07,0.14,-0.00,0.00,-0.00,0.00,0.00,0.00,0.00,-0.00,-0.00,-0.00,0.00,0.00,0.00,0.00,819,819,819,819
8536,0,-0.04,0.06,0.14,-0.00,0.00,-0.00,0.00,0.00,0.00,0.00,-0.00,-0.00,-0.00,0.00,0.00,0.00,0.00,819,819,819,819
8544,0,-0.04,0.06,0.14,-0.00,0.00,-0.00,0.00,0.00,0.00,0.00,-0.00,-0.00,0.00,0.00,0.00,0.00,0.00,819,819,819,819
8552,0,-0.03,0.06,0.14,-0.00,0.00,-0.00,0.00,0.00,0.00,0.00,-0.00,-0.00,0.00,0.00,0.00,0.00,0.00,819,819,819,819
8559,0,-0.03,0.06,0.14,-0.00,0.00,-0.00,0.00,0.00,0.00,0.00,-0.00,-0.00,0.00,0.00,0.00,0.00,0.00,819,819,819,819
8567,0,-0.03,0.06,0.14,-0.00,0.00,-0.00,0.00,0.00,0.00,0.00,-0.00,0.00,0.00,0.00,0.00,0.00,0.00,819,819,819,819
8581,0,-0.03,0.06,0.14,-0.00,0.00,-0.00,0.00,0.00,0.00,0.00,-0.00,0.00,0.00,0.00,0.00,0.00,0.00,819,819,819,819
8589,0,-0.03,0.06,0.14,-0.00,0.00,-0.00,0.00,0.00,0.00,0.00,-0.00,0.00,0.00,0.00,0.00,0.00,0.00,819,819,819,819
8597,0,-0.03,0.06,0.14,-0.00,0.00,-0.00,0.00,0.00,0.00,0.00,-0.00,0.00,0.00,0.00,0.00,0.00,0.00,819,819,819,819
8604,0,-0.03,0.06,0.14,-0.00,0.00,-0.00,0.00,0.00,0.00,0.00,-0.00,0.00,0.00,0.00,0.00,0.00,0.00,819,819,819,819
8612,0,-0.03,0.06,0.15,-0.00,0.00,-0.00,0.00,0.00,0.00,0.00,-0.00,0.00,0.00,0.00,0.00,0.00,0.00,819,819,819,819
8620,0,-0.03,0.06,0.15,-0.00,0.00,-0.00,0.00,0.00,0.00,0.00,-0.00,0.00,0.00,0.00,0.00,0.00,0.00,819,819,819,819
8628,0,-0.02,0.06,0.15,-0.00,0.00,-0.00,0.00,0.00,0.00,0.00,-0.00,0.00,0.00,0.00,0.00,0.00,0.00,819,819,819,819
8637,0,-0.02,0.06,0.15,-0.00,0.00,-0.00,0.00,0.00,0.00,0.00,-0.00,-0.00,0.00,0.00,0.00,0.00,0.00,819,819,819,819
8645,0,-0.02,0.06,0.15,-0.00,0.00,-0.00,0.00,0.00,0.00,0.00,-0.00,-0.00,0.00,0.00,0.00,0.00,0.00,819,819,819,819
8652,0,-0.02,0.06,0.15,-0.00,0.00,-0.00,0.00,0.00,0.00,0.00,-0.00,-0.00,0.00,0.00,0.00,0.00,0.00,819,819,819,819
8660,0,-0.02,0.06,0.15,-0.00,0.00,-0.00,0.00,0.00,0.00,0.00,-0.00,-0.00,0.00,0.00,0.00,0.00,0.00,819,819,819,819
8668,0,-0.02,0.06,0.15,-0.00,0.00,-0.00,0.00,0.00,0.00,0.00,-0.00,-0.00,0.00,0.00,0.00,0.00,0.00,819,819,819,819
8677,0,-0.02,0.06,0.15,-0.00,0.00,-0.00,0.00,0.00,0.00,0.00,-0.00,-0.00,0.00,0.00,0.00,0.00,0.00,819,819,819,819
8687,0,-0.01,0.06,0.15,-0.00,0.00,-0.00,0.00,0.00,0.00,0.00,-0.00,-0.00,0.00,0.00,0.00,0.00,0.00,819,819,819,819
8694,0,-0.01,0.05,0.15,-0.00,0.00,-0.00,0.00,0.00,0.00,0.00,-0.00,-0.00,0.00,0.00,0.00,0.00,0.00,819,819,819,819
8702,0,-0.00,0.05,0.15,-0.00,0.00,-0.00,0.00,0.00,0.00,0.00,-0.00,-0.00,0.00,0.00,0.00,0.00,0.00,819,819,819,819
8710,0,-0.00,0.05,0.15,-0.00,0.00,-0.00,0.00,0.00,0.00,0.00,-0.00,-0.00,0.00,0.00,0.00,0.00,0.00,819,819,819,819
8718,0,-0.00,0.05,0.15,-0.00,0.00,-0.00,0.00,0.00,0.00,0.00,-0.00,-0.00,0.00,0.00,0.00,0.00,0.00,819,819,819,819
8727,0,-0.00,0.05,0.15,-0.00,0.00,-0.00,0.00,0.00,0.00,0.00,-0.00,-0.00,0.00,0.00,0.00,0.00,0.00,819,819,819,819
8737,0,-0.00,0.05,0.15,-0.00,0.00,-0.00,0.00,0.00,0.00,0.00,-0.00,-0.00,0.00,0.00,0.00,0.00,0.00,819,819,819,819
8744,0,-0.00,0.05,0.15,-0.00,0.00,-0.00,0.00,0.00,0.00,0.00,-0.00,-0.00,0.00,0.00,0.00,0.00,0.00,819,819,819,819
8751,0,0.00,0.05,0.15,-0.00,0.00,-0.00,0.00,0.00,0.00,0.00,-0.00,-0.00,0.00,0.00,0.00,0.00,0.00,819,819,819,819
8759,0,0.00,0.05,0.15,-0.00,0.00,-0.00,0.00,0.00,0.00,0.00,-0.00,0.00,0.00,0.00,0.00,0.00,0.00,819,819,819,819
8768,0,0.00,0.05,0.15,-0.00,0.00,-0.00,0.00,0.00,0.00,0.00,-0.00,0.00,0.00,0.00,0.00,0.00,0.00,819,819,819,819
8777,0,0.00,0.05,0.15,-0.00,0.00,-0.00,0.00,0.00,0.00,0.00,-0.00,0.00,0.00,0.00,0.00,0.00,0.00,819,819,819,819
8787,0,0.00,0.05,0.15,-0.00,0.00,-0.00,0.00,0.00,0.00,0.00,-0.00,0.00,0.00,0.00,0.00,0.00,0.00,819,819,819,819
8794,0,0.00,0.05,0.15,-0.00,0.00,-0.00,0.00,0.00,0.00,0.00,-0.00,-0.00,0.00,0.00,0.00,0.00,0.00,819,819,819,819
8802,0,0.00,0.05,0.15,-0.00,0.00,-0.00,0.00,0.00,0.00,0.00,-0.00,-0.00,0.00,0.00,0.00,0.00,0.00,819,819,819,819
8809,0,0.00,0.05,0.15,-0.00,0.00,-0.00,0.00,0.00,0.00,0.00,-0.00,-0.00,0.00,0.00,0.00,0.00,0.00,819,819,819,819
8818,0,0.00,0.05,0.15,-0.00,0.00,-0.00,0.00,0.00,0.00,0.00,-0.00,-0.00,0.00,0.00,0.00,0.00,0.00,819,819,819,819
8827,0,0.01,0.05,0.15,-0.00,0.00,-0.00,0.00,0.00,0.00,0.00,-0.00,-0.00,0.00,0.00,0.00,0.00,0.00,819,819,819,819
8841,0,0.01,0.05,0.15,-0.00,0.00,-0.00,0.00,0.00,0.00,0.00,-0.00,-0.00,0.00,0.00,0.00,0.00,0.00,819,819,819,819
8848,0,0.01,0.04,0.15,0.00,0.00,-0.00,0.00,0.00,0.00,0.00,-0.00,-0.00,0.00,0.00,0.00,0.00,0.00,819,819,819,819
8857,0,0.01,0.04,0.15,0.00,0.00,-0.00,0.00,0.00,0.00,0.00,-0.00,-0.00,0.00,0.00,0.00,0.00,0.00,819,819,819,819
8866,0,0.01,0.04,0.15,0.00,0.00,-0.00,0.00,0.00,0.00,0.00,-0.00,-0.00,0.00,0.00,0.00,0.00,0.00,819,819,819,819
8876,0,0.01,0.04,0.15,0.00,0.00,-0.00,0.00,0.00,0.00,0.00,-0.00,-0.00,0.00,0.00,0.00,0.00,0.00,819,819,819,819
8886,0,0.01,0.04,0.15,0.00,0.00,-0.00,0.00,0.00,0.00,0.00,-0.00,-0.00,0.00,0.00,0.00,0.00,0.00,819,819,819,819
8894,0,0.01,0.04,0.15,0.00,0.00,-0.00,0.00,0.00,0.00,0.00,-0.00,-0.00,0.00,0.00,0.00,0.00,0.00,819,819,819,819
8902,0,0.01,0.04,0.15,0.00,0.00,0.00,0.00,0.00,0.00,0.00,-0.00,-0.00,0.00,0.00,0.00,0.00,0.00,819,819,819,819
8909,0,0.01,0.04,0.15,0.00,0.00,0.00,0.00,0.00,0.00,0.00,-0.00,-0.00,0.00,0.00,0.00,0.00,0.00,819,819,819,819
8918,0,0.01,0.04,0.15,0.00,0.00,0.00,0.00,0.00,0.00,0.00,-0.00,-0.00,-0.00,0.00,0.00,0.00,0.00,819,819,819,819
8927,0,0.01,0.04,0.15,0.00,0.00,0.00,0.00,0.00,0.00,0.00,-0.00,-0.00,-0.00,0.00,0.00,0.00,0.00,819,819,819,819
8937,0,0.01,0.04,0.15,0.00,0.00,0.00,0.00,0.00,0.00,0.00,-0.00,-0.00,-0.00,0.00,0.00,0.00,0.00,819,819,819,819
8945,0,0.01,0.04,0.15,-0.00,0.00,0.00,0.00,0.00,0.00,0.00,-0.00,-0.00,-0.00,0.00,0.00,0.00,0.00,819,819,819,819
8952,0,0.00,0.04,0.15,-0.00,0.00,0.00,0.00,0.00,0.00,0.00,-0.00,-0.00,-0.00,0.00,0.00,0.00,0.00,819,819,819,819
8960,0,0.00,0.04,0.15,-0.00,0.00,0.00,0.00,0.00,0.00,0.00,-0.00,-0.00,-0.00,0.00,0.00,0.00,0.00,819,819,819,819
8968,0,0.00,0.03,0.15,-0.00,0.00,0.00,0.00,0.00,0.00,0.00,-0.00,-0.00,-0.00,0.00,0.00,0.00,0.00,819,819,819,819
8977,0,0.00,0.03,0.15,-0.00,0.00,0.00,0.00,0.00,0.00,0.00,-0.00,-0.00,-0.00,0.00,0.00,0.00,0.00,819,819,819,819
8987,0,0.00,0.03,0.15,-0.00,0.00,0.00,0.00,0.00,0.00,0.00,-0.00,-0.00,-0.00,0.00,0.00,0.00,0.00,819,819,819,819
8995,0,0.00,0.03,0.15,-0.00,0.00,0.00,0.00,0.00,0.00,0.00,-0.00,-0.00,-0.00,0.00,0.00,0.00,0.00,819,819,819,819
9003,0,0.00,0.03,0.15,-0.00,0.00,0.00,0.00,0.00,0.00,0.00,-0.00,0.00,-0.00,0.00,0.00,0.00,0.00,819,819,819,819
9011,0,0.00,0.03,0.15,-0.00,-0.00,0.00,0.00,0.00,0.00,0.00,-0.00,0.00,-0.00,0.00,0.00,0.00,0.00,819,819,819,819
9018,0,0.00,0.03,0.15,-0.00,-0.00,0.00,0.00,0.00,0.00,0.00,-0.00,0.00,-0.00,0.00,0.00,0.00,0.00,819,819,819,819
9028,0,0.00,0.03,0.15,-0.00,-0.00,0.00,0.00,0.00,0.00,0.00,-0.00,0.00,-0.00,0.00,0.00,0.00,0.00,819,819,819,819
9037,0,0.00,0.04,0.15,-0.00,-0.00,0.00,0.00,0.00,0.00,0.00,-0.00,0.00,-0.00,0.00,0.00,0.00,0.00,819,819,819,819
9045,0,0.00,0.04,0.15,-0.00,-0.00,0.00,0.00,0.00,0.00,0.00,-0.00,0.00,-0.00,0.00,0.00,0.00,0.00,819,819,819,819
9053,0,0.00,0.04,0.15,-0.00,-0.00,0.00,0.00,0.00,0.00,0.00,-0.00,0.00,-0.00,0.00,0.00,0.00,0.00,819,819,819,819
9060,0,0.00,0.04,0.15,-0.00,-0.00,0.00,0.00,0.00,0.00,0.00,-0.00,0.00,-0.00,0.00,0.00,0.00,0.00,819,819,819,819
9068,0,0.00,0.04,0.15,-0.00,-0.00,0.00,0.00,0.00,0.00,0.00,-0.00,0.00,0.00,0.00,0.00,0.00,0.00,819,819,819,819
9078,0,0.00,0.04,0.15,-0.00,-0.00,0.00,0.00,0.00,0.00,0.00,-0.00,0.00,0.00,0.00,0.00,0.00,0.00,819,819,819,819
9087,0,0.00,0.04,0.15,-0.00,-0.00,0.00,0.00,0.00,0.00,0.00,-0.00,0.00,0.00,0.00,0.00,0.00,0.00,819,819,819,819
9095,0,0.00,0.04,0.15,-0.00,-0.00,0.00,0.00,0.00,0.00,0.00,-0.00,0.00,0.00,0.00,0.00,0.00,0.00,819,819,819,819
9108,0,0.00,0.04,0.15,-0.00,-0.00,-0.00,0.00,0.00,0.00,0.00,-0.00,0.00,0.00,0.00,0.00,0.00,0.00,819,819,819,819
9118,0,0.00,0.04,0.15,-0.00,-0.00,-0.00,0.00,0.00,0.00,0.00,-0.00,0.00,0.00,0.00,0.00,0.00,0.00,819,819,819,819
9127,0,0.00,0.04,0.15,-0.00,-0.00,-0.00,0.00,0.00,0.00,0.00,-0.00,0.00,0.00,0.00,0.00,0.00,0.00,819,819,819,819
9137,0,0.00,0.04,0.15,-0.00,-0.00,-0.00,0.00,0.00,0.00,0.00,-0.00,0.00,0.00,0.00,0.00,0.00,0.00,819,819,819,819
9145,0,0.00,0.04,0.15,-0.00,-0.00,-0.00,0.00,0.00,0.00,0.00,-0.00,0.00,0.00,0.00,0.00,0.00,0.00,819,819,819,819
9153,0,0.00,0.04,0.15,-0.00,-0.00,0.00,0.00,0.00,0.00,0.00,-0.00,0.00,0.00,0.00,0.00,0.00,0.00,819,819,819,819
9161,0,0.00,0.04,0.15,-0.00,-0.00,-0.00,0.00,0.00,0.00,0.00,-0.00,0.00,0.00,0.00,0.00,0.00,0.00,819,819,819,819
9169,0,0.00,0.04,0.15,-0.00,-0.00,-0.00,0.00,0.00,0.00,0.00,-0.00,0.00,0.00,0.00,0.00,0.00,0.00,819,819,819,819
9178,0,0.00,0.04,0.15,-0.00,-0.00,-0.00,0.00,0.00,0.00,0.00,-0.00,0.00,0.00,0.00,0.00,0.00,0.00,819,819,819,819
9188,0,0.00,0.04,0.15,-0.00,-0.00,-0.00,0.00,0.00,0.00,0.00,-0.00,0.00,0.00,0.00,0.00,0.00,0.00,819,819,819,819
9195,0,0.00,0.05,0.15,-0.00,-0.00,-0.00,0.00,0.00,0.00,0.00,-0.00,0.00,0.00,0.00,0.00,0.00,0.00,819,819,819,819
9203,0,0.00,0.05,0.16,-0.00,-0.00,-0.00,0.00,0.00,0.00,0.00,-0.00,0.00,0.00,0.00,0.00,0.00,0.00,819,819,819,819
9211,0,0.00,0.05,0.16,-0.00,-0.00,-0.00,0.00,0.00,0.00,0.00,-0.00,0.00,0.00,0.00,0.00,0.00,0.00,819,819,819,819
9219,0,0.00,0.05,0.16,-0.00,-0.00,-0.00,0.00,0.00,0.00,0.00,-0.00,0.00,0.00,0.00,0.00,0.00,0.00,819,819,819,819
9228,0,0.00,0.05,0.16,-0.00,-0.00,-0.00,0.00,0.00,0.00,0.00,-0.00,0.00,0.00,0.00,0.00,0.00,0.00,819,819,819,819
9238,0,0.00,0.05,0.16,-0.00,-0.00,-0.00,0.00,0.00,0.00,0.00,-0.00,0.00,0.00,0.00,0.00,0.00,0.00,819,819,819,819
9246,0,0.00,0.05,0.16,-0.00,-0.00,-0.00,0.00,0.00,0.00,0.00,-0.00,0.00,0.00,0.00,0.00,0.00,0.00,819,819,819,819
9253,0,0.00,0.05,0.16,-0.00,-0.00,-0.00,0.00,0.00,0.00,0.00,-0.00,0.00,0.00,0.00,0.00,0.00,0.00,819,819,819,819
9261,0,0.00,0.05,0.16,-0.00,-0.00,-0.00,0.00,0.00,0.00,0.00,-0.00,0.00,0.00,0.00,0.00,0.00,0.00,819,819,819,819
9269,0,0.00,0.05,0.16,-0.00,-0.00,-0.00,0.00,0.00,0.00,0.00,-0.00,0.00,0.00,0.00,0.00,0.00,0.00,819,819,819,819
9278,0,0.00,0.05,0.16,-0.00,0.00,-0.00,0.00,0.00,0.00,0.00,-0.00,0.00,0.00,0.00,0.00,0.00,0.00,819,819,819,819
9288,0,0.00,0.05,0.16,-0.00,0.00,-0.00,0.00,0.00,0.00,0.00,-0.00,0.00,0.00,0.00,0.00,0.00,0.00,819,819,819,819
9296,0,0.00,0.05,0.16,-0.00,-0.00,-0.00,0.00,0.00,0.00,0.00,-0.00,0.00,0.00,0.00,0.00,0.00,0.00,819,819,819,819
9303,0,0.00,0.05,0.16,-0.00,-0.00,-0.00,0.00,0.00,0.00,0.00,-0.00,0.00,0.00,0.00,0.00,0.00,0.00,819,819,819,819
9311,0,0.00,0.05,0.16,-0.00,-0.00,-0.00,0.00,0.00,0.00,0.00,-0.00,0.00,0.00,0.00,0.00,0.00,0.00,819,819,819,819
9319,0,0.00,0.05,0.16,-0.00,-0.00,-0.00,0.00,0.00,0.00,0.00,-0.00,0.00,0.00,0.00,0.00,0.00,0.00,819,819,819,819
9328,0,0.00,0.05,0.16,-0.00,-0.00,-0.00,0.00,0.00,0.00,0.00,-0.00,0.00,0.00,0.00,0.00,0.00,0.00,819,819,819,819
9338,0,0.00,0.05,0.16,-0.00,-0.00,-0.00,0.00,0.00,0.00,0.00,-0.00,0.00,0.00,0.00,0.00,0.00,0.00,819,819,819,819
9346,0,0.00,0.05,0.16,-0.00,-0.00,-0.00,0.00,0.00,0.00,0.00,-0.00,0.00,0.00,0.00,0.00,0.00,0.00,819,819,819,819
9353,0,0.00,0.05,0.16,-0.00,-0.00,-0.00,0.00,0.00,0.00,0.00,-0.00,0.00,0.00,0.00,0.00,0.00,0.00,819,819,819,819
9361,0,0.00,0.05,0.16,-0.00,-0.00,-0.00,0.00,0.00,0.00,0.00,-0.00,0.00,0.00,0.00,0.00,0.00,0.00,819,819,819,819
9376,0,0.01,0.05,0.16,-0.00,-0.00,-0.00,0.00,0.00,0.00,0.00,-0.00,0.00,0.00,0.00,0.00,0.00,0.00,819,819,819,819
9386,0,0.01,0.05,0.16,-0.00,-0.00,-0.00,0.00,0.00,0.00,0.00,-0.00,0.00,0.00,0.00,0.00,0.00,0.00,819,819,819,819
9393,0,0.01,0.05,0.16,-0.00,-0.00,-0.00,0.00,0.00,0.00,0.00,-0.00,0.00,0.00,0.00,0.00,0.00,0.00,819,819,819,819
9404,0,0.01,0.05,0.16,-0.00,-0.00,-0.00,0.00,0.00,0.00,0.00,-0.00,0.00,0.00,0.00,0.00,0.00,0.00,819,819,819,819
9412,0,0.01,0.05,0.16,-0.00,-0.00,-0.00,0.00,0.00,0.00,0.00,-0.00,0.00,0.00,0.00,0.00,0.00,0.00,819,819,819,819
9419,0,0.01,0.05,0.16,-0.00,-0.00,-0.00,0.00,0.00,0.00,0.00,-0.00,0.00,0.00,0.00,0.00,0.00,0.00,819,819,819,819
9428,0,0.01,0.05,0.16,-0.00,-0.00,-0.00,0.00,0.00,0.00,0.00,-0.00,0.00,0.00,0.00,0.00,0.00,0.00,819,819,819,819
9438,0,0.01,0.05,0.16,-0.00,-0.00,-0.00,0.00,0.00,0.00,0.00,-0.00,0.00,0.00,0.00,0.00,0.00,0.00,819,819,819,819
9446,0,0.01,0.05,0.16,-0.00,-0.00,-0.00,0.00,0.00,0.00,0.00,-0.00,0.00,0.00,0.00,0.00,0.00,0.00,819,819,819,819
9453,0,0.01,0.05,0.16,-0.00,-0.00,-0.00,0.00,0.00,0.00,0.00,-0.00,0.00,0.00,0.00,0.00,0.00,0.00,819,819,819,819
9461,0,0.02,0.05,0.16,-0.00,0.00,-0.00,0.00,0.00,0.00,0.00,-0.00,0.00,0.00,0.00,0.00,0.00,0.00,819,819,819,819
9469,0,0.02,0.05,0.16,-0.00,0.00,-0.00,0.00,0.00,0.00,0.00,-0.00,0.00,0.00,0.00,0.00,0.00,0.00,819,819,819,819
9479,0,0.02,0.05,0.16,-0.00,0.00,-0.00,0.00,0.00,0.00,0.00,-0.00,0.00,0.00,0.00,0.00,0.00,0.00,819,819,819,819
9488,0,0.02,0.05,0.16,-0.00,0.00,-0.00,0.00,0.00,0.00,0.00,-0.00,0.00,0.00,0.00,0.00,0.00,0.00,819,819,819,819
9497,0,0.02,0.05,0.16,-0.00,0.00,-0.00,0.00,0.00,0.00,0.00,-0.00,0.00,0.00,0.00,0.00,0.00,0.00,819,819,819,819
9507,0,0.02,0.05,0.16,-0.00,0.00,0.00,0.00,0.00,0.00,0.00,-0.00,0.00,0.00,0.00,0.00,0.00,0.00,819,819,819,819
9516,0,0.02,0.05,0.16,-0.00,-0.00,0.00,0.00,0.00,0.00,0.00,-0.00,0.00,0.00,0.00,0.00,0.00,0.00,819,819,819,819
9526,0,0.02,0.05,0.16,-0.00,-0.00,0.00,0.00,0.00,0.00,0.00,-0.00,0.00,0.00,0.00,0.00,0.00,0.00,819,819,819,819
9536,0,0.01,0.05,0.16,-0.00,-0.00,0.00,0.00,0.00,0.00,0.00,-0.00,0.00,0.00,0.00,0.00,0.00,0.00,819,819,819,819
9544,0,0.01,0.05,0.16,-0.00,-0.00,0.00,0.00,0.00,0.00,0.00,-0.00,0.00,0.00,0.00,0.00,0.00,0.00,819,819,819,819
9552,0,0.01,0.05,0.16,-0.00,-0.00,0.00,0.00,0.00,0.00,0.00,-0.00,0.00,0.00,0.00,0.00,0.00,0.00,819,819,819,819
9559,0,0.01,0.05,0.16,-0.00,0.00,0.00,0.00,0.00,0.00,0.00,-0.00,0.00,0.00,0.00,0.00,0.00,0.00,819,819,819,819
9569,0,0.01,0.05,0.16,-0.00,0.00,0.00,0.00,0.00,0.00,0.00,-0.00,0.00,0.00,0.00,0.00,0.00,0.00,819,819,819,819
9578,0,0.01,0.05,0.16,-0.00,0.00,0.00,0.00,0.00,0.00,0.00,-0.00,0.00,0.00,0.00,0.00,0.00,0.00,819,819,819,819
9588,0,0.01,0.05,0.16,-0.00,0.00,0.00,0.00,0.00,0.00,0.00,-0.00,0.00,0.00,0.00,0.00,0.00,0.00,819,819,819,819
9596,0,0.01,0.05,0.16,-0.00,0.00,0.00,0.04,0.00,0.00,0.00,-0.00,0.00,0.00,0.04,0.04,0.03,0.03,849,849,864,847
9604,0,0.01,0.05,0.16,-0.00,0.00,0.00,0.04,0.00,0.00,0.00,-0.00,0.00,0.00,0.04,0.04,0.04,0.04,855,855,869,853
9612,0,0.01,0.05,0.16,-0.00,0.00,0.00,0.04,0.00,0.00,0.00,-0.00,0.00,0.00,0.04,0.04,0.04,0.04,855,855,869,853
9620,0,0.01,0.05,0.16,-0.00,0.00,0.00,0.05,0.00,0.00,0.00,-0.00,0.00,-0.00,0.05,0.05,0.05,0.05,861,861,876,860
9629,0,0.01,0.05,0.16,-0.00,0.00,0.00,0.06,0.00,0.00,0.00,-0.00,-0.00,-0.00,0.06,0.06,0.06,0.06,870,870,885,869
9643,0,0.01,0.05,0.16,-0.00,0.00,0.00,0.06,0.00,0.00,0.00,-0.00,-0.00,-0.00,0.06,0.06,0.06,0.06,870,870,885,869
9651,0,0.00,0.05,0.16,0.00,0.00,0.00,0.07,0.00,0.00,0.00,-0.00,-0.00,-0.00,0.07,0.07,0.07,0.07,878,878,892,876
9659,0,0.00,0.05,0.16,0.00,0.00,0.00,0.07,0.00,0.00,0.00,-0.00,-0.00,-0.00,0.07,0.07,0.07,0.07,878,878,892,876
9668,0,0.00,0.05,0.16,0.00,0.00,0.00,0.07,0.00,0.00,0.00,-0.00,-0.00,-0.00,0.07,0.07,0.07,0.07,878,878,892,876
9678,0,0.00,0.05,0.16,0.00,0.00,0.00,0.07,0.00,0.00,0.00,-0.00,-0.00,-0.00,0.07,0.07,0.07,0.07,878,878,892,876
9688,0,0.00,0.05,0.16,0.00,0.00,0.00,0.07,0.00,0.00,0.00,-0.00,-0.00,0.00,0.07,0.07,0.07,0.07,878,878,892,876
9696,0,0.00,0.05,0.16,0.00,0.00,0.00,0.07,0.00,0.00,0.00,-0.00,-0.00,0.00,0.07,0.07,0.07,0.07,878,878,892,876
9704,0,0.00,0.05,0.16,0.00,0.00,0.00,0.07,0.00,0.00,0.00,-0.00,-0.00,-0.00,0.07,0.07,0.07,0.07,878,878,892,876
9711,0,0.00,0.05,0.16,0.00,0.00,0.00,0.07,0.00,0.00,0.00,-0.00,-0.00,-0.00,0.07,0.07,0.07,0.07,878,878,892,876
9720,0,0.00,0.05,0.16,0.00,0.00,0.00,0.07,0.00,0.00,0.00,-0.00,-0.00,-0.00,0.07,0.07,0.07,0.07,878,878,892,876
9729,0,0.00,0.04,0.16,0.00,0.00,0.00,0.07,0.00,0.00,0.00,-0.00,-0.00,-0.00,0.07,0.07,0.07,0.07,878,878,892,876
9739,0,0.00,0.04,0.16,0.00,0.00,0.00,0.07,0.00,0.00,0.00,-0.00,-0.00,-0.00,0.07,0.07,0.07,0.07,878,878,892,876
9749,0,0.00,0.04,0.16,0.00,0.00,0.00,0.07,0.00,0.00,0.00,-0.00,-0.00,-0.00,0.07,0.07,0.07,0.07,878,878,892,876
9756,0,0.00,0.04,0.16,0.00,0.00,0.00,0.07,0.00,0.00,0.00,-0.00,-0.00,-0.00,0.07,0.07,0.07,0.07,878,878,892,876
9764,0,0.00,0.04,0.16,0.00,0.00,0.00,0.07,0.00,0.00,0.00,-0.00,-0.00,0.00,0.07,0.07,0.07,0.07,878,878,892,876
9772,0,0.00,0.04,0.16,0.00,0.00,0.00,0.07,0.00,0.00,0.00,-0.00,-0.00,0.00,0.07,0.07,0.07,0.07,878,878,892,876
9780,0,0.00,0.04,0.16,0.00,0.00,0.00,0.07,0.00,0.00,0.00,-0.00,-0.00,0.00,0.07,0.07,0.07,0.07,878,878,892,876
9789,0,0.00,0.04,0.16,0.00,0.00,0.00,0.07,0.00,0.00,0.00,-0.00,-0.00,0.00,0.07,0.07,0.07,0.07,878,878,892,876
9798,0,0.00,0.04,0.16,0.00,0.00,0.00,0.07,0.00,0.00,0.00,-0.00,0.00,0.00,0.07,0.07,0.07,0.07,878,878,892,876
9808,0,0.00,0.04,0.16,0.00,0.00,0.00,0.07,0.00,0.00,0.00,-0.00,0.00,0.00,0.07,0.07,0.07,0.07,878,878,892,876
9818,0,0.00,0.04,0.16,0.00,0.00,0.00,0.07,0.00,0.00,0.00,-0.00,0.00,0.00,0.07,0.07,0.07,0.07,878,878,892,876
9828,0,0.00,0.04,0.16,0.00,0.00,0.00,0.07,0.00,0.00,0.00,-0.00,0.00,0.00,0.07,0.07,0.07,0.07,878,878,892,876
9838,0,0.00,0.04,0.16,0.00,0.00,0.00,0.07,0.00,0.00,0.00,-0.00,0.00,0.00,0.07,0.07,0.07,0.07,878,878,892,876
9845,0,0.00,0.04,0.16,0.00,-0.00,0.00,0.07,0.00,0.00,0.00,-0.00,0.00,0.00,0.07,0.07,0.07,0.07,878,877,892,876
9853,0,0.00,0.04,0.16,0.00,-0.00,0.00,0.07,0.00,0.00,0.00,-0.00,0.00,0.00,0.07,0.07,0.07,0.07,878,877,892,876
9861,0,0.00,0.04,0.16,-0.00,-0.00,0.00,0.07,0.00,0.00,0.00,-0.00,0.00,0.00,0.07,0.07,0.07,0.07,878,877,893,876
9870,0,0.00,0.04,0.16,-0.00,-0.00,0.00,0.07,0.00,0.00,0.00,-0.00,0.00,0.00,0.07,0.07,0.07,0.07,878,877,893,876
9879,0,0.00,0.04,0.16,-0.00,-0.00,0.00,0.07,0.00,0.00,0.00,-0.00,0.00,0.00,0.07,0.07,0.07,0.07,878,877,893,876
9889,0,0.00,0.04,0.16,-0.00,-0.00,0.00,0.07,0.00,0.00,0.00,-0.00,0.00,0.00,0.07,0.07,0.07,0.07,878,877,893,876
9897,0,0.00,0.04,0.16,-0.00,-0.00,-0.00,0.09,0.00,0.00,0.00,-0.00,0.00,0.00,0.09,0.09,0.09,0.09,891,890,906,889
9905,0,0.00,0.05,0.16,0.00,-0.00,-0.00,0.09,0.00,0.00,0.00,-0.00,0.00,0.00,0.09,0.09,0.09,0.09,891,890,906,889
9920,0,0.00,0.05,0.16,0.00,-0.00,-0.00,0.10,0.00,0.00,0.00,-0.00,0.00,0.00,0.11,0.10,0.10,0.10,905,904,920,903
9929,0,0.00,0.05,0.16,0.00,-0.00,-0.00,0.11,0.00,0.00,0.00,-0.00,0.00,0.00,0.11,0.11,0.11,0.11,912,911,926,909
9939,0,0.00,0.05,0.16,0.00,-0.00,-0.00,0.12,0.00,0.00,0.00,-0.00,0.00,0.00,0.12,0.12,0.11,0.11,914,913,928,912
9947,0,0.00,0.05,0.16,0.00,-0.00,-0.00,0.12,0.00,0.00,0.00,-0.00,0.00,0.00,0.12,0.12,0.11,0.11,914,913,928,912
9955,0,0.00,0.05,0.16,0.00,-0.00,-0.00,0.12,0.00,0.00,0.00,-0.00,0.00,0.00,0.12,0.12,0.12,0.12,918,917,933,916
9963,0,0.00,0.05,0.16,0.00,-0.00,-0.00,0.12,0.00,0.00,0.00,-0.00,0.00,0.00,0.12,0.12,0.12,0.12,918,917,933,916
9971,0,0.00,0.05,0.16,-0.00,-0.00,-0.00,0.12,0.00,0.00,0.00,-0.00,0.00,0.00,0.12,0.12,0.12,0.12,919,918,933,917
9980,0,0.00,0.05,0.16,-0.00,-0.00,-0.00,0.12,0.00,0.00,0.00,-0.00,0.00,0.00,0.12,0.12,0.12,0.12,919,918,933,917
9990,0,0.00,0.05,0.16,-0.00,-0.00,-0.00,0.12,0.00,0.00,0.00,-0.00,0.00,0.00,0.12,0.12,0.12,0.12,921,920,935,918
9997,0,0.00,0.05,0.16,-0.00,-0.00,-0.00,0.12,0.00,0.00,0.00,-0.00,0.00,0.00,0.12,0.12,0.12,0.12,921,920,935,918
10005,0,0.00,0.05,0.16,-0.00,-0.00,-0.00,0.12,0.00,0.00,0.00,-0.00,0.00,0.00,0.13,0.13,0.12,0.12,922,922,936,920
10013,0,0.00,0.05,0.16,-0.00,0.00,-0.00,0.13,0.00,0.00,0.00,-0.00,0.00,0.00,0.13,0.13,0.12,0.12,923,923,937,921
10021,0,0.00,0.05,0.16,0.00,0.00,-0.00,0.13,0.00,0.00,0.00,-0.00,0.00,0.00,0.13,0.13,0.13,0.13,924,923,938,922
10030,0,0.00,0.05,0.16,0.00,0.00,-0.00,0.13,0.00,0.00,0.00,-0.00,0.00,0.00,0.13,0.13,0.13,0.13,924,923,938,922
10039,0,0.00,0.05,0.16,0.00,-0.00,-0.00,0.13,0.00,0.00,0.00,-0.00,0.00,0.00,0.13,0.13,0.13,0.13,925,924,939,923
10047,0,0.00,0.05,0.16,0.00,0.00,-0.00,0.13,0.00,0.00,0.00,-0.00,0.00,0.00,0.13,0.13,0.13,0.13,925,924,939,923
10055,0,0.00,0.05,0.16,0.00,0.00,0.00,0.13,0.00,0.00,0.00,-0.00,0.00,0.00,0.13,0.13,0.13,0.13,925,925,940,924
10062,0,0.00,0.05,0.16,0.00,0.00,0.00,0.13,0.00,0.00,0.00,-0.00,-0.00,0.00,0.13,0.13,0.13,0.13,925,925,940,924
10070,0,0.00,0.05,0.16,0.00,0.00,0.00,0.13,0.00,0.00,0.00,-0.00,-0.00,0.00,0.13,0.13,0.13,0.13,925,925,940,924
10080,0,0.00,0.05,0.16,0.00,0.00,0.00,0.13,0.00,0.00,0.00,-0.00,-0.00,0.00,0.13,0.13,0.13,0.13,925,925,940,924
10090,0,0.00,0.05,0.16,0.00,0.00,0.00,0.13,0.00,0.00,0.00,-0.00,-0.00,-0.00,0.13,0.13,0.13,0.13,925,925,940,924
10097,0,0.00,0.05,0.16,0.00,0.00,0.00,0.13,0.00,0.00,0.00,-0.00,-0.00,-0.00,0.13,0.13,0.13,0.13,925,925,940,923
10105,0,0.00,0.05,0.16,0.00,0.00,0.00,0.13,0.00,0.00,0.00,-0.00,-0.00,-0.00,0.13,0.13,0.13,0.13,925,925,940,923
10113,0,0.00,0.05,0.16,0.00,0.00,0.00,0.13,0.00,0.00,0.00,-0.00,-0.00,-0.00,0.13,0.13,0.13,0.13,925,925,940,923
10121,0,0.00,0.05,0.16,0.00,0.00,0.00,0.13,0.00,0.00,0.00,-0.00,-0.00,-0.00,0.13,0.13,0.13,0.13,925,925,940,923
10130,0,0.00,0.05,0.16,0.00,0.00,0.00,0.13,0.00,0.00,0.00,-0.00,0.00,-0.00,0.13,0.13,0.13,0.13,925,925,940,923
10140,0,0.00,0.05,0.16,0.00,0.00,0.00,0.13,0.00,0.00,0.00,-0.00,0.00,-0.00,0.13,0.13,0.13,0.13,925,925,940,923
10148,0,0.00,0.05,0.16,0.00,0.00,0.00,0.13,0.00,0.00,0.00,-0.00,0.00,-0.00,0.13,0.13,0.13,0.13,925,925,940,923
10156,0,-0.00,0.05,0.16,0.00,0.00,0.00,0.13,0.00,0.00,0.00,-0.00,0.00,-0.00,0.13,0.13,0.13,0.13,925,925,940,923
10163,0,-0.00,0.05,0.16,0.00,-0.00,0.00,0.13,0.00,0.00,0.00,-0.00,0.00,-0.00,0.13,0.13,0.13,0.13,925,925,940,923
10171,0,-0.00,0.05,0.16,0.00,-0.00,0.00,0.13,0.00,0.00,0.00,-0.00,0.00,-0.00,0.13,0.13,0.13,0.13,925,925,940,923
10186,0,-0.00,0.05,0.16,0.00,-0.00,0.00,0.13,0.00,0.00,0.00,-0.00,0.00,-0.00,0.13,0.13,0.13,0.13,925,925,940,923
10194,0,-0.00,0.05,0.16,0.00,-0.00,0.00,0.13,0.00,0.00,0.00,-0.00,0.00,-0.00,0.13,0.13,0.13,0.13,925,925,941,923
10202,0,-0.00,0.05,0.16,-0.00,-0.00,0.00,0.13,0.00,0.00,0.00,-0.00,0.00,-0.00,0.13,0.13,0.13,0.13,925,925,941,923
10210,0,-0.00,0.05,0.16,-0.00,-0.00,0.00,0.13,0.00,0.00,0.00,-0.00,0.00,-0.00,0.13,0.13,0.13,0.13,925,925,941,923
10220,0,-0.00,0.05,0.16,-0.00,-0.00,0.00,0.13,0.00,0.00,0.00,-0.00,0.00,-0.00,0.13,0.13,0.13,0.13,925,925,941,923
10230,0,-0.01,0.05,0.16,-0.00,-0.00,0.00,0.13,0.00,0.00,0.00,-0.00,0.00,-0.00,0.13,0.13,0.13,0.13,925,925,941,923
10240,0,-0.01,0.05,0.16,-0.00,-0.00,0.00,0.13,0.00,0.00,0.00,-0.00,0.00,-0.00,0.13,0.13,0.13,0.13,925,925,941,923
10248,0,-0.01,0.05,0.16,-0.00,-0.00,0.00,0.13,0.00,0.00,0.00,-0.00,0.00,-0.00,0.13,0.13,0.13,0.13,925,925,941,923
10255,0,-0.01,0.06,0.16,-0.00,-0.00,0.00,0.13,0.00,0.00,0.00,-0.00,0.00,-0.00,0.13,0.13,0.13,0.13,925,925,941,923
10263,0,-0.02,0.06,0.16,-0.00,-0.00,0.00,0.13,0.00,0.00,0.00,-0.00,0.00,-0.00,0.13,0.13,0.13,0.13,925,925,941,922
10271,0,-0.02,0.06,0.16,-0.00,-0.00,0.00,0.13,0.00,0.00,0.00,-0.00,0.00,-0.00,0.13,0.13,0.13,0.13,925,925,941,922
10280,0,-0.02,0.06,0.16,-0.00,-0.00,0.00,0.13,0.00,0.00,0.00,-0.00,0.00,-0.00,0.13,0.13,0.13,0.13,926,925,941,922
10290,0,-0.02,0.06,0.16,-0.00,-0.00,0.00,0.13,0.00,0.00,0.00,-0.00,0.00,-0.00,0.13,0.13,0.13,0.13,926,925,941,922
10298,0,-0.02,0.06,0.16,-0.00,-0.00,0.00,0.13,0.00,0.00,0.00,-0.00,0.00,-0.00,0.13,0.13,0.13,0.13,926,925,941,922
10306,0,-0.02,0.06,0.16,-0.00,-0.00,0.00,0.13,0.00,0.00,0.00,-0.00,0.00,-0.00,0.13,0.13,0.13,0.13,926,925,941,922
10314,0,-0.02,0.07,0.16,-0.00,-0.00,0.00,0.13,0.00,0.00,0.00,-0.00,0.00,-0.00,0.13,0.13,0.13,0.13,926,925,941,922
10322,0,-0.02,0.07,0.16,-0.00,-0.00,0.00,0.13,0.00,0.00,0.00,-0.00,0.00,-0.00,0.13,0.13,0.13,0.13,926,924,941,922
10331,0,-0.02,0.07,0.16,-0.00,-0.00,-0.00,0.13,0.00,0.00,0.00,-0.00,0.00,-0.00,0.13,0.13,0.13,0.13,926,924,941,922
10340,0,-0.02,0.07,0.16,-0.00,-0.00,-0.00,0.13,0.00,0.00,0.00,-0.00,0.00,-0.00,0.13,0.13,0.13,0.13,926,924,941,922
10348,0,-0.02,0.07,0.16,-0.00,-0.00,-0.00,0.13,0.00,0.00,0.00,-0.00,0.00,-0.00,0.13,0.13,0.13,0.13,926,924,941,922
10356,0,-0.02,0.07,0.16,-0.00,-0.00,-0.00,0.13,0.00,0.00,0.00,-0.00,0.00,0.00,0.13,0.13,0.13,0.13,926,924,941,922
10363,0,-0.02,0.07,0.16,-0.00,-0.00,-0.00,0.13,0.00,0.00,0.00,-0.00,0.00,0.00,0.13,0.13,0.13,0.13,926,924,941,922
10371,0,-0.02,0.07,0.16,-0.00,-0.00,-0.00,0.13,0.00,0.00,0.00,-0.00,0.00,0.00,0.13,0.13,0.13,0.13,926,924,941,922
10381,0,-0.02,0.08,0.16,-0.00,-0.00,-0.00,0.13,0.00,0.00,0.00,-0.00,0.00,0.00,0.13,0.13,0.13,0.13,926,924,941,922
10390,0,-0.02,0.08,0.16,-0.00,-0.00,-0.00,0.13,0.00,0.00,0.00,-0.00,0.00,0.00,0.13,0.13,0.13,0.13,926,924,940,923
10398,0,-0.02,0.08,0.16,-0.00,-0.00,-0.00,0.13,0.00,0.00,0.00,-0.00,0.00,0.00,0.13,0.13,0.13,0.13,926,924,940,923
10406,0,-0.02,0.08,0.16,-0.00,-0.00,-0.00,0.13,0.00,0.00,0.00,-0.00,0.00,0.00,0.13,0.13,0.13,0.13,926,924,940,923
10414,0,-0.01,0.08,0.17,-0.00,-0.00,-0.00,0.13,0.00,0.00,0.00,-0.00,0.00,0.00,0.13,0.13,0.13,0.13,926,924,940,923
10422,0,-0.01,0.08,0.17,-0.00,-0.00,-0.00,0.13,0.00,0.00,0.00,-0.00,0.00,0.00,0.13,0.13,0.13,0.13,926,924,940,923
10431,0,-0.01,0.08,0.17,-0.00,-0.00,-0.00,0.13,0.00,0.00,0.00,-0.00,0.00,0.00,0.13,0.13,0.13,0.13,926,924,940,923
10441,0,-0.01,0.09,0.17,-0.00,-0.00,-0.00,0.13,0.00,0.00,0.00,-0.00,0.00,0.00,0.13,0.13,0.13,0.13,926,924,940,923
10454,0,-0.01,0.09,0.17,-0.00,-0.00,-0.00,0.13,0.00,0.00,0.00,-0.00,0.00,0.00,0.13,0.13,0.13,0.13,926,925,940,923
10462,0,-0.01,0.09,0.17,-0.00,-0.00,-0.00,0.13,0.00,0.00,0.00,-0.00,0.00,0.00,0.13,0.13,0.13,0.13,926,925,940,923
10471,0,-0.01,0.09,0.17,-0.00,-0.00,-0.00,0.13,0.00,0.00,0.00,-0.00,0.00,0.00,0.13,0.13,0.13,0.13,926,924,940,923
10481,0,-0.01,0.09,0.17,-0.00,-0.00,-0.00,0.13,0.00,0.00,0.00,-0.00,0.00,0.00,0.13,0.13,0.13,0.13,926,924,940,923
10491,0,-0.01,0.09,0.17,-0.00,-0.00,-0.00,0.13,0.00,0.00,0.00,-0.00,0.00,0.00,0.13,0.13,0.13,0.13,926,925,940,923
10499,0,-0.01,0.09,0.17,-0.00,-0.00,-0.00,0.13,0.00,0.00,0.00,-0.00,0.00,0.00,0.13,0.13,0.13,0.13,926,925,940,923
10506,0,-0.00,0.09,0.17,-0.00,-0.00,-0.00,0.13,0.00,0.00,0.00,-0.00,0.00,0.00,0.13,0.13,0.13,0.13,926,925,940,923
10514,0,-0.00,0.09,0.17,-0.00,-0.00,-0.00,0.13,0.00,0.00,0.00,-0.00,0.00,0.00,0.13,0.13,0.13,0.13,926,925,940,923
10522,0,-0.00,0.09,0.17,-0.00,-0.00,-0.00,0.13,0.00,0.00,0.00,-0.00,0.00,0.00,0.13,0.13,0.13,0.13,926,925,940,923
10531,0,-0.00,0.09,0.17,-0.00,-0.00,-0.00,0.13,0.00,0.00,0.00,-0.00,0.00,0.00,0.13,0.13,0.13,0.13,926,925,940,923
10541,0,-0.00,0.09,0.18,-0.00,-0.00,-0.00,0.13,0.00,0.00,0.00,-0.00,0.00,0.00,0.13,0.13,0.13,0.13,926,925,940,923
10549,0,-0.00,0.09,0.18,-0.00,-0.00,-0.00,0.13,0.00,0.00,0.00,-0.00,0.00,0.00,0.13,0.13,0.13,0.13,926,925,940,923
10556,0,-0.00,0.09,0.18,-0.00,0.00,-0.00,0.13,0.00,0.00,0.00,-0.00,0.00,0.00,0.13,0.13,0.13,0.13,926,925,939,923
10564,0,-0.00,0.09,0.18,-0.00,0.00,-0.00,0.13,0.00,0.00,0.00,-0.00,0.00,0.00,0.13,0.13,0.13,0.13,926,925,939,923
10572,0,-0.00,0.09,0.18,-0.00,-0.00,-0.00,0.13,0.00,0.00,0.00,-0.00,0.00,0.00,0.13,0.13,0.13,0.13,926,925,939,923
10581,0,-0.00,0.09,0.18,-0.00,-0.00,-0.00,0.13,0.00,0.00,0.00,-0.00,0.00,0.00,0.13,0.13,0.13,0.13,926,925,939,923
10591,0,0.00,0.09,0.18,-0.00,-0.00,-0.00,0.13,0.00,0.00,0.00,-0.00,0.00,0.00,0.13,0.13,0.13,0.13,926,925,939,923
10599,0,0.00,0.09,0.18,-0.00,-0.00,-0.00,0.13,0.00,0.00,0.00,-0.00,0.00,0.00,0.13,0.13,0.13,0.13,926,925,940,923
10607,0,0.00,0.09,0.18,-0.00,-0.00,-0.00,0.13,0.00,0.00,0.00,-0.00,0.00,0.00,0.13,0.13,0.13,0.13,926,925,940,923
10615,0,0.00,0.09,0.18,-0.00,0.00,-0.00,0.13,0.00,0.00,0.00,-0.00,0.00,0.00,0.13,0.13,0.13,0.13,926,925,940,923
10623,0,0.00,0.09,0.18,-0.00,0.00,-0.00,0.13,0.00,0.00,0.00,-0.00,0.00,0.00,0.13,0.13,0.13,0.13,926,925,940,923
10631,0,0.00,0.09,0.18,-0.00,0.00,0.00,0.13,0.00,0.00,0.00,-0.00,0.00,0.00,0.13,0.13,0.13,0.13,926,925,940,923
10641,0,0.00,0.09,0.18,-0.00,0.00,0.00,0.13,0.00,0.00,0.00,-0.00,0.00,0.00,0.13,0.13,0.13,0.13,926,925,940,923
10648,0,0.00,0.09,0.18,-0.00,-0.00,0.00,0.13,0.00,0.00,0.00,-0.00,0.00,0.00,0.13,0.13,0.13,0.13,926,925,940,923
10656,0,0.00,0.09,0.18,-0.00,-0.00,0.00,0.13,0.00,0.00,0.00,-0.00,0.00,0.00,0.13,0.13,0.13,0.13,926,925,940,923
10669,0,0.00,0.09,0.19,-0.00,-0.00,0.00,0.13,0.00,0.00,0.00,-0.00,0.00,0.00,0.13,0.13,0.13,0.13,926,925,940,923
10679,0,0.00,0.09,0.19,-0.00,-0.00,0.00,0.13,0.00,0.00,0.00,-0.00,0.00,0.00,0.13,0.13,0.13,0.13,925,924,939,922
10688,0,0.00,0.10,0.19,-0.00,-0.00,0.00,0.13,0.00,0.00,0.00,-0.00,0.00,0.00,0.13,0.13,0.13,0.13,925,924,939,922
10696,0,0.00,0.10,0.19,-0.00,0.00,0.00,0.13,0.00,0.00,0.00,-0.00,0.00,0.00,0.13,0.13,0.13,0.13,925,924,939,922
10704,0,0.00,0.09,0.19,-0.00,0.00,0.00,0.13,0.00,0.00,0.00,-0.00,0.00,0.00,0.13,0.13,0.13,0.13,926,925,940,923
10719,0,0.00,0.09,0.19,-0.00,0.00,0.00,0.13,0.00,0.00,0.00,-0.00,0.00,0.00,0.13,0.13,0.13,0.13,926,925,940,923
10729,0,0.00,0.09,0.19,-0.00,0.00,-0.00,0.13,0.00,0.00,0.00,-0.00,0.00,0.00,0.13,0.13,0.13,0.13,926,925,939,923
10739,0,0.00,0.09,0.19,-0.00,0.00,-0.00,0.13,0.00,0.00,0.00,-0.00,0.00,0.00,0.13,0.13,0.13,0.13,926,925,939,923
10747,0,0.00,0.09,0.19,-0.00,0.00,-0.00,0.13,0.00,0.00,0.00,-0.00,-0.00,0.00,0.13,0.13,0.13,0.13,926,925,939,923
10755,0,0.00,0.09,0.19,-0.00,0.00,-0.00,0.13,0.00,0.00,0.00,-0.00,-0.00,0.00,0.13,0.13,0.13,0.13,926,926,939,923
10763,0,0.00,0.09,0.19,-0.00,0.00,-0.00,0.13,0.00,0.00,0.00,-0.00,-0.00,0.00,0.13,0.13,0.13,0.13,926,926,939,923
10772,0,0.00,0.09,0.19,-0.00,0.00,0.00,0.13,0.00,0.00,0.00,-0.00,-0.00,0.00,0.13,0.13,0.13,0.13,926,926,939,923
10781,0,0.00,0.09,0.19,-0.00,0.00,0.00,0.13,0.00,0.00,0.00,-0.00,-0.00,0.00,0.13,0.13,0.13,0.13,926,926,939,923
10791,0,0.00,0.09,0.20,-0.00,0.00,0.00,0.13,0.00,0.00,0.00,-0.00,-0.00,0.00,0.13,0.13,0.13,0.13,926,926,939,923
10799,0,0.00,0.09,0.20,-0.00,0.00,0.00,0.13,0.00,0.00,0.00,-0.00,-0.00,-0.00,0.13,0.13,0.13,0.13,926,926,939,923
10807,0,0.00,0.09,0.20,-0.00,0.00,0.00,0.13,0.00,0.00,0.00,-0.00,0.00,-0.00,0.13,0.13,0.13,0.13,926,926,939,923
10815,0,0.00,0.09,0.20,-0.00,0.00,0.00,0.13,0.00,0.00,0.00,-0.00,0.00,-0.00,0.13,0.13,0.13,0.13,926,926,940,923
10823,0,0.00,0.09,0.20,-0.00,0.00,0.00,0.13,0.00,0.00,0.00,-0.00,0.00,-0.00,0.13,0.13,0.13,0.13,926,926,940,923
10832,0,0.00,0.09,0.20,-0.00,0.00,0.00,0.13,0.00,0.00,0.00,-0.00,0.00,-0.00,0.13,0.13,0.13,0.13,926,926,940,923
10842,0,-0.00,0.09,0.20,-0.00,0.00,0.00,0.13,0.00,0.00,0.00,-0.00,0.00,-0.00,0.13,0.13,0.13,0.13,926,926,940,923
10850,0,-0.00,0.09,0.20,-0.00,0.00,0.00,0.13,0.00,0.00,0.00,-0.00,0.00,-0.00,0.13,0.13,0.13,0.13,926,926,940,923
10858,0,-0.00,0.09,0.21,-0.00,0.00,0.00,0.13,0.00,0.00,0.00,-0.00,0.00,-0.00,0.13,0.13,0.13,0.13,926,926,939,923
10866,0,-0.00,0.08,0.21,-0.00,0.00,0.00,0.13,0.00,0.00,0.00,-0.00,-0.00,-0.00,0.13,0.13,0.13,0.13,926,926,939,923
10874,0,-0.00,0.08,0.21,-0.00,0.00,0.00,0.13,0.00,0.00,0.00,-0.00,-0.00,-0.00,0.13,0.13,0.13,0.13,926,926,939,923
10882,0,-0.00,0.08,0.21,-0.00,0.00,0.00,0.13,0.00,0.00,0.00,-0.00,-0.00,-0.00,0.13,0.13,0.13,0.13,925,926,939,923
10892,0,-0.00,0.08,0.21,-0.00,0.00,0.00,0.13,0.00,0.00,0.00,-0.00,-0.00,-0.00,0.13,0.13,0.13,0.13,925,926,939,923
10900,0,-0.00,0.08,0.21,-0.00,0.00,0.00,0.13,0.00,0.00,0.00,-0.00,-0.00,-0.00,0.13,0.13,0.13,0.13,925,927,939,923
10908,0,-0.00,0.08,0.21,-0.00,0.00,0.00,0.13,0.00,0.00,0.00,-0.00,-0.00,-0.00,0.13,0.13,0.13,0.13,925,927,938,924
10917,0,-0.00,0.07,0.21,-0.00,0.00,0.00,0.13,0.00,0.00,0.00,-0.00,-0.00,0.00,0.13,0.13,0.13,0.13,925,927,938,924
10925,0,-0.00,0.07,0.21,-0.00,0.00,-0.00,0.13,0.00,0.00,0.00,-0.00,-0.00,0.00,0.13,0.13,0.13,0.13,925,926,938,924
10933,0,-0.00,0.07,0.22,-0.00,0.00,-0.00,0.13,0.00,0.00,0.00,-0.00,-0.00,0.00,0.13,0.13,0.13,0.13,926,927,939,924
10942,0,-0.00,0.07,0.22,-0.00,0.00,-0.00,0.13,0.00,0.00,0.00,-0.00,-0.00,0.00,0.13,0.13,0.13,0.13,927,927,939,924
10950,0,-0.00,0.07,0.22,-0.00,0.00,-0.00,0.13,0.00,0.00,0.00,-0.00,-0.00,0.00,0.13,0.13,0.13,0.13,927,927,939,924
10958,0,-0.00,0.07,0.22,-0.00,0.00,-0.00,0.13,0.00,0.00,0.00,-0.00,-0.00,0.00,0.13,0.13,0.13,0.13,927,928,940,925
10966,0,-0.00,0.07,0.22,-0.00,0.00,-0.00,0.13,0.00,0.00,0.00,-0.00,-0.00,0.00,0.13,0.13,0.13,0.13,928,927,940,925
10974,0,0.00,0.07,0.22,-0.00,0.00,-0.00,0.14,0.00,0.00,0.00,-0.00,-0.00,0.00,0.15,0.15,0.14,0.14,938,938,951,935
10990,0,0.00,0.06,0.22,-0.00,0.00,-0.00,0.15,0.00,0.00,0.00,-0.00,0.00,0.00,0.15,0.15,0.14,0.14,940,939,953,937
10998,0,0.00,0.07,0.22,-0.00,-0.00,-0.00,0.15,0.00,0.00,0.00,-0.00,0.00,0.00,0.15,0.15,0.15,0.15,944,943,956,940
11005,0,0.00,0.07,0.23,-0.00,-0.00,-0.00,0.15,0.00,0.00,0.00,-0.00,0.00,0.00,0.15,0.15,0.15,0.15,944,942,956,940
11013,0,0.00,0.07,0.23,-0.00,-0.00,-0.00,0.15,0.00,0.00,0.00,-0.00,0.00,0.00,0.16,0.15,0.15,0.15,947,945,960,943
11022,0,0.00,0.07,0.23,-0.00,-0.00,-0.00,0.16,0.00,0.00,0.00,-0.00,0.00,0.00,0.16,0.16,0.16,0.15,950,948,962,945
11032,0,0.00,0.07,0.23,-0.00,-0.00,-0.00,0.16,0.00,0.00,0.00,-0.00,0.00,0.00,0.17,0.16,0.16,0.16,955,953,967,950
11042,0,0.00,0.07,0.23,-0.00,-0.00,-0.00,0.16,0.00,0.00,0.00,-0.00,0.00,0.00,0.17,0.16,0.16,0.16,955,953,967,950
11050,0,0.00,0.07,0.23,-0.00,-0.00,-0.00,0.16,0.00,0.00,0.00,-0.00,0.00,0.00,0.17,0.16,0.16,0.16,955,953,967,950
11058,0,0.00,0.07,0.23,-0.00,-0.00,-0.00,0.19,0.00,0.00,0.00,-0.00,0.00,0.00,0.19,0.19,0.19,0.19,978,975,990,973
11065,0,0.00,0.07,0.23,-0.00,-0.00,-0.00,0.19,0.00,0.00,0.00,-0.00,0.00,0.00,0.20,0.20,0.19,0.19,981,979,994,976
11073,0,0.01,0.08,0.23,-0.00,-0.00,-0.00,0.20,0.00,0.00,0.00,-0.00,0.00,0.00,0.20,0.20,0.20,0.20,986,983,999,981
11083,0,0.01,0.08,0.23,-0.00,-0.00,-0.00,0.20,0.00,0.00,0.00,-0.00,0.00,0.00,0.21,0.20,0.20,0.20,988,985,1000,983
11092,0,0.01,0.08,0.23,-0.00,-0.00,-0.00,0.21,0.00,0.00,0.00,-0.00,0.00,0.00,0.21,0.21,0.21,0.21,992,989,1004,987
11100,0,0.01,0.08,0.23,-0.00,-0.00,-0.00,0.21,0.00,0.00,0.00,-0.00,0.00,0.00,0.21,0.21,0.21,0.21,992,989,1004,987
11108,0,0.01,0.08,0.23,-0.00,-0.00,-0.00,0.21,0.00,0.00,0.00,-0.00,0.00,0.00,0.21,0.21,0.21,0.21,992,989,1004,987
11116,0,0.01,0.08,0.23,0.00,-0.00,-0.00,0.21,0.00,0.00,0.00,-0.00,0.00,0.00,0.21,0.21,0.21,0.21,992,989,1004,987
11124,0,0.01,0.08,0.23,0.00,-0.00,-0.00,0.21,0.00,0.00,0.00,-0.00,0.00,0.00,0.21,0.21,0.21,0.21,992,989,1004,987
11133,0,0.01,0.08,0.23,0.00,-0.00,-0.00,0.21,0.00,0.00,0.00,-0.00,0.00,0.00,0.21,0.21,0.21,0.21,992,989,1004,987
11142,0,0.01,0.09,0.23,0.00,-0.00,-0.00,0.21,0.00,0.00,0.00,-0.00,0.00,0.00,0.21,0.21,0.21,0.21,992,989,1004,987
11150,0,0.02,0.09,0.23,0.00,-0.00,-0.00,0.21,0.00,0.00,0.00,-0.00,0.00,0.00,0.21,0.21,0.21,0.21,992,989,1004,987
11158,0,0.02,0.09,0.23,0.00,-0.00,-0.00,0.23,0.00,0.00,0.00,-0.00,0.00,0.00,0.23,0.23,0.23,0.22,1008,1005,1020,1003
11166,0,0.02,0.09,0.23,0.00,-0.00,-0.00,0.23,0.00,0.00,0.00,-0.00,0.00,0.00,0.23,0.23,0.23,0.22,1007,1005,1020,1003
11174,0,0.02,0.09,0.23,0.00,-0.00,-0.00,0.23,0.00,0.00,0.00,-0.00,0.00,0.00,0.23,0.23,0.23,0.22,1007,1005,1020,1003
11183,0,0.02,0.09,0.23,0.00,-0.00,0.00,0.23,0.00,0.00,0.00,-0.00,0.00,0.00,0.23,0.23,0.23,0.23,1007,1005,1020,1003
11193,0,0.02,0.09,0.23,0.00,-0.00,0.00,0.23,0.00,0.00,0.00,-0.00,0.00,0.00,0.23,0.23,0.23,0.23,1007,1005,1020,1003
11201,0,0.02,0.09,0.23,0.00,-0.00,-0.00,0.23,0.00,0.00,0.00,-0.00,0.00,0.00,0.23,0.23,0.23,0.23,1007,1005,1020,1003
11208,0,0.02,0.09,0.23,0.00,-0.00,-0.00,0.23,0.00,0.00,0.00,-0.00,0.00,0.00,0.23,0.23,0.23,0.23,1007,1005,1020,1003
11216,0,0.02,0.09,0.23,0.00,-0.00,0.00,0.23,0.00,0.00,0.00,-0.00,0.00,0.00,0.23,0.23,0.23,0.22,1007,1005,1020,1003
11224,0,0.02,0.09,0.23,0.00,-0.00,0.00,0.23,0.00,0.00,0.00,-0.00,0.00,0.00,0.23,0.23,0.23,0.22,1007,1005,1020,1003
11233,0,0.02,0.09,0.23,0.00,-0.00,0.00,0.23,0.00,0.00,0.00,-0.00,0.00,0.00,0.23,0.23,0.23,0.22,1007,1005,1020,1003
11243,0,0.02,0.09,0.23,0.00,-0.00,0.00,0.23,0.00,0.00,0.00,-0.00,0.00,0.00,0.23,0.23,0.23,0.22,1007,1005,1020,1003
11256,0,0.02,0.09,0.23,0.00,-0.00,0.00,0.23,0.00,0.00,0.00,-0.00,0.00,0.00,0.24,0.24,0.23,0.23,1013,1012,1026,1009
11264,0,0.02,0.09,0.23,0.00,-0.00,0.00,0.25,0.00,0.00,0.00,-0.00,0.00,0.00,0.25,0.25,0.25,0.25,1025,1024,1038,1021
11273,0,0.02,0.09,0.23,0.00,-0.00,0.00,0.25,0.00,0.00,0.00,-0.00,0.00,-0.00,0.25,0.25,0.25,0.25,1024,1024,1038,1021
11282,0,0.01,0.09,0.23,0.00,-0.00,0.00,0.25,0.00,0.00,0.00,-0.00,0.00,-0.00,0.25,0.25,0.25,0.25,1024,1024,1038,1021
11292,0,0.01,0.09,0.23,0.00,0.00,0.00,0.26,0.00,0.00,0.00,-0.00,0.00,-0.00,0.27,0.27,0.26,0.26,1037,1037,1051,1034
11300,0,0.01,0.09,0.23,0.00,0.00,0.00,0.27,0.00,0.00,0.00,-0.00,0.00,-0.00,0.27,0.27,0.27,0.27,1041,1041,1055,1038
11308,0,0.01,0.09,0.23,0.00,0.00,0.00,0.27,0.00,0.00,0.00,-0.00,-0.00,0.00,0.27,0.27,0.27,0.27,1041,1041,1055,1038
11315,0,0.01,0.09,0.23,-0.00,0.00,0.00,0.27,0.00,0.00,0.00,-0.00,0.00,-0.00,0.27,0.27,0.27,0.27,1041,1041,1055,1038
11324,0,0.01,0.09,0.23,-0.00,0.00,0.00,0.27,0.00,0.00,0.00,-0.00,0.00,-0.00,0.27,0.27,0.27,0.27,1041,1041,1055,1038
11333,0,0.01,0.09,0.23,-0.00,0.00,0.00,0.27,0.00,0.00,0.00,-0.00,0.00,-0.00,0.27,0.27,0.27,0.27,1041,1041,1055,1038
11343,0,0.01,0.09,0.23,-0.00,0.00,0.00,0.27,0.00,0.00,0.00,-0.00,0.00,-0.00,0.27,0.27,0.27,0.27,1041,1041,1055,1038
11351,0,0.00,0.09,0.23,-0.00,0.00,0.00,0.30,0.00,0.00,0.00,-0.00,0.00,-0.00,0.30,0.30,0.29,0.29,1063,1063,1076,1059
11359,0,0.00,0.09,0.23,-0.00,0.00,0.00,0.30,0.00,0.00,0.00,-0.00,0.00,-0.00,0.30,0.30,0.30,0.30,1064,1064,1078,1061
11366,0,0.00,0.09,0.23,-0.00,0.00,0.00,0.30,0.00,0.00,0.00,-0.00,0.00,-0.00,0.30,0.30,0.30,0.30,1064,1064,1078,1061
11374,0,0.00,0.09,0.23,-0.00,0.00,0.00,0.30,0.00,0.00,0.00,-0.00,0.00,-0.00,0.30,0.30,0.30,0.30,1064,1064,1078,1061
11383,0,0.00,0.09,0.23,-0.00,0.00,0.00,0.30,0.00,0.00,0.00,-0.00,0.00,-0.00,0.30,0.30,0.30,0.30,1064,1065,1078,1061
11393,0,0.00,0.09,0.23,-0.00,0.00,0.00,0.30,0.00,0.00,0.00,-0.00,0.00,-0.00,0.30,0.30,0.30,0.30,1064,1065,1078,1061
11401,0,0.00,0.09,0.23,-0.00,0.00,0.00,0.30,0.00,0.00,0.00,-0.00,0.00,-0.00,0.30,0.30,0.30,0.30,1064,1065,1078,1061
11409,0,-0.00,0.09,0.23,-0.00,0.00,0.00,0.30,0.00,0.00,0.00,-0.00,0.00,-0.00,0.30,0.30,0.30,0.30,1064,1065,1078,1061
11416,0,-0.00,0.09,0.23,-0.00,0.00,0.00,0.30,0.00,0.00,0.00,-0.00,0.00,-0.00,0.30,0.30,0.30,0.30,1064,1065,1078,1060
11424,0,-0.00,0.09,0.23,-0.00,0.00,0.00,0.30,0.00,0.00,0.00,-0.00,0.00,-0.00,0.30,0.30,0.30,0.30,1064,1065,1078,1060
11433,0,-0.00,0.09,0.23,-0.00,-0.00,0.00,0.30,0.00,0.00,0.00,-0.00,0.00,-0.00,0.30,0.30,0.30,0.29,1064,1064,1078,1060
11443,0,-0.00,0.09,0.23,-0.00,-0.00,0.00,0.30,0.00,0.00,0.00,-0.00,0.00,-0.00,0.30,0.30,0.30,0.29,1064,1064,1078,1060
11451,0,-0.00,0.09,0.24,-0.00,-0.00,0.00,0.30,0.00,0.00,0.00,-0.00,0.00,-0.00,0.30,0.30,0.30,0.29,1065,1064,1078,1060
11459,0,-0.00,0.09,0.24,-0.00,-0.00,0.00,0.30,0.00,0.00,0.00,-0.00,0.00,-0.00,0.30,0.30,0.30,0.29,1065,1064,1078,1060
11467,0,-0.00,0.09,0.24,-0.00,-0.00,0.00,0.30,0.00,0.00,0.00,-0.00,0.00,-0.00,0.30,0.30,0.30,0.30,1065,1064,1078,1060
