t,is_crashed,roll,pitch,yaw,p,q,r,throttle,p_cmd,q_cmd,r_cmd,roll_cmd,pitch_cmd,yaw_cmd,roll_pid_out,pitch_pid_out,yaw_pid_out,motor_fl,motor_bl,motor_fr,motor_br,pwm_fl,pwm_bl,pwm_fr,pwm_br
6964,0,0.004800,0.004800,0.000000,0.00,-0.00,-0.000002,0.006000,-0.000240,-0.000241,0.000000,0.000000,0.000000,0.000000,0.000030,-0.000000,0.000000,0.000000,0.000000,0.000000,0.000000,0,0,0,0
6975,0,0.007679,0.007679,0.000000,0.00,0.00,0.000000,0.006000,-0.000279,-0.000319,0.000000,0.000000,0.000000,0.000000,0.000201,-0.000000,0.000000,0.000000,0.000000,0.000000,0.000000,819,819,819,819
6985,0,0.009983,0.009983,0.000000,0.00,0.00,0.000006,0.006000,-0.000313,-0.000384,0.000000,0.000000,0.000000,0.000000,0.000334,-0.000000,-0.000000,0.000000,0.000000,0.000000,0.000000,819,819,819,819
6995,0,0.011826,0.011826,0.000000,0.00,0.00,0.000005,0.006000,-0.000350,-0.000441,0.000000,0.000000,0.000000,0.000000,0.000426,-0.000000,-0.000000,0.000000,0.000000,0.000000,0.000000,819,819,819,819
7005,0,0.013301,0.013301,0.000000,0.00,0.00,0.000005,0.006000,-0.000389,-0.000493,0.000000,0.000000,0.000000,0.000000,0.000486,-0.000000,-0.000000,0.000000,0.000000,0.000000,0.000000,819,819,819,819
7015,0,0.014480,0.014480,0.000000,0.00,0.00,0.000004,0.006000,-0.000428,-0.000539,0.000000,0.000000,0.000000,0.000000,0.000522,-0.000000,-0.000000,0.000000,0.000000,0.000000,0.000000,819,819,819,819
7025,0,0.015424,0.015424,0.000000,0.00,0.00,0.000006,0.006000,-0.000467,-0.000581,0.000000,0.000000,0.000000,0.000000,0.000539,-0.000000,-0.000000,0.000000,0.000000,0.000000,0.000000,819,819,819,819
7035,0,0.016179,0.016179,0.000000,0.00,0.00,0.000010,0.006000,-0.000505,-0.000619,0.000000,0.000000,0.000000,0.000000,0.000544,-0.000000,-0.000000,0.000000,0.000000,0.000000,0.000000,819,819,819,819
7045,0,0.016783,0.016783,0.000000,0.00,0.00,0.000017,0.006000,-0.000542,-0.000653,0.000000,0.000000,0.000000,0.000000,0.000539,-0.000000,-0.000000,0.000000,0.000000,0.000000,0.000000,819,819,819,819
7055,0,0.017266,0.017266,0.000000,0.00,0.00,0.000024,0.006000,-0.000576,-0.000684,0.000000,0.000000,0.000000,0.000000,0.000526,-0.000000,-0.000000,0.000000,0.000000,0.000000,0.000000,819,819,819,819
7065,0,0.017653,0.017653,0.000000,0.00,0.00,0.000022,0.006000,-0.000609,-0.000712,0.000000,0.000000,0.000000,0.000000,0.000510,-0.000000,-0.000000,0.000000,0.000000,0.000000,0.000000,819,819,819,819
7075,0,0.017962,0.017962,0.000000,0.00,0.00,0.000020,0.006000,-0.000640,-0.000737,0.000000,0.000000,0.000000,0.000000,0.000489,-0.000000,-0.000000,0.000000,0.000000,0.000000,0.000000,819,819,819,819
7085,0,0.018209,0.018209,0.000000,0.00,0.00,0.000011,0.006000,-0.000668,-0.000759,0.000000,0.000000,0.000000,0.000000,0.000468,-0.000000,-0.000000,0.000000,0.000000,0.000000,0.000000,819,819,819,819
7095,0,0.018407,0.018407,0.000000,0.00,0.00,0.000002,0.006000,-0.000694,-0.000779,0.000000,0.000000,0.000000,0.000000,0.000446,-0.000000,-0.000000,0.000000,0.000000,0.000000,0.000000,819,819,819,819
7105,0,0.018565,0.018565,0.000000,0.00,0.00,0.000002,0.006000,-0.000718,-0.000797,0.000000,0.000000,0.000000,0.000000,0.000423,-0.000000,-0.000000,0.000000,0.000000,0.000000,0.000000,819,819,819,819
7115,0,0.018692,0.018692,0.000000,0.00,0.00,0.000007,0.006000,-0.000740,-0.000814,0.000000,0.000000,0.000000,0.000000,0.000401,-0.000000,-0.000000,0.000000,0.000000,0.000000,0.000000,819,819,819,819
7125,0,0.018793,0.018793,0.000000,0.00,0.00,0.000009,0.006000,-0.000761,-0.000828,0.000000,0.000000,0.000000,0.000000,0.000379,-0.000000,-0.000000,0.000000,0.000000,0.000000,0.000000,819,819,819,819
7135,0,0.018874,0.018874,0.000000,0.00,0.00,0.000008,0.006000,-0.000779,-0.000842,0.000000,0.000000,0.000000,0.000000,0.000358,-0.000000,-0.000000,0.000000,0.000000,0.000000,0.000000,819,819,819,819
7145,0,0.018939,0.018939,0.000000,0.00,0.00,0.000009,0.006000,-0.000796,-0.000853,0.000000,0.000000,0.000000,0.000000,0.000339,-0.000000,-0.000000,0.000000,0.000000,0.000000,0.000000,819,819,819,819
7158,0,0.018991,0.018991,0.000000,0.00,0.00,0.000008,0.006000,-0.000812,-0.000864,0.000000,0.000000,0.000000,0.000000,0.000320,-0.000000,-0.000000,0.000000,0.000000,0.000000,0.000000,819,819,819,819
7172,0,0.019033,0.019033,0.000000,0.00,0.00,0.000005,0.006000,-0.000827,-0.000874,0.000000,0.000000,0.000000,0.000000,0.000302,-0.000000,-0.000000,0.000000,0.000000,0.000000,0.000000,819,819,819,819
7183,0,0.019066,0.019066,0.000000,0.00,0.00,0.000007,0.006000,-0.000840,-0.000883,0.000000,0.000000,0.000000,0.000000,0.000286,-0.000000,-0.000000,0.000000,0.000000,0.000000,0.000000,819,819,819,819
7193,0,0.019092,0.019092,0.000000,0.00,0.00,0.000008,0.006000,-0.000852,-0.000891,0.000000,0.000000,0.000000,0.000000,0.000271,-0.000000,-0.000000,0.000000,0.000000,0.000000,0.000000,819,819,819,819
7204,0,0.019114,0.019114,0.000000,0.00,0.00,0.000007,0.006000,-0.000862,-0.000898,0.000000,0.000000,0.000000,0.000000,0.000257,-0.000000,-0.000000,0.000000,0.000000,0.000000,0.000000,819,819,819,819
7216,0,0.019131,0.019131,0.000000,0.00,0.00,0.000008,0.006000,-0.000872,-0.000904,0.000000,0.000000,0.000000,0.000000,0.000244,-0.000000,-0.000000,0.000000,0.000000,0.000000,0.000000,819,819,819,819
7226,0,0.019144,0.019144,0.000000,0.00,0.00,0.000007,0.006000,-0.000880,-0.000909,0.000000,0.000000,0.000000,0.000000,0.000233,-0.000000,-0.000000,0.000000,0.000000,0.000000,0.000000,819,819,819,819
7236,0,0.019155,0.019155,0.000000,0.00,0.00,0.000007,0.006000,-0.000888,-0.000914,0.000000,0.000000,0.000000,0.000000,0.000222,-0.000000,-0.000000,0.000000,0.000000,0.000000,0.000000,819,819,819,819
7246,0,0.019164,0.019164,0.000000,0.00,0.00,0.000002,0.006000,-0.000895,-0.000919,0.000000,0.000000,0.000000,0.000000,0.000213,-0.000000,-0.000000,0.000000,0.000000,0.000000,0.000000,819,819,819,819
7256,0,0.019171,0.019171,0.000000,0.00,0.00,0.000000,0.006000,-0.000901,-0.000923,0.000000,0.000000,0.000000,0.000000,0.000204,-0.000000,-0.000000,0.000000,0.000000,0.000000,0.000000,819,819,819,819
7265,0,0.019176,0.019176,0.000000,0.00,0.00,-0.000009,0.006000,-0.000907,-0.000926,0.000000,0.000000,0.000000,0.000000,0.000197,-0.000000,0.000000,0.000000,0.000000,0.000000,0.000000,819,819,819,819
7275,0,0.019181,0.019181,0.000000,0.00,0.00,-0.000017,0.006000,-0.000912,-0.000929,0.000000,0.000000,0.000000,0.000000,0.000190,-0.000000,0.000000,0.000000,0.000000,0.000000,0.000000,819,819,819,819
7286,0,0.019184,0.019184,0.000000,0.00,0.00,-0.000026,0.006000,-0.000917,-0.000932,0.000000,0.000000,0.000000,0.000000,0.000183,-0.000000,0.000000,0.000000,0.000000,0.000000,0.000000,819,819,819,819
7296,0,0.019187,0.019187,0.000000,0.00,0.00,-0.000029,0.006000,-0.000921,-0.000935,0.000000,0.000000,0.000000,0.000000,0.000177,-0.000000,0.000000,0.000000,0.000000,0.000000,0.000000,819,819,819,819
7305,0,0.019189,0.019189,0.000000,0.00,0.00,-0.000028,0.006000,-0.000925,-0.000937,0.000000,0.000000,0.000000,0.000000,0.000172,-0.000000,0.000000,0.000000,0.000000,0.000000,0.000000,819,819,819,819
7316,0,0.019191,0.019191,0.000000,0.00,0.00,-0.000020,0.006000,-0.000928,-0.000940,0.000000,0.000000,0.000000,0.000000,0.000167,-0.000000,0.000000,0.000000,0.000000,0.000000,0.000000,819,819,819,819
7326,0,0.019193,0.019193,0.000000,0.00,0.00,-0.000016,0.006000,-0.000932,-0.000942,0.000000,0.000000,0.000000,0.000000,0.000162,-0.000000,0.000000,0.000000,0.000000,0.000000,0.000000,819,819,819,819
7336,0,0.019194,0.019194,0.000000,0.00,0.00,-0.000009,0.006000,-0.000934,-0.000944,0.000000,0.000000,0.000000,0.000000,0.000158,-0.000000,0.000000,0.000000,0.000000,0.000000,0.000000,819,819,819,819
7346,0,0.019195,0.019195,0.000000,0.00,0.00,0.000004,0.006000,-0.000937,-0.000945,0.000000,0.000000,0.000000,0.000000,0.000155,-0.000000,-0.000000,0.000000,0.000000,0.000000,0.000000,819,819,819,819
7356,0,0.019196,0.019196,0.000000,0.00,0.00,0.000006,0.006000,-0.000940,-0.000946,0.000000,0.000000,0.000000,0.000000,0.000151,-0.000000,-0.000000,0.000000,0.000000,0.000000,0.000000,819,819,819,819
7366,0,0.019196,0.019196,0.000000,0.00,0.00,0.000005,0.006000,-0.000942,-0.000948,0.000000,0.000000,0.000000,0.000000,0.000148,-0.000000,-0.000000,0.000000,0.000000,0.000000,0.000000,819,819,819,819
7376,0,0.019197,0.019197,0.000000,0.00,0.00,0.000006,0.006000,-0.000943,-0.000949,0.000000,0.000000,0.000000,0.000000,0.000145,-0.000000,-0.000000,0.000000,0.000000,0.000000,0.000000,819,819,819,819
7386,0,0.019197,0.019197,0.000000,0.00,0.00,0.000011,0.006000,-0.000945,-0.000950,0.000000,0.000000,0.000000,0.000000,0.000143,-0.000000,-0.000000,0.000000,0.000000,0.000000,0.000000,819,819,819,819
7396,0,0.019197,0.019197,0.000000,0.00,0.00,0.000012,0.006000,-0.000947,-0.000951,0.000000,0.000000,0.000000,0.000000,0.000141,-0.000000,-0.000000,0.000000,0.000000,0.000000,0.000000,819,819,819,819
7406,0,0.019198,0.019198,0.000000,0.00,0.00,0.000011,0.006000,-0.000948,-0.000952,0.000000,0.000000,0.000000,0.000000,0.000139,-0.000000,-0.000000,0.000000,0.000000,0.000000,0.000000,819,819,819,819
7416,0,0.019198,0.019198,0.000000,0.00,0.00,0.000012,0.006000,-0.000949,-0.000953,0.000000,0.000000,0.000000,0.000000,0.000137,-0.000000,-0.000000,0.000000,0.000000,0.000000,0.000000,819,819,819,819
7426,0,0.019198,0.019198,0.000000,0.00,0.00,0.000018,0.006000,-0.000950,-0.000954,0.000000,0.000000,0.000000,0.000000,0.000135,-0.000000,-0.000000,0.000000,0.000000,0.000000,0.000000,819,819,819,819
7436,0,0.019198,0.019198,0.000000,0.00,0.00,0.000016,0.006000,-0.000951,-0.000954,0.000000,0.000000,0.000000,0.000000,0.000134,-0.000000,-0.000000,0.000000,0.000000,0.000000,0.000000,819,819,819,819
7446,0,0.019198,0.019198,0.000000,0.00,0.00,0.000005,0.006000,-0.000952,-0.000955,0.000000,0.000000,0.000000,0.000000,0.000133,-0.000000,-0.000000,0.000000,0.000000,0.000000,0.000000,819,819,819,819
7456,0,0.019198,0.019198,0.000000,0.00,0.00,-0.000004,0.006000,-0.000953,-0.000955,0.000000,0.000000,0.000000,0.000000,0.000132,-0.000000,0.000000,0.000000,0.000000,0.000000,0.000000,819,819,819,819
7466,0,0.019198,0.019198,0.000000,0.00,0.00,-0.000011,0.006000,-0.000953,-0.000956,0.000000,0.000000,0.000000,0.000000,0.000131,-0.000000,0.000000,0.000000,0.000000,0.000000,0.000000,819,819,819,819
7481,0,0.019198,0.019198,0.000000,0.00,0.00,-0.000013,0.006000,-0.000954,-0.000956,0.000000,0.000000,0.000000,0.000000,0.000130,-0.000000,0.000000,0.000000,0.000000,0.000000,0.000000,819,819,819,819
7492,0,0.019198,0.019198,0.000000,0.00,0.00,-0.000021,0.006000,-0.000955,-0.000957,0.000000,0.000000,0.000000,0.000000,0.000129,-0.000000,0.000000,0.000000,0.000000,0.000000,0.000000,819,819,819,819
7503,0,0.019198,0.019198,0.000000,0.00,0.00,-0.000014,0.006000,-0.000955,-0.000958,0.000000,0.000000,0.000000,0.000000,0.000128,-0.000000,0.000000,0.000000,0.000000,0.000000,0.000000,819,819,819,819
7515,0,0.019199,0.019199,0.000000,0.00,0.00,-0.000005,0.006000,-0.000956,-0.000958,0.000000,0.000000,0.000000,0.000000,0.000127,-0.000000,0.000000,0.000000,0.000000,0.000000,0.000000,819,819,819,819
7525,0,0.019199,0.019199,0.000000,0.00,0.00,0.000000,0.006000,-0.000956,-0.000959,0.000000,0.000000,0.000000,0.000000,0.000127,-0.000000,-0.000000,0.000000,0.000000,0.000000,0.000000,819,819,819,819
7536,0,0.019199,0.019199,0.000000,0.00,0.00,0.000008,0.006000,-0.000957,-0.000959,0.000000,0.000000,0.000000,0.000000,0.000126,-0.000000,-0.000000,0.000000,0.000000,0.000000,0.000000,819,819,819,819
7546,0,0.019199,0.019199,0.000000,0.00,0.00,0.000014,0.006000,-0.000957,-0.000958,0.000000,0.000000,0.000000,0.000000,0.000126,-0.000000,-0.000000,0.000000,0.000000,0.000000,0.000000,819,819,819,819
7556,0,0.019199,0.019199,0.000000,0.00,0.00,0.000015,0.006000,-0.000957,-0.000958,0.000000,0.000000,0.000000,0.000000,0.000126,-0.000000,-0.000000,0.000000,0.000000,0.000000,0.000000,819,819,819,819
7566,0,0.019199,0.019199,0.000000,0.00,0.00,0.000013,0.006000,-0.000957,-0.000958,0.000000,0.000000,0.000000,0.000000,0.000126,-0.000000,-0.000000,0.000000,0.000000,0.000000,0.000000,819,819,819,819
7576,0,0.019199,0.019199,0.000000,0.00,0.00,0.000005,0.006000,-0.000957,-0.000958,0.000000,0.000000,0.000000,0.000000,0.000125,-0.000000,-0.000000,0.000000,0.000000,0.000000,0.000000,819,819,819,819
7586,0,0.019199,0.019199,0.000000,0.00,0.00,0.000000,0.006000,-0.000958,-0.000958,0.000000,0.000000,0.000000,0.000000,0.000125,-0.000000,-0.000000,0.000000,0.000000,0.000000,0.000000,819,819,819,819
7596,0,0.019199,0.019199,0.000000,0.00,0.00,-0.000012,0.006000,-0.000958,-0.000959,0.000000,0.000000,0.000000,0.000000,0.000124,-0.000000,0.000000,0.000000,0.000000,0.000000,0.000000,819,819,819,819
7606,0,0.019199,0.019199,0.000000,0.00,0.00,-0.000016,0.006000,-0.000959,-0.000959,0.000000,0.000000,0.000000,0.000000,0.000123,-0.000000,0.000000,0.000000,0.000000,0.000000,0.000000,819,819,819,819
7616,0,0.019199,0.019199,0.000000,0.00,0.00,-0.000020,0.006000,-0.000959,-0.000959,0.000000,0.000000,0.000000,0.000000,0.000123,-0.000000,0.000000,0.000000,0.000000,0.000000,0.000000,819,819,819,819
7626,0,0.019199,0.019199,0.000000,0.00,0.00,-0.000022,0.006000,-0.000959,-0.000959,0.000000,0.000000,0.000000,0.000000,0.000123,-0.000000,0.000000,0.000000,0.000000,0.000000,0.000000,819,819,819,819
7637,0,0.019199,0.019199,0.000000,0.00,0.00,-0.000023,0.006000,-0.000959,-0.000959,0.000000,0.000000,0.000000,0.000000,0.000123,-0.000000,0.000000,0.000000,0.000000,0.000000,0.000000,819,819,819,819
7647,0,0.019199,0.019199,0.000000,0.00,0.00,-0.000025,0.006000,-0.000959,-0.000959,0.000000,0.000000,0.000000,0.000000,0.000123,-0.000000,0.000000,0.000000,0.000000,0.000000,0.000000,819,819,819,819
7657,0,0.019199,0.019199,0.000000,0.00,0.00,-0.000030,0.006000,-0.000959,-0.000960,0.000000,0.000000,0.000000,0.000000,0.000123,-0.000000,0.000000,0.000000,0.000000,0.000000,0.000000,819,819,819,819
7666,0,0.019199,0.019199,0.000000,0.00,-0.00,-0.000027,0.006000,-0.000959,-0.000960,0.000000,0.000000,0.000000,0.000000,0.000123,-0.000000,0.000000,0.000000,0.000000,0.000000,0.000000,819,819,819,819
7677,0,0.019199,0.019199,0.000000,0.00,-0.00,-0.000021,0.006000,-0.000959,-0.000960,0.000000,0.000000,0.000000,0.000000,0.000123,-0.000000,0.000000,0.000000,0.000000,0.000000,0.000000,819,819,819,819
7687,0,0.019199,0.019199,0.000000,0.00,-0.00,-0.000019,0.006000,-0.000959,-0.000961,0.000000,0.000000,0.000000,0.000000,0.000123,-0.000000,0.000000,0.000000,0.000000,0.000000,0.000000,819,819,819,819
7697,0,0.019199,0.019199,0.000000,0.00,-0.00,-0.000015,0.006000,-0.000960,-0.000961,0.000000,0.000000,0.000000,0.000000,0.000122,-0.000000,0.000000,0.000000,0.000000,0.000000,0.000000,819,819,819,819
7707,0,0.019199,0.019199,0.000000,0.00,-0.00,-0.000014,0.006000,-0.000960,-0.000961,0.000000,0.000000,0.000000,0.000000,0.000122,-0.000000,0.000000,0.000000,0.000000,0.000000,0.000000,819,819,819,819
7717,0,0.019199,0.019199,0.000000,-0.00,-0.00,0.000000,0.006000,-0.000960,-0.000961,0.000000,0.000000,0.000000,0.000000,0.000122,-0.000000,0.000000,0.000000,0.000000,0.000000,0.000000,819,819,819,819
7727,0,0.019199,0.019199,0.000000,-0.00,-0.00,0.000002,0.006000,-0.000960,-0.000960,0.000000,0.000000,0.000000,0.000000,0.000121,-0.000000,0.000000,0.000000,0.000000,0.000000,0.000000,819,819,819,819
7737,0,0.019199,0.019199,0.000000,0.00,-0.00,-0.000005,0.006000,-0.000960,-0.000960,0.000000,0.000000,0.000000,0.000000,0.000122,-0.000000,0.000000,0.000000,0.000000,0.000000,0.000000,819,819,819,819
7747,0,0.019199,0.019199,0.000000,0.00,-0.00,-0.000010,0.006000,-0.000960,-0.000960,0.000000,0.000000,0.000000,0.000000,0.000122,-0.000000,0.000000,0.000000,0.000000,0.000000,0.000000,819,819,819,819
7757,0,0.019199,0.019199,0.000000,0.00,-0.00,-0.000018,0.006000,-0.000960,-0.000960,0.000000,0.000000,0.000000,0.000000,0.000122,-0.000000,0.000000,0.000000,0.000000,0.000000,0.000000,819,819,819,819
7767,0,0.019199,0.019199,0.000000,-0.00,-0.00,-0.000027,0.006000,-0.000960,-0.000960,0.000000,0.000000,0.000000,0.000000,0.000121,-0.000000,0.000000,0.000000,0.000000,0.000000,0.000000,819,819,819,819
7777,0,0.019199,0.019199,0.000000,-0.00,-0.00,-0.000039,0.006000,-0.000960,-0.000960,0.000000,0.000000,0.000000,0.000000,0.000121,-0.000000,0.000000,0.000000,0.000000,0.000000,0.000000,819,819,819,819
7787,0,0.019199,0.019199,0.000000,-0.00,-0.00,-0.000039,0.006000,-0.000960,-0.000960,0.000000,0.000000,0.000000,0.000000,0.000121,-0.000000,0.000000,0.000000,0.000000,0.000000,0.000000,819,819,819,819
7807,0,0.019199,0.019199,0.000000,-0.00,-0.00,-0.000032,0.006000,-0.000960,-0.000961,0.000000,0.000000,0.000000,0.000000,0.000121,-0.000000,0.000000,0.000000,0.000000,0.000000,0.000000,819,819,819,819
7817,0,0.019199,0.019199,0.000000,-0.00,-0.00,-0.000023,0.006000,-0.000960,-0.000961,0.000000,0.000000,0.000000,0.000000,0.000121,-0.000000,0.000000,0.000000,0.000000,0.000000,0.000000,819,819,819,819
7827,0,0.019199,0.019199,0.000000,-0.00,-0.00,-0.000009,0.006000,-0.000960,-0.000960,0.000000,0.000000,0.000000,0.000000,0.000121,-0.000000,0.000000,0.000000,0.000000,0.000000,0.000000,819,819,819,819
7837,0,0.019199,0.019199,0.000000,-0.00,-0.00,0.000005,0.006000,-0.000960,-0.000960,0.000000,0.000000,0.000000,0.000000,0.000121,-0.000000,0.000000,0.000000,0.000000,0.000000,0.000000,819,819,819,819
7847,0,0.019199,0.019199,0.000000,-0.00,-0.00,0.000012,0.006000,-0.000960,-0.000960,0.000000,0.000000,0.000000,0.000000,0.000122,-0.000000,0.000000,0.000000,0.000000,0.000000,0.000000,819,819,819,819
7857,0,0.019199,0.019199,0.000000,-0.00,-0.00,0.000018,0.006000,-0.000960,-0.000960,0.000000,0.000000,0.000000,0.000000,0.000122,-0.000000,0.000000,0.000000,0.000000,0.000000,0.000000,819,819,819,819
7867,0,0.019199,0.019199,0.000000,0.00,0.00,0.000034,0.006000,-0.000960,-0.000960,0.000000,0.000000,0.000000,0.000000,0.000122,-0.000000,0.000000,0.000000,0.000000,0.000000,0.000000,819,819,819,819
7878,0,0.019199,0.019199,0.000000,0.00,0.00,0.000058,0.006000,-0.000960,-0.000960,0.000000,0.000000,0.000000,0.000000,0.000122,-0.000000,0.000000,0.000000,0.000000,0.000000,0.000000,819,819,819,819
7888,0,0.019199,0.019199,0.000000,0.00,0.00,0.000062,0.006000,-0.000960,-0.000959,0.000000,0.000000,0.000000,0.000000,0.000122,-0.000000,0.000000,0.000000,0.000000,0.000000,0.000000,819,819,819,819
7897,0,0.019199,0.019199,0.000000,0.00,0.00,0.000041,0.006000,-0.000960,-0.000960,0.000000,0.000000,0.000000,0.000000,0.000122,-0.000000,0.000000,0.000000,0.000000,0.000000,0.000000,819,819,819,819
7907,0,0.019199,0.019199,0.000000,0.00,0.00,0.000003,0.006000,-0.000960,-0.000959,0.000000,0.000000,0.000000,0.000000,0.000122,-0.000000,0.000000,0.000000,0.000000,0.000000,0.000000,819,819,819,819
7917,0,0.019199,0.019199,0.000000,0.00,0.00,-0.000017,0.006000,-0.000959,-0.000960,0.000000,0.000000,0.000000,0.000000,0.000122,-0.000000,0.000000,0.000000,0.000000,0.000000,0.000000,819,819,819,819
7927,0,0.019199,0.019199,0.000000,0.00,-0.00,-0.000026,0.006000,-0.000960,-0.000960,0.000000,0.000000,0.000000,0.000000,0.000122,-0.000000,0.000000,0.000000,0.000000,0.000000,0.000000,819,819,819,819
7937,0,0.019199,0.019199,0.000000,0.00,-0.00,-0.000017,0.006000,-0.000960,-0.000960,0.000000,0.000000,0.000000,0.000000,0.000122,-0.000000,0.000000,0.000000,0.000000,0.000000,0.000000,819,819,819,819
7947,0,0.019199,0.019199,0.000000,0.00,-0.00,-0.000004,0.006000,-0.000960,-0.000960,0.000000,0.000000,0.000000,0.000000,0.000122,-0.000000,0.000000,0.000000,0.000000,0.000000,0.000000,819,819,819,819
7957,0,0.019199,0.019199,0.000000,0.00,0.00,-0.000002,0.006000,-0.000960,-0.000960,0.000000,0.000000,0.000000,0.000000,0.000122,-0.000000,0.000000,0.000000,0.000000,0.000000,0.000000,819,819,819,819
7967,0,0.019199,0.019199,0.000000,0.00,-0.00,-0.000005,0.006000,-0.000960,-0.000960,0.000000,0.000000,0.000000,0.000000,0.000122,-0.000000,0.000000,0.000000,0.000000,0.000000,0.000000,819,819,819,819
7977,0,0.019199,0.019199,0.000000,0.00,-0.00,-0.000012,0.006000,-0.000960,-0.000961,0.000000,0.000000,0.000000,0.000000,0.000122,-0.000000,0.000000,0.000000,0.000000,0.000000,0.000000,819,819,819,819
7987,0,0.019199,0.019199,0.000000,-0.00,-0.00,-0.000018,0.006000,-0.000960,-0.000961,0.000000,0.000000,0.000000,0.000000,0.000122,-0.000000,0.000000,0.000000,0.000000,0.000000,0.000000,819,819,819,819
7997,0,0.019199,0.019199,0.000000,0.00,-0.00,-0.000015,0.006000,-0.000960,-0.000960,0.000000,0.000000,0.000000,0.000000,0.000122,-0.000000,0.000000,0.000000,0.000000,0.000000,0.000000,819,819,819,819
8007,0,0.019199,0.019199,0.000000,-0.00,-0.00,-0.000011,0.006000,-0.000960,-0.000960,0.000000,0.000000,0.000000,0.000000,0.000121,-0.000000,0.000000,0.000000,0.000000,0.000000,0.000000,819,819,819,819
8017,0,0.019199,0.019199,0.000000,-0.00,-0.00,-0.000010,0.006000,-0.000960,-0.000960,0.000000,0.000000,0.000000,0.000000,0.000121,-0.000000,0.000000,0.000000,0.000000,0.000000,0.000000,819,819,819,819
8027,0,0.019199,0.019199,0.000000,-0.00,-0.00,-0.000008,0.006000,-0.000960,-0.000960,0.000000,0.000000,0.000000,0.000000,0.000121,-0.000000,0.000000,0.000000,0.000000,0.000000,0.000000,819,819,819,819
8038,0,0.019199,0.019199,0.000000,-0.00,-0.00,-0.000012,0.006000,-0.000960,-0.000960,0.000000,0.000000,0.000000,0.000000,0.000122,-0.000000,0.000000,0.000000,0.000000,0.000000,0.000000,819,819,819,819
8048,0,0.019199,0.019199,0.000000,0.00,-0.00,-0.000018,0.006000,-0.000960,-0.000960,0.000000,0.000000,0.000000,0.000000,0.000122,-0.000000,0.000000,0.000000,0.000000,0.000000,0.000000,819,819,819,819
8058,0,0.019199,0.019199,0.000000,0.00,0.00,-0.000022,0.006000,-0.000960,-0.000960,0.000000,0.000000,0.000000,0.000000,0.000122,-0.000000,0.000000,0.000000,0.000000,0.000000,0.000000,819,819,819,819
8068,0,0.019199,0.019199,0.000000,-0.00,0.00,-0.000022,0.006000,-0.000960,-0.000960,0.000000,0.000000,0.000000,0.000000,0.000122,-0.000000,0.000000,0.000000,0.000000,0.000000,0.000000,819,819,819,819
8078,0,0.019199,0.019199,0.000000,-0.00,-0.00,-0.000022,0.006000,-0.000960,-0.000960,0.000000,0.000000,0.000000,0.000000,0.000121,-0.000000,0.000000,0.000000,0.000000,0.000000,0.000000,819,819,819,819
8088,0,0.019199,0.019199,0.000000,-0.00,-0.00,-0.000021,0.006000,-0.000960,-0.000961,0.000000,0.000000,0.000000,0.000000,0.000121,-0.000000,0.000000,0.000000,0.000000,0.000000,0.000000,819,819,819,819
8098,0,0.019199,0.019199,0.000000,-0.00,-0.00,-0.000030,0.006000,-0.000961,-0.000961,0.000000,0.000000,0.000000,0.000000,0.000121,-0.000000,0.000000,0.000000,0.000000,0.000000,0.000000,819,819,819,819
8114,0,0.019199,0.019199,0.000000,-0.00,-0.00,-0.000040,0.006000,-0.000961,-0.000961,0.000000,0.000000,0.000000,0.000000,0.000121,-0.000000,0.000000,0.000000,0.000000,0.000000,0.000000,819,819,819,819
8126,0,0.019199,0.019199,0.000000,-0.00,-0.00,-0.000047,0.006000,-0.000961,-0.000961,0.000000,0.000000,0.000000,0.000000,0.000121,-0.000000,0.000000,0.000000,0.000000,0.000000,0.000000,819,819,819,819
8138,0,0.019199,0.019199,0.000000,-0.00,-0.00,-0.000052,0.007000,-0.000960,-0.000961,0.000000,0.000000,0.000000,0.000000,0.000121,-0.000000,0.000000,0.000000,0.000000,0.000000,0.000000,819,819,819,819
8148,0,0.019199,0.019199,0.000000,-0.00,-0.00,-0.000052,0.007000,-0.000960,-0.000961,0.000000,0.000000,0.000000,0.000000,0.000121,-0.000000,0.000000,0.000000,0.000000,0.000000,0.000000,819,819,819,819
8158,0,0.019199,0.019199,0.000000,-0.00,-0.00,-0.000049,0.008000,-0.000960,-0.000961,0.000000,0.000000,0.000000,0.000000,0.000121,-0.000000,0.000000,0.000000,0.000000,0.000000,0.000000,819,819,819,819
8168,0,0.019199,0.019199,0.000000,-0.00,-0.00,-0.000042,0.008000,-0.000960,-0.000961,0.000000,0.000000,0.000000,0.000000,0.000121,-0.000000,0.000000,0.000000,0.000000,0.000000,0.000000,819,819,819,819
8178,0,0.019199,0.019199,0.000000,-0.00,-0.00,-0.000033,0.008000,-0.000960,-0.000961,0.000000,0.000000,0.000000,0.000000,0.000121,-0.000000,0.000000,0.000000,0.000000,0.000000,0.000000,819,819,819,819
8188,0,0.019199,0.019199,0.000000,-0.00,-0.00,-0.000024,0.008000,-0.000960,-0.000961,0.000000,0.000000,0.000000,0.000000,0.000121,-0.000000,0.000000,0.000000,0.000000,0.000000,0.000000,819,819,819,819
8198,0,0.019199,0.019199,0.000000,-0.00,-0.00,-0.000015,0.008000,-0.000960,-0.000961,0.000000,0.000000,0.000000,0.000000,0.000121,-0.000000,0.000000,0.000000,0.000000,0.000000,0.000000,819,819,819,819
8208,0,0.019199,0.019199,0.000000,-0.00,-0.00,-0.000003,0.008000,-0.000960,-0.000961,0.000000,0.000000,0.000000,0.000000,0.000121,-0.000000,0.000000,0.000000,0.000000,0.000000,0.000000,819,819,819,819
8218,0,0.019199,0.019199,0.000000,-0.00,-0.00,0.000010,0.008000,-0.000960,-0.000961,0.000000,0.000000,0.000000,0.000000,0.000121,-0.000000,0.000000,0.000000,0.000000,0.000000,0.000000,819,819,819,819
8228,0,0.019199,0.019199,0.000000,-0.00,-0.00,0.000029,0.009000,-0.000960,-0.000961,0.000000,0.000000,0.000000,0.000000,0.000121,-0.000000,0.000000,0.000000,0.000000,0.000000,0.000000,819,819,819,819
8238,0,0.019199,0.019199,0.000000,-0.00,-0.00,0.000048,0.009000,-0.000961,-0.000961,0.000000,0.000000,0.000000,0.000000,0.000121,-0.000000,0.000000,0.000000,0.000000,0.000000,0.000000,819,819,819,819
8248,0,0.019199,0.019199,0.000000,-0.00,-0.00,0.000067,0.009000,-0.000961,-0.000961,0.000000,0.000000,0.000000,0.000000,0.000121,-0.000000,0.000000,0.000000,0.000000,0.000000,0.000000,819,819,819,819
8258,0,0.019199,0.019199,0.000000,-0.00,-0.00,0.000079,0.009000,-0.000961,-0.000961,0.000000,0.000000,0.000000,0.000000,0.000121,-0.000000,0.000000,0.000000,0.000000,0.000000,0.000000,819,819,819,819
8268,0,0.019199,0.019199,0.000000,-0.00,-0.00,0.000086,0.009000,-0.000961,-0.000961,0.000000,0.000000,0.000000,0.000000,0.000120,-0.000000,0.000000,0.000000,0.000000,0.000000,0.000000,819,819,819,819
8278,0,0.019199,0.019199,0.000000,-0.00,-0.00,0.000087,0.009000,-0.000961,-0.000961,0.000000,0.000000,0.000000,0.000000,0.000120,-0.000000,0.000000,0.000000,0.000000,0.000000,0.000000,819,819,819,819
8288,0,0.019199,0.019199,0.000000,-0.00,-0.00,0.000078,0.010000,-0.000961,-0.000961,0.000000,0.000000,0.000000,0.000000,0.000120,-0.000000,0.000000,0.000000,0.000000,0.000000,0.000000,819,819,819,819
8298,0,0.019199,0.019199,0.000000,-0.00,-0.00,0.000066,0.009000,-0.000961,-0.000961,0.000000,0.000000,0.000000,0.000000,0.000120,-0.000000,0.000000,0.000000,0.000000,0.000000,0.000000,819,819,819,819
8308,0,0.019199,0.019199,0.000000,-0.00,-0.00,0.000054,0.009000,-0.000961,-0.000961,0.000000,0.000000,0.000000,0.000000,0.000120,-0.000000,0.000000,0.000000,0.000000,0.000000,0.000000,819,819,819,819
8318,0,0.019199,0.019199,0.000000,-0.00,-0.00,0.000047,0.009000,-0.000961,-0.000961,0.000000,0.000000,0.000000,0.000000,0.000120,-0.000000,0.000000,0.000000,0.000000,0.000000,0.000000,819,819,819,819
8328,0,0.019199,0.019199,0.000000,-0.00,-0.00,0.000043,0.010000,-0.000961,-0.000961,0.000000,0.000000,0.000000,0.000000,0.000120,-0.000000,-0.000000,0.000000,0.000000,0.000000,0.000000,819,819,819,819
8339,0,0.019199,0.019199,0.000000,-0.00,-0.00,0.000044,0.009000,-0.000961,-0.000961,0.000000,0.000000,0.000000,0.000000,0.000120,-0.000000,-0.000000,0.000000,0.000000,0.000000,0.000000,819,819,819,819
8348,0,0.019199,0.019199,0.000000,-0.00,-0.00,0.000043,0.009000,-0.000961,-0.000961,0.000000,0.000000,0.000000,0.000000,0.000120,-0.000000,-0.000000,0.000000,0.000000,0.000000,0.000000,819,819,819,819
8359,0,0.019199,0.019199,0.000000,-0.00,-0.00,0.000043,0.009000,-0.000962,-0.000961,0.000000,0.000000,0.000000,0.000000,0.000120,-0.000000,-0.000000,0.000000,0.000000,0.000000,0.000000,819,819,819,819
8369,0,0.019199,0.019199,0.000000,-0.00,-0.00,0.000044,0.009000,-0.000962,-0.000961,0.000000,0.000000,0.000000,0.000000,0.000119,-0.000000,-0.000000,0.000000,0.000000,0.000000,0.000000,819,819,819,819
8379,0,0.019199,0.019199,0.000000,-0.00,-0.00,0.000040,0.009000,-0.000962,-0.000961,0.000000,0.000000,0.000000,0.000000,0.000119,-0.000000,-0.000000,0.000000,0.000000,0.000000,0.000000,819,819,819,819
8389,0,0.019199,0.019199,0.000000,-0.00,-0.00,0.000038,0.010000,-0.000962,-0.000961,0.000000,0.000000,0.000000,0.000000,0.000119,-0.000000,-0.000000,0.000000,0.000000,0.000000,0.000000,819,819,819,819
8399,0,0.019199,0.019199,0.000000,-0.00,-0.00,0.000036,0.010000,-0.000961,-0.000961,0.000000,0.000000,0.000000,0.000000,0.000120,-0.000000,-0.000000,0.000000,0.000000,0.000000,0.000000,819,819,819,819
8409,0,0.019199,0.019199,0.000000,-0.00,-0.00,0.000038,0.010000,-0.000961,-0.000961,0.000000,0.000000,0.000000,0.000000,0.000120,-0.000000,-0.000000,0.000000,0.000000,0.000000,0.000000,819,819,819,819
8418,0,0.019199,0.019199,0.000000,-0.00,-0.00,0.000031,0.010000,-0.000961,-0.000961,0.000000,0.000000,0.000000,0.000000,0.000120,-0.000000,-0.000000,0.000000,0.000000,0.000000,0.000000,819,819,819,819
8435,0,0.019199,0.019199,0.000000,-0.00,-0.00,0.000023,0.010000,-0.000961,-0.000961,0.000000,0.000000,0.000000,0.000000,0.000120,-0.000000,-0.000000,0.000000,0.000000,0.000000,0.000000,819,819,819,819
8445,0,0.019199,0.019199,0.000000,-0.00,-0.00,0.000010,0.010000,-0.000961,-0.000961,0.000000,0.000000,0.000000,0.000000,0.000120,-0.000000,-0.000000,0.000000,0.000000,0.000000,0.000000,819,819,819,819
8457,0,0.019199,0.019199,0.000000,-0.00,-0.00,-0.000004,0.010000,-0.000961,-0.000961,0.000000,0.000000,0.000000,0.000000,0.000120,-0.000000,0.000000,0.000000,0.000000,0.000000,0.000000,819,819,819,819
8468,0,0.019199,0.019199,0.000000,-0.00,-0.00,-0.000016,0.010000,-0.000961,-0.000961,0.000000,0.000000,0.000000,0.000000,0.000121,-0.000000,0.000000,0.000000,0.000000,0.000000,0.000000,819,819,819,819
8478,0,0.019199,0.019199,0.000000,-0.00,-0.00,-0.000018,0.010000,-0.000961,-0.000960,0.000000,0.000000,0.000000,0.000000,0.000121,-0.000000,0.000000,0.000000,0.000000,0.000000,0.000000,819,819,819,819
8489,0,0.019199,0.019199,0.000000,-0.00,-0.00,-0.000009,0.010000,-0.000961,-0.000960,0.000000,0.000000,0.000000,0.000000,0.000121,-0.000000,0.000000,0.000000,0.000000,0.000000,0.000000,819,819,819,819
8499,0,0.019199,0.019199,0.000000,-0.00,-0.00,0.000002,0.010000,-0.000961,-0.000960,0.000000,0.000000,0.000000,0.000000,0.000121,-0.000000,-0.000000,0.000000,0.000000,0.000000,0.000000,819,819,819,819
8509,0,0.019199,0.019199,0.000000,-0.00,-0.00,0.000015,0.010000,-0.000961,-0.000960,0.000000,0.000000,0.000000,0.000000,0.000121,-0.000000,-0.000000,0.000000,0.000000,0.000000,0.000000,819,819,819,819
8519,0,0.019199,0.019199,0.000000,-0.00,-0.00,0.000019,0.010000,-0.000961,-0.000960,0.000000,0.000000,0.000000,0.000000,0.000121,-0.000000,-0.000000,0.000000,0.000000,0.000000,0.000000,819,819,819,819
8529,0,0.019199,0.019199,0.000000,-0.00,-0.00,0.000017,0.010000,-0.000961,-0.000960,0.000000,0.000000,0.000000,0.000000,0.000121,-0.000000,-0.000000,0.000000,0.000000,0.000000,0.000000,819,819,819,819
8539,0,0.019199,0.019199,0.000000,-0.00,-0.00,0.000014,0.010000,-0.000961,-0.000960,0.000000,0.000000,0.000000,0.000000,0.000121,-0.000000,-0.000000,0.000000,0.000000,0.000000,0.000000,819,819,819,819
8549,0,0.019199,0.019199,0.000000,-0.00,-0.00,0.000014,0.010000,-0.000960,-0.000960,0.000000,0.000000,0.000000,0.000000,0.000121,-0.000000,-0.000000,0.000000,0.000000,0.000000,0.000000,819,819,819,819
8559,0,0.019199,0.019199,0.000000,-0.00,-0.00,0.000016,0.032000,-0.000960,-0.000960,0.000000,0.000000,0.000000,0.000000,0.000122,-0.000000,-0.000000,0.031878,0.031878,0.032122,0.032122,845,865,845,865
8569,0,0.019199,0.019199,0.000000,0.00,0.00,0.000022,0.043000,-0.000960,-0.000960,0.000000,0.000000,0.000000,0.000000,0.000122,-0.000000,-0.000000,0.042878,0.042878,0.043122,0.043122,854,874,854,874
8579,0,0.019199,0.019199,0.000000,-0.00,-0.00,0.000029,0.043000,-0.000960,-0.000960,0.000000,0.000000,0.000000,0.000000,0.000122,-0.000000,-0.000000,0.042878,0.042878,0.043122,0.043122,854,874,854,874
8589,0,0.019199,0.019199,0.000000,-0.00,-0.00,0.000032,0.065000,-0.000960,-0.000961,0.000000,0.000000,0.000000,0.000000,0.000122,-0.000000,-0.000000,0.064878,0.064878,0.065122,0.065122,872,892,872,892
8599,0,0.019199,0.019199,0.000000,-0.00,-0.00,0.000030,0.069000,-0.000960,-0.000961,0.000000,0.000000,0.000000,0.000000,0.000122,-0.000000,-0.000000,0.068878,0.068878,0.069122,0.069122,875,896,875,896
8609,0,0.019199,0.019199,0.000000,-0.00,-0.00,0.000028,0.069000,-0.000960,-0.000961,0.000000,0.000000,0.000000,0.000000,0.000122,-0.000000,-0.000000,0.068878,0.068878,0.069122,0.069122,875,896,875,896
8619,0,0.019199,0.019199,0.000000,-0.00,-0.00,0.000023,0.074000,-0.000960,-0.000961,0.000000,0.000000,0.000000,0.000000,0.000121,-0.000000,-0.000000,0.073879,0.073879,0.074121,0.074121,879,900,879,900
8631,0,0.019199,0.019199,0.000000,-0.00,-0.00,0.000019,0.087000,-0.000960,-0.000962,0.000000,0.000000,0.000000,0.000000,0.000122,-0.000000,-0.000000,0.086878,0.086878,0.087121,0.087121,890,910,890,910
8640,0,0.018980,0.019199,0.000000,-0.00,-0.00,0.000001,0.087000,-0.000959,-0.000962,0.000000,0.000000,0.000000,0.000000,0.000106,-0.000000,-0.000000,0.086894,0.086894,0.087106,0.087106,890,910,890,910
8653,0,0.018806,0.019199,0.000000,-0.00,-0.00,0.000008,0.092000,-0.000954,-0.000962,0.000000,0.000000,0.000000,0.000000,0.000099,-0.000000,-0.000000,0.091901,0.091901,0.092099,0.092099,894,914,894,915
8662,0,0.018666,0.019199,0.000000,-0.00,-0.00,0.000007,0.092000,-0.000953,-0.000961,0.000000,0.000000,0.000000,0.000000,0.000090,-0.000000,-0.000000,0.091910,0.091910,0.092090,0.092090,894,914,894,915
8671,0,0.018555,0.019199,0.000000,-0.00,-0.00,0.000025,0.092000,-0.000951,-0.000962,0.000000,0.000000,0.000000,0.000000,0.000084,-0.000000,-0.000000,0.091916,0.091916,0.092084,0.092084,894,914,894,915
8681,0,0.018465,0.019199,0.000000,-0.00,-0.00,0.000039,0.098000,-0.000948,-0.000962,0.000000,0.000000,0.000000,0.000000,0.000081,-0.000000,-0.000000,0.097919,0.097919,0.098081,0.098081,899,919,899,919
8690,0,0.018394,0.019199,0.000000,-0.00,-0.00,0.000051,0.098000,-0.000945,-0.000962,0.000000,0.000000,0.000000,0.000000,0.000080,-0.000000,-0.000000,0.097920,0.097920,0.098080,0.098080,899,919,899,919
8700,0,0.018337,0.019199,0.000000,-0.00,-0.00,0.000055,0.098000,-0.000942,-0.000962,0.000000,0.000000,0.000000,0.000000,0.000080,-0.000000,-0.000000,0.097920,0.097920,0.098080,0.098080,899,919,899,919
8710,0,0.018291,0.019199,0.000000,-0.00,-0.00,0.000039,0.098000,-0.000939,-0.000962,0.000000,0.000000,0.000000,0.000000,0.000080,-0.000000,-0.000000,0.097920,0.097920,0.098080,0.098080,899,919,899,919
8720,0,0.018254,0.019199,0.000000,-0.00,-0.00,0.000021,0.100000,-0.000937,-0.000961,0.000000,0.000000,0.000000,0.000000,0.000081,-0.000000,-0.000000,0.099919,0.099919,0.100081,0.100081,900,921,901,921
8730,0,0.018225,0.019199,0.000000,-0.00,-0.00,-0.000010,0.100000,-0.000934,-0.000961,0.000000,0.000000,0.000000,0.000000,0.000083,-0.000000,0.000000,0.099917,0.099917,0.100083,0.100083,900,921,901,921
8745,0,0.018201,0.019199,0.000000,-0.00,-0.00,-0.000025,0.100000,-0.000930,-0.000961,0.000000,0.000000,0.000000,0.000000,0.000086,-0.000000,0.000000,0.099914,0.099914,0.100086,0.100086,900,921,901,921
8757,0,0.018183,0.019199,0.000000,-0.00,0.00,-0.000043,0.100000,-0.000927,-0.000960,0.000000,0.000000,0.000000,0.000000,0.000090,-0.000000,0.000000,0.099910,0.099910,0.100090,0.100090,900,921,901,921
8768,0,0.018168,0.019199,0.000000,-0.00,0.00,-0.000058,0.100000,-0.000924,-0.000959,0.000000,0.000000,0.000000,0.000000,0.000092,-0.000000,0.000000,0.099908,0.099908,0.100092,0.100092,900,921,901,921
8779,0,0.018374,0.019199,0.000000,-0.00,0.00,-0.000076,0.100000,-0.000925,-0.000959,0.000000,0.000000,0.000000,0.000000,0.000108,-0.000000,0.000000,0.099892,0.099892,0.100108,0.100108,900,921,901,921
8790,0,0.018539,0.019199,0.000000,0.00,0.00,-0.000098,0.100000,-0.000926,-0.000959,0.000000,0.000000,0.000000,0.000000,0.000120,-0.000000,0.000000,0.099880,0.099880,0.100120,0.100120,900,921,901,921
8800,0,0.018671,0.019199,0.000000,0.00,0.00,-0.000116,0.100000,-0.000925,-0.000959,0.000000,0.000000,0.000000,0.000000,0.000130,-0.000000,0.000000,0.099870,0.099870,0.100130,0.100130,900,921,901,921
8810,0,0.018776,0.019199,0.000000,0.00,0.00,-0.000118,0.100000,-0.000925,-0.000959,0.000000,0.000000,0.000000,0.000000,0.000139,-0.000000,0.000000,0.099861,0.099861,0.100139,0.100139,900,921,901,921
8820,0,0.018861,0.019199,0.000000,0.00,0.00,-0.000112,0.100000,-0.000925,-0.000959,0.000000,0.000000,0.000000,0.000000,0.000146,-0.000000,0.000000,0.099854,0.099854,0.100146,0.100146,900,921,901,921
8830,0,0.018928,0.019199,0.000000,0.00,0.00,-0.000101,0.100000,-0.000925,-0.000959,0.000000,0.000000,0.000000,0.000000,0.000151,-0.000000,0.000000,0.099849,0.099849,0.100151,0.100151,900,921,901,921
8840,0,0.018982,0.019199,0.000000,0.00,0.00,-0.000070,0.100000,-0.000924,-0.000958,0.000000,0.000000,0.000000,0.000000,0.000157,-0.000000,0.000000,0.099843,0.099843,0.100157,0.100157,900,921,901,921
8849,0,0.019026,0.019199,0.000000,0.00,0.00,-0.000042,0.100000,-0.000923,-0.000957,0.000000,0.000000,0.000000,0.000000,0.000161,-0.000000,0.000000,0.099839,0.099839,0.100161,0.100161,900,921,901,921
8860,0,0.019060,0.019199,1.256419,0.00,0.00,-0.000045,0.100000,-0.000919,-0.000956,0.000000,0.000000,0.000000,0.000000,0.000170,-0.000000,0.000000,0.099830,0.099830,0.100170,0.100170,900,921,901,921
8870,0,0.019088,0.019199,2.261554,0.00,0.00,-0.000120,0.100000,-0.000918,-0.000954,0.000000,0.000000,0.000000,0.000000,0.000174,-0.000000,0.000000,0.099826,0.099826,0.100174,0.100174,900,921,901,921
8880,0,0.019110,0.019199,3.065444,0.00,0.00,-0.000261,0.100000,-0.000920,-0.000953,0.000000,0.000000,0.000000,0.000000,0.000172,-0.000000,0.000000,0.099828,0.099828,0.100172,0.100172,900,921,901,921
8890,0,0.019346,0.018980,-2.574629,0.00,0.00,-0.000377,0.100000,-0.000926,-0.000947,0.000000,0.000000,0.000000,0.000000,0.000182,-0.000000,0.000000,0.099818,0.099818,0.100182,0.100182,900,921,901,921
8900,0,0.019753,0.018806,-2.060139,0.00,-0.00,-0.000414,0.100000,-0.000936,-0.000943,0.000000,0.000000,0.000000,0.000000,0.000201,-0.000000,0.000000,0.099799,0.099799,0.100201,0.100201,900,921,901,921
8910,0,0.020078,0.018666,-1.648548,0.00,-0.00,-0.000362,0.100000,-0.000945,-0.000940,0.000000,0.000000,0.000000,0.000000,0.000213,-0.000000,0.000000,0.099787,0.099787,0.100213,0.100213,900,921,901,921
8920,0,0.020339,0.018555,-1.319275,0.00,-0.00,-0.000275,0.101000,-0.000954,-0.000938,0.000000,0.000000,0.000000,0.000000,0.000221,-0.000000,0.000000,0.100779,0.100779,0.101221,0.101221,901,922,902,922
8930,0,0.020547,0.018465,-1.055856,0.00,-0.00,-0.000205,0.101000,-0.000962,-0.000935,0.000000,0.000000,0.000000,0.000000,0.000225,-0.000000,0.000000,0.100775,0.100775,0.101225,0.101225,901,922,902,922
8940,0,0.020714,0.018394,-0.845121,0.00,-0.00,-0.000164,0.101000,-0.000972,-0.000931,0.000000,0.000000,0.000000,0.000000,0.000224,-0.000000,0.000000,0.100776,0.100776,0.101224,0.101224,901,922,902,922
8950,0,0.020629,0.018337,-0.676533,0.00,-0.00,-0.000125,0.101000,-0.000978,-0.000927,0.000000,0.000000,0.000000,0.000000,0.000208,-0.000000,0.000000,0.100792,0.100792,0.101208,0.101208,901,922,902,922
8960,0,0.020561,0.018291,-0.541663,0.00,-0.00,-0.000099,0.102000,-0.000984,-0.000924,0.000000,0.000000,0.000000,0.000000,0.000195,-0.000000,0.000000,0.101805,0.101805,0.102195,0.102195,902,923,902,923
8970,0,0.020507,0.018254,-0.433767,0.00,-0.00,-0.000084,0.103000,-0.000988,-0.000921,0.000000,0.000000,0.000000,0.000000,0.000184,-0.000000,0.000000,0.102816,0.102816,0.103184,0.103184,903,923,903,924
8980,0,0.020463,0.018225,-0.347449,0.00,-0.00,-0.000074,0.103000,-0.000993,-0.000918,0.000000,0.000000,0.000000,0.000000,0.000173,-0.000000,0.000000,0.102827,0.102827,0.103173,0.103173,903,923,903,924
8991,0,0.020428,0.018201,-0.278396,0.00,-0.00,-0.000054,0.104000,-0.000998,-0.000914,0.000000,0.000000,0.000000,0.000000,0.000163,-0.000000,0.000000,0.103837,0.103837,0.104163,0.104163,904,924,904,924
9000,0,0.020401,0.018183,-0.223153,0.00,-0.00,-0.000027,0.104000,-0.001003,-0.000912,0.000000,0.000000,0.000000,0.000000,0.000154,-0.000000,0.000000,0.103846,0.103846,0.104154,0.104154,904,924,904,924
9010,0,0.020378,0.017950,-0.178740,0.00,-0.00,-0.000005,0.104000,-0.001008,-0.000906,0.000000,0.000000,0.000000,0.000000,0.000145,-0.000000,0.000000,0.103855,0.103855,0.104145,0.104145,904,924,904,924
9020,0,0.020361,0.017763,-0.143210,0.00,-0.00,0.000057,0.106000,-0.001014,-0.000900,0.000000,0.000000,0.000000,0.000000,0.000135,-0.000000,0.000000,0.105865,0.105865,0.106135,0.106135,905,926,906,926
9031,0,0.020346,0.017614,-0.114787,-0.00,-0.00,0.000138,0.106000,-0.001019,-0.000895,0.000000,0.000000,0.000000,0.000000,0.000126,-0.000000,0.000000,0.105874,0.105874,0.106126,0.106126,905,926,906,926
9041,0,0.020117,0.017494,-1.348466,-0.00,-0.00,0.000219,0.106000,-0.001023,-0.000892,0.000000,0.000000,0.000000,0.000000,0.000103,-0.000000,0.000000,0.105897,0.105897,0.106103,0.106103,905,926,906,926
9050,0,0.019933,0.017617,-2.335410,-0.00,-0.00,0.000265,0.109000,-0.001027,-0.000893,0.000000,0.000000,0.000000,0.000000,0.000083,-0.000000,0.000000,0.108917,0.108917,0.109083,0.109083,908,928,908,928
9068,0,0.019568,0.017497,-3.124747,-0.00,-0.00,0.000280,0.110000,-0.001020,-0.000887,0.000000,0.000000,0.000000,0.000000,0.000064,-0.000000,0.000000,0.109935,0.109935,0.110064,0.110064,909,929,909,929
9079,0,0.019276,0.017401,2.526969,-0.00,-0.00,0.000221,0.111000,-0.001016,-0.000882,0.000000,0.000000,0.000000,0.000000,0.000047,-0.000000,0.000000,0.110953,0.110953,0.111047,0.111047,910,930,910,930
9091,0,0.019261,0.017324,2.021793,-0.00,-0.00,0.000160,0.111000,-0.001012,-0.000878,0.000000,0.000000,0.000000,0.000000,0.000051,-0.000000,0.000000,0.110949,0.110949,0.111051,0.111051,910,930,910,930
9101,0,0.019248,0.017263,1.617871,-0.00,-0.00,0.000143,0.121000,-0.001009,-0.000875,0.000000,0.000000,0.000000,0.000000,0.000054,-0.000000,0.000000,0.120946,0.120946,0.121054,0.121054,918,938,918,938
9111,0,0.019238,0.017214,1.294733,-0.00,-0.00,0.000153,0.121000,-0.001007,-0.000871,0.000000,0.000000,0.000000,0.000000,0.000057,-0.000000,0.000000,0.120943,0.120943,0.121057,0.121057,918,938,918,938
9121,0,0.019230,0.017174,1.036223,-0.00,-0.00,0.000182,0.127000,-0.001004,-0.000869,0.000000,0.000000,0.000000,0.000000,0.000060,-0.000000,0.000000,0.126940,0.126940,0.127060,0.127060,923,943,923,943
9131,0,0.019224,0.017143,0.829415,-0.00,-0.00,0.000219,0.130000,-0.001002,-0.000867,0.000000,0.000000,0.000000,0.000000,0.000063,-0.000000,0.000000,0.129937,0.129937,0.130063,0.130063,925,946,925,946
9141,0,0.019001,0.017118,0.663968,-0.00,-0.00,0.000247,0.130000,-0.000997,-0.000864,0.000000,0.000000,0.000000,0.000000,0.000053,-0.000000,0.000000,0.129947,0.129947,0.130053,0.130053,925,946,925,946
9151,0,0.018822,0.017098,0.531611,-0.00,-0.00,0.000285,0.132000,-0.000992,-0.000864,0.000000,0.000000,0.000000,0.000000,0.000046,-0.000000,0.000000,0.131954,0.131954,0.132046,0.132046,927,947,927,947
9161,0,0.018679,0.017081,0.425725,-0.00,-0.00,0.000274,0.132000,-0.000987,-0.000863,0.000000,0.000000,0.000000,0.000000,0.000043,-0.000000,-0.000000,0.131957,0.131957,0.132043,0.132043,927,947,927,947
9171,0,0.018565,0.017069,0.341016,-0.00,-0.00,0.000261,0.132000,-0.000981,-0.000862,0.000000,0.000000,0.000000,0.000000,0.000041,-0.000000,-0.000000,0.131959,0.131959,0.132041,0.132041,927,947,927,947
9181,0,0.018474,0.017058,0.273249,-0.00,-0.00,0.000247,0.132000,-0.000978,-0.000859,0.000000,0.000000,0.000000,0.000000,0.000039,-0.000000,-0.000000,0.131961,0.131961,0.132039,0.132039,927,947,927,947
9191,0,0.018400,0.017050,0.219036,-0.00,-0.00,0.000238,0.134000,-0.000974,-0.000857,0.000000,0.000000,0.000000,0.000000,0.000039,-0.000000,-0.000000,0.133961,0.133961,0.134039,0.134039,928,949,928,949
9201,0,0.018342,0.017043,0.175883,-0.00,-0.00,0.000221,0.134000,-0.000970,-0.000856,0.000000,0.000000,0.000000,0.000000,0.000040,-0.000000,-0.000000,0.133960,0.133960,0.134040,0.134040,928,949,928,949
9211,0,0.018295,0.017038,0.141361,-0.00,-0.00,0.000220,0.134000,-0.000966,-0.000855,0.000000,0.000000,0.000000,0.000000,0.000042,-0.000000,-0.000000,0.133958,0.133958,0.134042,0.134042,928,949,928,949
9221,0,0.018258,0.017034,0.113743,-0.00,-0.00,0.000181,0.135000,-0.000962,-0.000853,0.000000,0.000000,0.000000,0.000000,0.000045,-0.000000,-0.000000,0.134955,0.134955,0.135045,0.135045,929,950,929,950
9231,0,0.018228,0.017030,0.091649,-0.00,0.00,0.000182,0.135000,-0.000959,-0.000851,0.000000,0.000000,0.000000,0.000000,0.000047,-0.000000,-0.000000,0.134953,0.134953,0.135047,0.135047,929,950,929,950
9241,0,0.018204,0.017028,0.073974,-0.00,0.00,0.000179,0.135000,-0.000955,-0.000849,0.000000,0.000000,0.000000,0.000000,0.000050,-0.000000,-0.000000,0.134950,0.134950,0.135050,0.135050,929,950,929,950
9251,0,0.018184,0.016807,0.059834,-0.00,-0.00,0.000155,0.135000,-0.000951,-0.000842,0.000000,0.000000,0.000000,0.000000,0.000055,-0.000000,-0.000000,0.134945,0.134945,0.135055,0.135055,929,950,929,950
9261,0,0.018169,0.016631,0.048521,-0.00,-0.00,0.000104,0.135000,-0.000947,-0.000836,0.000000,0.000000,0.000000,0.000000,0.000059,-0.000000,-0.000000,0.134941,0.134941,0.135059,0.135059,929,950,929,950
9271,0,0.018157,0.016490,0.039472,-0.00,-0.00,0.000107,0.135000,-0.000944,-0.000832,0.000000,0.000000,0.000000,0.000000,0.000063,-0.000000,-0.000000,0.134937,0.134937,0.135063,0.135063,929,950,929,950
9281,0,0.018147,0.016377,0.032232,-0.00,-0.00,0.000102,0.135000,-0.000942,-0.000830,0.000000,0.000000,0.000000,0.000000,0.000065,-0.000000,-0.000000,0.134935,0.134935,0.135065,0.135065,929,950,929,950
9291,0,0.018139,0.016287,0.026440,-0.00,-0.00,0.000105,0.137000,-0.000940,-0.000829,0.000000,0.000000,0.000000,0.000000,0.000068,-0.000000,-0.000000,0.136932,0.136932,0.137068,0.137068,931,951,931,951
9301,0,0.018133,0.016215,0.021806,-0.00,-0.00,0.000156,0.137000,-0.000938,-0.000827,0.000000,0.000000,0.000000,0.000000,0.000069,-0.000000,-0.000000,0.136931,0.136931,0.137069,0.137069,931,951,931,951
9311,0,0.017910,0.016157,0.018100,-0.00,-0.00,0.000142,0.137000,-0.000933,-0.000825,0.000000,0.000000,0.000000,0.000000,0.000060,-0.000000,-0.000000,0.136940,0.136940,0.137060,0.137060,931,951,931,951
9321,0,0.017731,0.016111,0.015134,-0.00,-0.00,0.000175,0.142000,-0.000929,-0.000822,0.000000,0.000000,0.000000,0.000000,0.000052,-0.000000,-0.000000,0.141948,0.141948,0.142052,0.142052,935,955,935,955
9331,0,0.017588,0.016074,0.012762,-0.00,-0.00,0.000193,0.143000,-0.000924,-0.000819,0.000000,0.000000,0.000000,0.000000,0.000047,-0.000000,-0.000000,0.142953,0.142953,0.143047,0.143047,936,956,936,956
9341,0,0.017474,0.016044,0.010864,-0.00,-0.00,0.000171,0.143000,-0.000920,-0.000814,0.000000,0.000000,0.000000,0.000000,0.000044,-0.000000,-0.000000,0.142956,0.142956,0.143044,0.143044,936,956,936,956
9351,0,0.017383,0.016021,0.009346,-0.00,-0.00,0.000151,0.143000,-0.000916,-0.000808,0.000000,0.000000,0.000000,0.000000,0.000043,-0.000000,-0.000000,0.142957,0.142957,0.143043,0.143043,936,956,936,956
9361,0,0.017310,0.016002,0.008349,-0.00,-0.00,0.000128,0.143000,-0.000910,-0.000806,0.000000,0.000000,0.000000,0.000000,0.000045,-0.000000,-0.000000,0.142955,0.142955,0.143045,0.143045,936,956,936,956
9371,0,0.017251,0.015987,0.007552,-0.00,-0.00,0.000047,0.143000,-0.000906,-0.000806,0.000000,0.000000,0.000000,0.000000,0.000047,-0.000000,-0.000000,0.142953,0.142953,0.143047,0.143047,936,956,936,956
9388,0,0.017204,0.015975,0.006914,-0.00,-0.00,0.000118,0.143000,-0.000902,-0.000805,0.000000,0.000000,0.000000,0.000000,0.000049,-0.000000,-0.000000,0.142951,0.142951,0.143049,0.143049,936,956,936,956
9401,0,0.017167,0.015965,0.006404,-0.00,-0.00,0.000093,0.143000,-0.000897,-0.000804,0.000000,0.000000,0.000000,0.000000,0.000054,-0.000000,-0.000000,0.142946,0.142946,0.143054,0.143054,936,956,936,956
9411,0,0.017137,0.015957,0.005996,-0.00,-0.00,0.000113,0.143000,-0.000891,-0.000805,0.000000,0.000000,0.000000,0.000000,0.000060,-0.000000,-0.000000,0.142940,0.142940,0.143060,0.143060,936,956,936,956
9421,0,0.017113,0.015951,0.005669,-0.00,-0.00,0.000151,0.143000,-0.000888,-0.000805,0.000000,0.000000,0.000000,0.000000,0.000062,-0.000000,-0.000000,0.142938,0.142938,0.143062,0.143062,936,956,936,956
9432,0,0.016875,0.015946,0.005408,-0.00,-0.00,0.000301,0.143000,-0.000884,-0.000805,0.000000,0.000000,0.000000,0.000000,0.000049,-0.000000,-0.000000,0.142951,0.142951,0.143049,0.143049,936,956,936,956
9442,0,0.016686,0.015942,0.005199,-0.00,-0.00,0.000350,0.143000,-0.000880,-0.000804,0.000000,0.000000,0.000000,0.000000,0.000041,-0.000000,-0.000000,0.142959,0.142959,0.143041,0.143041,936,956,936,956
9452,0,0.016316,0.015939,0.005032,-0.00,-0.00,0.000284,0.143000,-0.000872,-0.000804,0.000000,0.000000,0.000000,0.000000,0.000023,-0.000000,-0.000000,0.142977,0.142977,0.143023,0.143023,936,956,936,956
9462,0,0.016020,0.015936,0.004898,-0.00,-0.00,0.000243,0.143000,-0.000863,-0.000803,0.000000,0.000000,0.000000,0.000000,0.000013,-0.000000,-0.000000,0.142987,0.142987,0.143013,0.143013,936,956,936,956
9471,0,0.015783,0.015934,0.004791,-0.00,-0.00,0.000287,0.143000,-0.000857,-0.000801,0.000000,0.000000,0.000000,0.000000,0.000002,-0.000000,-0.000000,0.142998,0.142998,0.143002,0.143002,936,956,936,956
9482,0,0.015593,0.015933,0.004706,-0.00,-0.00,0.000352,0.143000,-0.000850,-0.000800,0.000000,0.000000,0.000000,0.000000,-0.000003,-0.000000,-0.000000,0.143003,0.143003,0.142997,0.142997,936,956,936,956
9494,0,0.015223,0.015931,0.004637,-0.00,-0.00,0.000376,0.144000,-0.000838,-0.000797,0.000000,0.000000,0.000000,0.000000,-0.000014,-0.000000,-0.000000,0.144014,0.144014,0.143986,0.143986,937,957,937,957
9503,0,0.014928,0.015930,0.004582,-0.00,-0.00,0.000297,0.144000,-0.000829,-0.000797,0.000000,0.000000,0.000000,0.000000,-0.000024,-0.000000,-0.000000,0.144024,0.144024,0.143976,0.143976,937,957,937,957
9513,0,0.014909,0.015929,0.004539,-0.00,-0.00,0.000164,0.144000,-0.000821,-0.000798,0.000000,0.000000,0.000000,0.000000,-0.000014,-0.000000,-0.000000,0.144014,0.144014,0.143986,0.143986,937,957,937,957
9522,0,0.014894,0.015929,0.004504,-0.00,-0.00,0.000125,0.144000,-0.000814,-0.000800,0.000000,0.000000,0.000000,0.000000,-0.000006,-0.000000,-0.000000,0.144006,0.144006,0.143994,0.143994,937,957,937,957
9532,0,0.014883,0.015928,0.004476,-0.00,-0.00,0.000037,0.145000,-0.000808,-0.000798,0.000000,0.000000,0.000000,0.000000,0.000002,-0.000000,-0.000000,0.144998,0.144998,0.145002,0.145002,937,958,937,958
9542,0,0.015091,0.015928,0.004453,-0.00,0.00,0.000030,0.145000,-0.000806,-0.000796,0.000000,0.000000,0.000000,0.000000,0.000022,-0.000000,-0.000000,0.144978,0.144978,0.145022,0.145022,937,958,937,958
9552,0,0.015258,0.015927,0.004435,-0.00,0.00,-0.000054,0.145000,-0.000803,-0.000795,0.000000,0.000000,0.000000,0.000000,0.000039,-0.000000,0.000000,0.144961,0.144961,0.145039,0.145039,937,958,937,958
9562,0,0.015392,0.015927,0.004421,-0.00,0.00,-0.000082,0.145000,-0.000801,-0.000796,0.000000,0.000000,0.000000,0.000000,0.000052,-0.000000,0.000000,0.144948,0.144948,0.145052,0.145052,937,958,937,958
9572,0,0.015499,0.015927,0.004409,-0.00,-0.00,-0.000126,0.145000,-0.000798,-0.000797,0.000000,0.000000,0.000000,0.000000,0.000065,-0.000000,0.000000,0.144935,0.144935,0.145065,0.145065,937,958,937,958
9582,0,0.015584,0.015927,0.004400,-0.00,0.00,-0.000145,0.146000,-0.000796,-0.000796,0.000000,0.000000,0.000000,0.000000,0.000075,-0.000000,0.000000,0.145925,0.145925,0.146075,0.146075,938,959,938,959
9592,0,0.015871,0.015927,0.004393,-0.00,0.00,-0.000231,0.146000,-0.000797,-0.000794,0.000000,0.000000,0.000000,0.000000,0.000097,-0.000000,0.000000,0.145903,0.145903,0.146097,0.146097,938,959,938,959
9602,0,0.016100,0.015708,0.004387,0.00,-0.00,-0.000270,0.146000,-0.000798,-0.000786,0.000000,0.000000,0.000000,0.000000,0.000112,-0.000000,0.000000,0.145888,0.145888,0.146112,0.146112,938,959,938,959
9612,0,0.016283,0.015534,0.004382,0.00,-0.00,-0.000275,0.146000,-0.000801,-0.000781,0.000000,0.000000,0.000000,0.000000,0.000123,-0.000000,0.000000,0.145877,0.145877,0.146123,0.146123,938,959,938,959
9622,0,0.016648,0.015394,0.004378,0.00,-0.00,-0.000166,0.149000,-0.000809,-0.000779,0.000000,0.000000,0.000000,0.000000,0.000141,-0.000000,0.000000,0.148859,0.148859,0.149141,0.149141,941,961,941,961
9632,0,0.016722,0.015282,0.004375,0.00,-0.00,-0.000141,0.149000,-0.000812,-0.000777,0.000000,0.000000,0.000000,0.000000,0.000141,-0.000000,0.000000,0.148859,0.148859,0.149141,0.149141,941,961,941,961
9643,0,0.016781,0.015411,0.004373,0.00,-0.00,-0.000200,0.149000,-0.000815,-0.000779,0.000000,0.000000,0.000000,0.000000,0.000141,-0.000000,0.000000,0.148859,0.148859,0.149141,0.149141,941,961,941,961
9654,0,0.017046,0.015514,0.004371,0.00,-0.00,-0.000205,0.153000,-0.000820,-0.000782,0.000000,0.000000,0.000000,0.000000,0.000155,-0.000000,0.000000,0.152845,0.152845,0.153155,0.153155,944,964,944,965
9664,0,0.017259,0.015597,0.004369,0.00,-0.00,-0.000173,0.153000,-0.000825,-0.000783,0.000000,0.000000,0.000000,0.000000,0.000165,-0.000000,0.000000,0.152835,0.152835,0.153165,0.153165,944,964,944,965
9673,0,0.017210,0.015662,0.004368,0.00,0.00,-0.000073,0.154000,-0.000828,-0.000783,0.000000,0.000000,0.000000,0.000000,0.000156,-0.000000,0.000000,0.153844,0.153844,0.154156,0.154156,945,965,945,965
9682,0,0.017172,0.015715,0.004367,0.00,0.00,-0.000000,0.154000,-0.000833,-0.000781,0.000000,0.000000,0.000000,0.000000,0.000146,-0.000000,0.000000,0.153854,0.153854,0.154146,0.154146,945,965,945,965
9697,0,0.017141,0.015539,0.004585,0.00,0.00,-0.000015,0.154000,-0.000838,-0.000775,0.000000,0.000000,0.000000,0.000000,0.000137,-0.000000,0.000000,0.153863,0.153863,0.154137,0.154137,945,965,945,965
9707,0,0.017334,0.015398,0.004759,0.00,-0.00,-0.000206,0.158000,-0.000843,-0.000773,0.000000,0.000000,0.000000,0.000000,0.000145,-0.000000,0.000000,0.157855,0.157855,0.158145,0.158145,948,968,948,969
9718,0,0.017489,0.015286,0.004898,0.00,-0.00,-0.000253,0.158000,-0.000848,-0.000770,0.000000,0.000000,0.000000,0.000000,0.000150,-0.000000,0.000000,0.157850,0.157850,0.158150,0.158150,948,968,948,969
9731,0,0.017613,0.015196,0.005009,0.00,-0.00,-0.000184,0.158000,-0.000852,-0.000763,0.000000,0.000000,0.000000,0.000000,0.000154,-0.000000,0.000000,0.157846,0.157846,0.158154,0.158154,948,968,948,969
9742,0,0.017494,0.015124,0.005098,0.00,-0.00,0.000045,0.167000,-0.000852,-0.000764,0.000000,0.000000,0.000000,0.000000,0.000145,-0.000000,-0.000000,0.166855,0.166855,0.167145,0.167145,955,976,956,976
9752,0,0.017180,0.015066,0.005169,0.00,-0.00,0.000253,0.171000,-0.000850,-0.000765,0.000000,0.000000,0.000000,0.000000,0.000123,-0.000000,-0.000000,0.170877,0.170877,0.171123,0.171123,959,979,959,979
9762,0,0.016711,0.015238,0.005226,-0.00,-0.00,0.000334,0.172000,-0.000845,-0.000772,0.000000,0.000000,0.000000,0.000000,0.000092,-0.000000,-0.000000,0.171908,0.171908,0.172092,0.172092,959,980,960,980
9772,0,0.016118,0.015376,0.005272,-0.00,-0.00,0.000438,0.172000,-0.000837,-0.000775,0.000000,0.000000,0.000000,0.000000,0.000058,-0.000000,-0.000000,0.171942,0.171942,0.172058,0.172058,959,980,960,980
9782,0,0.015425,0.015486,0.005308,-0.00,-0.00,0.000429,0.173000,-0.000825,-0.000775,0.000000,0.000000,0.000000,0.000000,0.000020,-0.000000,-0.000000,0.172980,0.172980,0.173020,0.173020,960,981,960,981
9793,0,0.014871,0.015574,0.005337,-0.00,0.00,0.000453,0.173000,-0.000816,-0.000774,0.000000,0.000000,0.000000,0.000000,-0.000010,-0.000000,-0.000000,0.173010,0.173010,0.172990,0.172990,960,981,960,981
9804,0,0.014427,0.015426,0.005361,-0.00,0.00,0.000424,0.173000,-0.000807,-0.000768,0.000000,0.000000,0.000000,0.000000,-0.000033,-0.000000,-0.000000,0.173033,0.173033,0.172967,0.172967,960,981,960,981
9814,0,0.014073,0.015308,0.005598,-0.00,0.00,0.000400,0.176000,-0.000800,-0.000765,0.000000,0.000000,0.000000,0.000000,-0.000050,-0.000000,-0.000000,0.176050,0.176050,0.175950,0.175950,963,983,963,983
9823,0,0.013789,0.015213,0.005787,-0.00,0.00,0.000386,0.177000,-0.000794,-0.000760,0.000000,0.000000,0.000000,0.000000,-0.000064,-0.000000,-0.000000,0.177064,0.177064,0.176936,0.176936,964,984,964,984
9833,0,0.013562,0.015138,0.005939,-0.00,-0.00,0.000320,0.177000,-0.000787,-0.000757,0.000000,0.000000,0.000000,0.000000,-0.000071,-0.000000,-0.000000,0.177071,0.177071,0.176929,0.176929,964,984,964,984
9843,0,0.013380,0.015077,0.006060,-0.00,-0.00,0.000279,0.179000,-0.000780,-0.000757,0.000000,0.000000,0.000000,0.000000,-0.000075,-0.000000,-0.000000,0.179075,0.179075,0.178925,0.178925,965,986,965,986
9853,0,0.013235,0.015029,0.006375,-0.00,-0.00,0.000260,0.179000,-0.000774,-0.000758,0.000000,0.000000,0.000000,0.000000,-0.000078,-0.000000,-0.000000,0.179078,0.179078,0.178922,0.178922,965,986,965,986
9863,0,0.012900,0.014990,0.006845,-0.00,-0.00,0.000316,0.179000,-0.000767,-0.000754,0.000000,0.000000,0.000000,0.000000,-0.000095,-0.000000,-0.000000,0.179095,0.179095,0.178905,0.178905,965,986,965,986
9873,0,0.012633,0.014959,0.007222,-0.00,0.00,0.000380,0.179000,-0.000760,-0.000747,0.000000,0.000000,0.000000,0.000000,-0.000105,-0.000000,-0.000000,0.179105,0.179105,0.178895,0.178895,965,986,965,986
9883,0,0.012419,0.014716,0.007523,-0.00,0.00,0.000377,0.179000,-0.000752,-0.000735,0.000000,0.000000,0.000000,0.000000,-0.000110,-0.000000,-0.000000,0.179110,0.179110,0.178890,0.178890,965,986,965,986
9893,0,0.012248,0.014522,0.007982,-0.00,-0.00,0.000419,0.179000,-0.000744,-0.000729,0.000000,0.000000,0.000000,0.000000,-0.000113,-0.000000,-0.000000,0.179113,0.179113,0.178887,0.178887,965,986,965,986
9902,0,0.011893,0.014366,0.008349,-0.00,-0.00,0.000457,0.179000,-0.000737,-0.000724,0.000000,0.000000,0.000000,0.000000,-0.000130,-0.000000,-0.000000,0.179130,0.179130,0.178870,0.178870,965,986,965,986
9913,0,0.011608,0.014242,0.008861,-0.00,-0.00,0.000535,0.179000,-0.000724,-0.000720,0.000000,0.000000,0.000000,0.000000,-0.000134,-0.000000,-0.000000,0.179134,0.179134,0.178866,0.178866,965,986,965,986
9923,0,0.011163,0.014143,0.009270,-0.00,-0.00,0.000578,0.179000,-0.000711,-0.000716,0.000000,0.000000,0.000000,0.000000,-0.000150,-0.000000,-0.000000,0.179150,0.179150,0.178850,0.178850,965,986,965,986
9933,0,0.010588,0.014063,0.009598,-0.00,-0.00,0.000579,0.179000,-0.000698,-0.000712,0.000000,0.000000,0.000000,0.000000,-0.000176,-0.000000,-0.000000,0.179176,0.179176,0.178824,0.178824,965,986,965,986
9943,0,0.010129,0.013781,0.010078,-0.00,-0.00,0.000625,0.179000,-0.000686,-0.000703,0.000000,0.000000,0.000000,0.000000,-0.000196,-0.000000,-0.000000,0.179196,0.179196,0.178804,0.178804,965,986,965,986
9953,0,0.009761,0.013556,0.010680,-0.00,-0.00,0.000680,0.180000,-0.000677,-0.000696,0.000000,0.000000,0.000000,0.000000,-0.000211,-0.000000,-0.000000,0.180211,0.180211,0.179789,0.179789,966,987,966,986
9963,0,0.009249,0.013375,0.011162,-0.00,-0.00,0.000717,0.180000,-0.000664,-0.000687,0.000000,0.000000,0.000000,0.000000,-0.000233,-0.000000,-0.000000,0.180233,0.180233,0.179767,0.179767,966,987,966,986
9973,0,0.008621,0.013231,0.011766,-0.00,-0.00,0.000706,0.180000,-0.000651,-0.000679,0.000000,0.000000,0.000000,0.000000,-0.000263,-0.000000,-0.000000,0.180263,0.180263,0.179737,0.179737,966,987,966,986
9983,0,0.008118,0.013115,0.012467,-0.00,-0.00,0.000710,0.180000,-0.000638,-0.000669,0.000000,0.000000,0.000000,0.000000,-0.000285,-0.000000,-0.000000,0.180285,0.180285,0.179715,0.179715,966,987,966,986
9993,0,0.007716,0.012805,0.013246,-0.00,-0.00,0.000642,0.180000,-0.000627,-0.000654,0.000000,0.000000,0.000000,0.000000,-0.000300,-0.000000,-0.000000,0.180300,0.180300,0.179700,0.179700,966,987,966,986
10003,0,0.007395,0.012556,0.014088,-0.00,-0.00,0.000540,0.180000,-0.000619,-0.000640,0.000000,0.000000,0.000000,0.000000,-0.000313,-0.000000,-0.000000,0.180313,0.180313,0.179687,0.179687,966,987,966,986
10020,0,0.007138,0.011921,0.015415,-0.00,-0.00,0.000463,0.180000,-0.000610,-0.000611,0.000000,0.000000,0.000000,0.000000,-0.000321,-0.000000,-0.000000,0.180321,0.180321,0.179679,0.179679,966,987,966,986
10032,0,0.007150,0.011413,0.016914,-0.00,-0.00,0.000323,0.180000,-0.000610,-0.000590,0.000000,0.000000,0.000000,0.000000,-0.000320,-0.000000,-0.000000,0.180320,0.180320,0.179680,0.179680,966,987,966,986
