t,is_crashed,roll,pitch,yaw,p,q,r,throttle,roll_cmd,pitch_cmd,yaw_cmd,roll_pid_out,pitch_pid_out,yaw_pid_out,motor_fl,motor_bl,motor_fr,motor_br,pwm_fl,pwm_bl,pwm_fr,pwm_br
6913,0,0.03,-0.01,0.00,0.00,-0.00,-0.00,0.00,0.00,0.00,0.00,0.00,0.00,0.00,0.00,0.00,0.00,0.00,0,0,0,0
6923,0,0.00,0.00,0.00,-0.00,-0.00,0.00,0.00,0.00,0.00,0.00,0.00,0.00,-0.00,0.00,0.00,0.00,0.00,819,819,819,819
6932,0,0.00,0.00,0.00,-0.00,-0.00,0.00,0.00,0.00,0.00,0.00,0.00,0.00,-0.00,0.00,0.00,0.00,0.00,819,819,819,819
6941,0,0.00,0.00,0.00,0.00,0.00,0.00,0.00,0.00,0.00,0.00,-0.00,0.00,-0.00,0.00,0.00,0.00,0.00,819,819,819,819
6951,0,0.00,0.00,0.00,0.00,-0.00,-0.00,0.00,0.00,0.00,0.00,-0.00,0.00,0.00,0.00,0.00,0.00,0.00,819,819,819,819
6963,0,0.00,0.00,0.00,0.00,-0.00,-0.00,0.00,0.00,0.00,0.00,-0.00,0.00,0.00,0.00,0.00,0.00,0.00,819,819,819,819
6973,0,0.00,0.00,0.00,-0.00,-0.00,-0.00,0.00,0.00,0.00,0.00,0.00,0.00,0.00,0.00,0.00,0.00,0.00,819,819,819,819
6982,0,0.00,0.00,0.00,-0.00,-0.00,-0.00,0.00,0.00,0.00,0.00,0.00,0.00,0.00,0.00,0.00,0.00,0.00,819,819,819,819
6991,0,0.00,0.00,0.00,0.00,-0.00,0.00,0.00,0.00,0.00,0.00,-0.00,0.00,-0.00,0.00,0.00,0.00,0.00,819,819,819,819
7001,0,0.00,0.00,0.00,0.00,-0.00,-0.00,0.00,0.00,0.00,0.00,-0.00,0.00,0.00,0.00,0.00,0.00,0.00,819,819,819,819
7011,0,0.00,0.00,0.00,0.00,0.00,-0.00,0.00,0.00,0.00,0.00,-0.00,0.00,0.00,0.00,0.00,0.00,0.00,819,819,819,819
7021,0,0.00,0.00,0.00,0.00,-0.00,-0.00,0.00,0.00,0.00,0.00,-0.00,0.00,0.00,0.00,0.00,0.00,0.00,819,819,819,819
7031,0,0.00,0.00,0.00,0.00,-0.00,0.00,0.00,0.00,0.00,0.00,-0.00,0.00,-0.00,0.00,0.00,0.00,0.00,819,819,819,819
7040,0,0.00,0.00,0.00,0.00,-0.00,0.00,0.00,0.00,0.00,0.00,-0.00,0.00,-0.00,0.00,0.00,0.00,0.00,819,819,819,819
7050,0,0.00,0.00,0.00,0.00,-0.00,0.00,0.00,0.00,0.00,0.00,-0.00,0.00,-0.00,0.00,0.00,0.00,0.00,819,819,819,819
7060,0,0.00,0.00,0.00,0.00,0.00,-0.00,0.00,0.00,0.00,0.00,-0.00,0.00,0.00,0.00,0.00,0.00,0.00,819,819,819,819
7069,0,0.00,0.00,0.00,0.00,0.00,0.00,0.00,0.00,0.00,0.00,-0.00,0.00,-0.00,0.00,0.00,0.00,0.00,819,819,819,819
7079,0,0.00,0.00,0.00,-0.00,-0.00,0.00,0.00,0.00,0.00,0.00,0.00,0.00,-0.00,0.00,0.00,0.00,0.00,819,819,819,819
7087,0,0.00,0.00,0.00,0.00,0.00,-0.00,0.00,0.00,0.00,0.00,-0.00,0.00,0.00,0.00,0.00,0.00,0.00,819,819,819,819
7095,0,0.00,0.00,0.00,0.00,0.00,-0.00,0.00,0.00,0.00,0.00,-0.00,0.00,0.00,0.00,0.00,0.00,0.00,819,819,819,819
7103,0,0.00,0.00,0.00,0.00,0.00,0.00,0.00,0.00,0.00,0.00,-0.00,0.00,-0.00,0.00,0.00,0.00,0.00,819,819,819,819
7112,0,0.00,0.00,0.00,0.00,-0.00,-0.00,0.00,0.00,0.00,0.00,-0.00,0.00,0.00,0.00,0.00,0.00,0.00,819,819,819,819
7122,0,0.00,0.00,0.00,0.00,-0.00,-0.00,0.00,0.00,0.00,0.00,-0.00,0.00,0.00,0.00,0.00,0.00,0.00,819,819,819,819
7132,0,0.00,0.00,0.00,0.00,0.00,0.00,0.00,0.00,0.00,0.00,-0.00,0.00,-0.00,0.00,0.00,0.00,0.00,819,819,819,819
7143,0,0.00,0.00,0.00,0.00,-0.00,0.00,0.00,0.00,0.00,0.00,-0.00,0.00,-0.00,0.00,0.00,0.00,0.00,819,819,819,819
7152,0,0.00,0.00,0.00,0.00,-0.00,0.00,0.00,0.00,0.00,0.00,-0.00,0.00,-0.00,0.00,0.00,0.00,0.00,819,819,819,819
7162,0,0.00,0.00,0.00,0.00,0.00,-0.00,0.00,0.00,0.00,0.00,-0.00,0.00,0.00,0.00,0.00,0.00,0.00,819,819,819,819
7172,0,0.00,0.00,0.00,0.00,-0.00,0.00,0.00,0.00,0.00,0.00,-0.00,0.00,-0.00,0.00,0.00,0.00,0.00,819,819,819,819
7182,0,0.00,0.00,0.00,-0.00,0.00,0.00,0.00,0.00,0.00,0.00,0.00,0.00,-0.00,0.00,0.00,0.00,0.00,819,819,819,819
7193,0,0.00,0.00,0.00,0.00,-0.00,-0.00,0.00,0.00,0.00,0.00,-0.00,0.00,0.00,0.00,0.00,0.00,0.00,819,819,819,819
7202,0,0.00,0.00,0.00,0.00,-0.00,-0.00,0.00,0.00,0.00,0.00,-0.00,0.00,0.00,0.00,0.00,0.00,0.00,819,819,819,819
7212,0,0.00,0.00,0.00,-0.00,0.00,-0.00,0.00,0.00,0.00,0.00,0.00,0.00,0.00,0.00,0.00,0.00,0.00,819,819,819,819
7222,0,0.00,0.00,0.00,0.00,0.00,-0.00,0.00,0.00,0.00,0.00,-0.00,0.00,0.00,0.00,0.00,0.00,0.00,819,819,819,819
7231,0,0.00,0.00,0.00,0.00,0.00,-0.00,0.00,0.00,0.00,0.00,-0.00,0.00,0.00,0.00,0.00,0.00,0.00,819,819,819,819
7239,0,0.00,0.00,0.00,-0.00,0.00,0.00,0.00,0.00,0.00,0.00,0.00,0.00,-0.00,0.00,0.00,0.00,0.00,819,819,819,819
7247,0,0.00,0.00,0.00,0.00,-0.00,0.00,0.00,0.00,0.00,0.00,-0.00,0.00,-0.00,0.00,0.00,0.00,0.00,819,819,819,819
7261,0,0.00,0.00,0.00,0.00,-0.00,0.00,0.00,0.00,0.00,0.00,-0.00,0.00,-0.00,0.00,0.00,0.00,0.00,819,819,819,819
7272,0,0.00,0.00,0.00,0.00,-0.00,0.00,0.00,0.00,0.00,0.00,-0.00,0.00,-0.00,0.00,0.00,0.00,0.00,819,819,819,819
7282,0,0.00,0.00,0.00,0.00,-0.00,-0.00,0.00,0.00,0.00,0.00,-0.00,0.00,0.00,0.00,0.00,0.00,0.00,819,819,819,819
7289,0,0.00,0.00,0.00,0.00,-0.00,-0.00,0.00,0.00,0.00,0.00,-0.00,0.00,0.00,0.00,0.00,0.00,0.00,819,819,819,819
7297,0,0.00,0.00,0.00,0.00,-0.00,-0.00,0.00,0.00,0.00,0.00,-0.00,0.00,0.00,0.00,0.00,0.00,0.00,819,819,819,819
7305,0,0.00,0.00,0.00,-0.00,0.00,0.00,0.00,0.00,0.00,0.00,0.00,0.00,-0.00,0.00,0.00,0.00,0.00,819,819,819,819
7313,0,0.00,0.00,0.00,-0.00,-0.00,0.00,0.00,0.00,0.00,0.00,0.00,0.00,-0.00,0.00,0.00,0.00,0.00,819,819,819,819
7323,0,0.00,0.00,0.00,-0.00,-0.00,0.00,0.00,0.00,0.00,0.00,0.00,0.00,-0.00,0.00,0.00,0.00,0.00,819,819,819,819
7333,0,0.00,0.00,0.00,0.00,-0.00,-0.00,0.00,0.00,0.00,0.00,-0.00,0.00,0.00,0.00,0.00,0.00,0.00,819,819,819,819
7342,0,0.00,0.00,0.00,0.00,-0.00,-0.00,0.00,0.00,0.00,0.00,-0.00,0.00,0.00,0.00,0.00,0.00,0.00,819,819,819,819
7352,0,0.00,0.00,0.00,-0.00,0.00,0.00,0.00,0.00,0.00,0.00,0.00,0.00,-0.00,0.00,0.00,0.00,0.00,819,819,819,819
7362,0,0.00,0.00,0.00,-0.00,-0.00,-0.00,0.00,0.00,0.00,0.00,0.00,0.00,0.00,0.00,0.00,0.00,0.00,819,819,819,819
7372,0,0.00,0.00,0.00,-0.00,0.00,0.00,0.00,0.00,0.00,0.00,0.00,0.00,-0.00,0.00,0.00,0.00,0.00,819,819,819,819
7382,0,0.00,0.00,0.00,0.00,-0.00,-0.00,0.00,0.00,0.00,0.00,-0.00,0.00,0.00,0.00,0.00,0.00,0.00,819,819,819,819
7393,0,0.00,0.00,0.00,-0.00,-0.00,0.00,0.00,0.00,0.00,0.00,0.00,0.00,-0.00,0.00,0.00,0.00,0.00,819,819,819,819
7403,0,0.00,0.00,0.00,0.00,-0.00,0.00,0.00,0.00,0.00,0.00,-0.00,0.00,-0.00,0.00,0.00,0.00,0.00,819,819,819,819
7412,0,0.00,0.00,0.00,-0.00,0.00,0.00,0.00,0.00,0.00,0.00,0.00,0.00,-0.00,0.00,0.00,0.00,0.00,819,819,819,819
7422,0,0.00,0.00,0.00,0.00,0.00,-0.00,0.00,0.00,0.00,0.00,-0.00,0.00,0.00,0.00,0.00,0.00,0.00,819,819,819,819
7432,0,0.00,0.00,0.00,0.00,0.00,-0.00,0.00,0.00,0.00,0.00,-0.00,0.00,0.00,0.00,0.00,0.00,0.00,819,819,819,819
7441,0,0.00,0.00,0.00,-0.00,-0.00,-0.00,0.00,0.00,0.00,0.00,0.00,0.00,0.00,0.00,0.00,0.00,0.00,819,819,819,819
7450,0,0.00,0.00,0.00,0.00,-0.00,-0.00,0.00,0.00,0.00,0.00,-0.00,0.00,0.00,0.00,0.00,0.00,0.00,819,819,819,819
7460,0,0.00,0.00,0.00,-0.00,-0.00,-0.00,0.00,0.00,0.00,0.00,0.00,0.00,0.00,0.00,0.00,0.00,0.00,819,819,819,819
7469,0,0.00,0.00,0.00,-0.00,-0.00,0.00,0.00,0.00,0.00,0.00,0.00,0.00,-0.00,0.00,0.00,0.00,0.00,819,819,819,819
7478,0,0.00,0.00,0.00,0.00,-0.00,0.00,0.00,0.00,0.00,0.00,-0.00,0.00,-0.00,0.00,0.00,0.00,0.00,819,819,819,819
7486,0,0.00,0.00,0.00,0.00,0.00,-0.00,0.00,0.00,0.00,0.00,-0.00,0.00,0.00,0.00,0.00,0.00,0.00,819,819,819,819
7494,0,0.00,0.00,0.00,-0.00,-0.00,0.00,0.00,0.00,0.00,0.00,0.00,0.00,-0.00,0.00,0.00,0.00,0.00,819,819,819,819
7503,0,0.00,0.00,0.00,-0.00,-0.00,0.00,0.00,0.00,0.00,0.00,0.00,0.00,-0.00,0.00,0.00,0.00,0.00,819,819,819,819
7513,0,0.00,0.00,0.00,0.00,-0.00,0.00,0.00,0.00,0.00,0.00,-0.00,0.00,-0.00,0.00,0.00,0.00,0.00,819,819,819,819
7523,0,0.00,0.00,0.00,-0.00,-0.00,0.00,0.00,0.00,0.00,0.00,0.00,0.00,-0.00,0.00,0.00,0.00,0.00,819,819,819,819
7533,0,0.00,0.00,0.00,0.00,-0.00,-0.00,0.00,0.00,0.00,0.00,-0.00,0.00,0.00,0.00,0.00,0.00,0.00,819,819,819,819
7541,0,0.00,0.00,0.00,0.00,0.00,0.00,0.00,0.00,0.00,0.00,-0.00,0.00,-0.00,0.00,0.00,0.00,0.00,819,819,819,819
7554,0,0.00,0.00,0.00,0.00,0.00,0.00,0.00,0.00,0.00,0.00,-0.00,0.00,-0.00,0.00,0.00,0.00,0.00,819,819,819,819
7564,0,0.00,0.00,0.00,0.00,-0.00,0.00,0.00,0.00,0.00,0.00,-0.00,0.00,-0.00,0.00,0.00,0.00,0.00,819,819,819,819
7573,0,0.00,0.00,0.00,0.00,-0.00,0.00,0.00,0.00,0.00,0.00,-0.00,0.00,-0.00,0.00,0.00,0.00,0.00,819,819,819,819
7583,0,0.00,0.00,0.00,0.00,0.00,0.00,0.00,0.00,0.00,0.00,-0.00,0.00,-0.00,0.00,0.00,0.00,0.00,819,819,819,819
7591,0,0.00,0.00,0.00,0.00,0.00,0.00,0.00,0.00,0.00,0.00,-0.00,0.00,-0.00,0.00,0.00,0.00,0.00,819,819,819,819
7601,0,0.00,0.00,0.00,0.00,-0.00,0.00,0.00,0.00,0.00,0.00,-0.00,0.00,-0.00,0.00,0.00,0.00,0.00,819,819,819,819
7611,0,0.00,0.00,0.00,0.00,-0.00,0.00,0.00,0.00,0.00,0.00,-0.00,0.00,-0.00,0.00,0.00,0.00,0.00,819,819,819,819
7621,0,0.00,0.00,0.00,0.00,-0.00,-0.00,0.00,0.00,0.00,0.00,-0.00,0.00,0.00,0.00,0.00,0.00,0.00,819,819,819,819
7630,0,0.00,0.00,0.00,-0.00,-0.00,-0.00,0.00,0.00,0.00,0.00,0.00,0.00,0.00,0.00,0.00,0.00,0.00,819,819,819,819
7638,0,0.00,0.00,0.00,0.00,-0.00,-0.00,0.00,0.00,0.00,0.00,-0.00,0.00,0.00,0.00,0.00,0.00,0.00,819,819,819,819
7645,0,0.00,0.00,0.00,0.00,-0.00,0.00,0.00,0.00,0.00,0.00,-0.00,0.00,-0.00,0.00,0.00,0.00,0.00,819,819,819,819
7654,0,0.00,0.00,0.00,0.00,-0.00,0.00,0.00,0.00,0.00,0.00,-0.00,0.00,-0.00,0.00,0.00,0.00,0.00,819,819,819,819
7663,0,0.00,0.00,0.00,0.00,-0.00,0.00,0.00,0.00,0.00,0.00,-0.00,0.00,-0.00,0.00,0.00,0.00,0.00,819,819,819,819
7673,0,0.00,0.00,0.00,0.00,-0.00,0.00,0.00,0.00,0.00,0.00,-0.00,0.00,-0.00,0.00,0.00,0.00,0.00,819,819,819,819
7683,0,0.00,0.00,0.00,0.00,-0.00,-0.00,0.00,0.00,0.00,0.00,-0.00,0.00,0.00,0.00,0.00,0.00,0.00,819,819,819,819
7692,0,0.00,0.00,0.00,0.00,-0.00,0.00,0.00,0.00,0.00,0.00,-0.00,0.00,-0.00,0.00,0.00,0.00,0.00,819,819,819,819
7702,0,0.00,0.00,0.00,-0.00,-0.00,0.00,0.00,0.00,0.00,0.00,0.00,0.00,-0.00,0.00,0.00,0.00,0.00,819,819,819,819
7712,0,0.00,0.00,0.00,0.00,-0.00,0.00,0.00,0.00,0.00,0.00,-0.00,0.00,-0.00,0.00,0.00,0.00,0.00,819,819,819,819
7722,0,0.00,0.00,0.00,0.00,-0.00,0.00,0.00,0.00,0.00,0.00,-0.00,0.00,-0.00,0.00,0.00,0.00,0.00,819,819,819,819
7732,0,0.00,0.00,0.00,0.00,0.00,0.00,0.00,0.00,0.00,0.00,-0.00,0.00,-0.00,0.00,0.00,0.00,0.00,819,819,819,819
7740,0,0.00,0.00,0.00,0.00,-0.00,0.00,0.00,0.00,0.00,0.00,-0.00,0.00,-0.00,0.00,0.00,0.00,0.00,819,819,819,819
7749,0,0.00,0.00,0.00,0.00,-0.00,-0.00,0.00,0.00,0.00,0.00,-0.00,0.00,0.00,0.00,0.00,0.00,0.00,819,819,819,819
7757,0,0.00,0.00,0.00,-0.00,-0.00,0.00,0.00,0.00,0.00,0.00,0.00,0.00,-0.00,0.00,0.00,0.00,0.00,819,819,819,819
7765,0,0.00,0.00,0.00,0.00,0.00,0.00,0.00,0.00,0.00,0.00,-0.00,0.00,-0.00,0.00,0.00,0.00,0.00,819,819,819,819
7774,0,0.00,0.00,0.00,0.00,0.00,0.00,0.00,0.00,0.00,0.00,-0.00,0.00,-0.00,0.00,0.00,0.00,0.00,819,819,819,819
7784,0,0.00,0.00,0.00,0.00,0.00,0.00,0.00,0.00,0.00,0.00,-0.00,0.00,-0.00,0.00,0.00,0.00,0.00,819,819,819,819
7793,0,0.00,0.00,0.00,0.00,-0.00,0.00,0.00,0.00,0.00,0.00,-0.00,0.00,-0.00,0.00,0.00,0.00,0.00,819,819,819,819
7803,0,0.00,0.00,0.00,0.00,-0.00,0.00,0.00,0.00,0.00,0.00,-0.00,0.00,-0.00,0.00,0.00,0.00,0.00,819,819,819,819
7813,0,0.00,0.00,0.00,0.00,0.00,0.00,0.00,0.00,0.00,0.00,-0.00,0.00,-0.00,0.00,0.00,0.00,0.00,819,819,819,819
7823,0,0.00,0.00,0.00,0.00,0.00,0.00,0.00,0.00,0.00,0.00,-0.00,0.00,-0.00,0.00,0.00,0.00,0.00,819,819,819,819
7832,0,0.00,0.00,0.00,0.00,-0.00,0.00,0.00,0.00,0.00,0.00,-0.00,0.00,-0.00,0.00,0.00,0.00,0.00,819,819,819,819
7845,0,0.00,0.00,0.00,0.00,-0.00,0.00,0.00,0.00,0.00,0.00,-0.00,0.00,-0.00,0.00,0.00,0.00,0.00,819,819,819,819
7855,0,0.00,0.00,0.00,0.00,0.00,0.00,0.00,0.00,0.00,0.00,-0.00,0.00,-0.00,0.00,0.00,0.00,0.00,819,819,819,819
7864,0,0.00,0.00,0.00,0.00,0.00,0.00,0.00,0.00,0.00,0.00,-0.00,0.00,-0.00,0.00,0.00,0.00,0.00,819,819,819,819
7874,0,0.00,0.00,0.00,0.00,0.00,0.00,0.00,0.00,0.00,0.00,-0.00,0.00,-0.00,0.00,0.00,0.00,0.00,819,819,819,819
7884,0,0.00,0.00,0.00,0.00,-0.00,0.00,0.00,0.00,0.00,0.00,-0.00,0.00,-0.00,0.00,0.00,0.00,0.00,819,819,819,819
7893,0,0.00,0.00,0.00,0.00,0.00,0.00,0.00,0.00,0.00,0.00,-0.00,0.00,-0.00,0.00,0.00,0.00,0.00,819,819,819,819
7902,0,0.00,0.00,0.00,0.00,-0.00,0.00,0.00,0.00,0.00,0.00,-0.00,0.00,-0.00,0.00,0.00,0.00,0.00,819,819,819,819
7912,0,0.00,0.00,0.00,0.00,-0.00,0.00,0.00,0.00,0.00,0.00,-0.00,0.00,-0.00,0.00,0.00,0.00,0.00,819,819,819,819
7921,0,0.00,0.00,0.00,0.00,0.00,-0.00,0.00,0.00,0.00,0.00,-0.00,0.00,0.00,0.00,0.00,0.00,0.00,819,819,819,819
7931,0,0.00,0.00,0.00,0.00,0.00,0.00,0.00,0.00,0.00,0.00,-0.00,0.00,-0.00,0.00,0.00,0.00,0.00,819,819,819,819
7938,0,0.00,0.00,0.00,0.00,-0.00,0.00,0.00,0.00,0.00,0.00,-0.00,0.00,-0.00,0.00,0.00,0.00,0.00,819,819,819,819
7946,0,0.00,0.00,0.00,0.00,-0.00,0.00,0.00,0.00,0.00,0.00,-0.00,0.00,-0.00,0.00,0.00,0.00,0.00,819,819,819,819
7955,0,0.00,0.00,0.00,0.00,-0.00,0.00,0.00,0.00,0.00,0.00,-0.00,0.00,-0.00,0.00,0.00,0.00,0.00,819,819,819,819
7964,0,0.00,0.00,0.00,0.00,-0.00,0.00,0.00,0.00,0.00,0.00,-0.00,0.00,-0.00,0.00,0.00,0.00,0.00,819,819,819,819
7973,0,0.00,0.00,0.00,-0.00,-0.00,0.00,0.00,0.00,0.00,0.00,0.00,0.00,-0.00,0.00,0.00,0.00,0.00,819,819,819,819
7983,0,0.00,0.00,0.00,0.00,-0.00,0.00,0.00,0.00,0.00,0.00,-0.00,0.00,-0.00,0.00,0.00,0.00,0.00,819,819,819,819
7991,0,0.00,0.00,0.00,0.00,-0.00,-0.00,0.00,0.00,0.00,0.00,-0.00,0.00,0.00,0.00,0.00,0.00,0.00,819,819,819,819
7999,0,0.00,0.00,0.00,0.00,-0.00,0.00,0.00,0.00,0.00,0.00,-0.00,0.00,-0.00,0.00,0.00,0.00,0.00,819,819,819,819
8006,0,0.00,0.00,0.00,-0.00,0.00,0.00,0.00,0.00,0.00,0.00,0.00,0.00,-0.00,0.00,0.00,0.00,0.00,819,819,819,819
8015,0,0.00,0.00,0.00,0.00,-0.00,0.00,0.00,0.00,0.00,0.00,-0.00,0.00,-0.00,0.00,0.00,0.00,0.00,819,819,819,819
8024,0,0.00,0.00,0.00,0.00,-0.00,0.00,0.00,0.00,0.00,0.00,-0.00,0.00,-0.00,0.00,0.00,0.00,0.00,819,819,819,819
8034,0,0.00,0.00,0.00,0.00,0.00,0.00,0.00,0.00,0.00,0.00,-0.00,0.00,-0.00,0.00,0.00,0.00,0.00,819,819,819,819
8043,0,0.00,0.00,0.00,0.00,-0.00,0.00,0.00,0.00,0.00,0.00,-0.00,0.00,-0.00,0.00,0.00,0.00,0.00,819,819,819,819
8053,0,0.00,0.00,0.00,0.00,-0.00,0.00,0.00,0.00,0.00,0.00,-0.00,0.00,-0.00,0.00,0.00,0.00,0.00,819,819,819,819
8063,0,0.00,0.00,0.00,0.00,-0.00,-0.00,0.00,0.00,0.00,0.00,-0.00,0.00,0.00,0.00,0.00,0.00,0.00,819,819,819,819
8073,0,0.00,0.00,0.00,-0.00,0.00,-0.00,0.00,0.00,0.00,0.00,0.00,0.00,0.00,0.00,0.00,0.00,0.00,819,819,819,819
8083,0,0.00,0.00,0.00,0.00,-0.00,0.00,0.00,0.00,0.00,0.00,-0.00,0.00,-0.00,0.00,0.00,0.00,0.00,819,819,819,819
8090,0,0.00,0.00,0.00,0.00,-0.00,0.00,0.00,0.00,0.00,0.00,-0.00,0.00,-0.00,0.00,0.00,0.00,0.00,819,819,819,819
8098,0,0.00,0.00,0.00,0.00,-0.00,0.00,0.00,0.00,0.00,0.00,-0.00,0.00,-0.00,0.00,0.00,0.00,0.00,819,819,819,819
8106,0,0.00,0.00,0.00,-0.00,-0.00,-0.00,0.04,0.00,0.00,0.00,0.00,0.00,0.00,0.04,0.04,0.04,0.04,850,850,866,850
8115,0,0.00,0.00,0.00,-0.00,-0.00,0.00,0.05,0.00,0.00,0.00,0.00,0.00,-0.00,0.05,0.05,0.05,0.05,857,857,874,857
8126,0,0.00,0.00,0.00,-0.00,-0.00,0.00,0.05,0.00,0.00,0.00,0.00,0.00,-0.00,0.05,0.05,0.05,0.05,862,862,879,862
8136,0,0.00,0.00,0.00,-0.00,-0.00,0.00,0.05,0.00,0.00,0.00,0.00,0.00,-0.00,0.05,0.05,0.05,0.05,862,862,879,862
8145,0,0.00,0.00,0.00,-0.00,-0.00,-0.00,0.06,0.00,0.00,0.00,0.00,0.00,0.00,0.06,0.06,0.06,0.06,870,869,886,869
8155,0,0.00,0.00,0.00,-0.00,-0.00,-0.00,0.06,0.00,0.00,0.00,0.00,0.00,0.00,0.06,0.06,0.06,0.06,870,869,886,869
8164,0,0.00,0.00,0.00,-0.00,-0.00,0.00,0.06,0.00,0.00,0.00,0.00,0.00,-0.00,0.07,0.06,0.07,0.06,872,872,888,872
8174,0,0.00,0.00,0.00,-0.00,-0.00,-0.00,0.07,0.00,0.00,0.00,0.00,0.00,0.00,0.07,0.07,0.07,0.07,873,873,889,873
8184,0,0.00,0.00,0.00,0.00,-0.00,0.00,0.07,0.00,0.00,0.00,-0.00,0.00,-0.00,0.07,0.07,0.07,0.07,873,873,889,873
8194,0,0.00,0.00,0.00,0.00,0.00,0.00,0.07,0.00,0.00,0.00,-0.00,0.00,-0.00,0.07,0.07,0.07,0.07,873,873,889,873
8203,0,0.00,0.00,0.00,0.00,-0.00,0.00,0.07,0.00,0.00,0.00,-0.00,0.00,-0.00,0.07,0.07,0.07,0.07,873,873,889,873
8213,0,0.00,0.00,0.00,0.00,-0.00,-0.00,0.07,0.00,0.00,0.00,-0.00,0.00,0.00,0.07,0.07,0.07,0.07,873,873,889,873
8223,0,0.00,0.00,0.00,0.00,0.00,0.00,0.07,0.00,0.00,0.00,-0.00,0.00,-0.00,0.07,0.07,0.07,0.07,873,873,889,873
8233,0,0.00,0.00,0.00,0.00,-0.00,-0.00,0.06,0.00,0.00,0.00,-0.00,0.00,0.00,0.07,0.06,0.07,0.06,872,872,888,872
8240,0,0.00,0.00,0.00,0.00,-0.00,-0.00,0.06,0.00,0.00,0.00,-0.00,0.00,0.00,0.07,0.06,0.07,0.06,872,872,888,872
8249,0,0.00,0.00,0.00,-0.00,-0.00,-0.00,0.06,0.00,0.00,0.00,0.00,0.00,0.00,0.07,0.06,0.07,0.06,872,872,888,872
8256,0,0.00,0.00,0.00,0.00,-0.00,0.00,0.06,0.00,0.00,0.00,-0.00,0.00,-0.00,0.07,0.06,0.07,0.06,872,872,888,872
8265,0,0.00,0.00,0.00,0.00,-0.00,0.00,0.06,0.00,0.00,0.00,-0.00,0.00,-0.00,0.07,0.06,0.07,0.06,872,872,888,872
8275,0,0.00,0.00,0.00,0.00,-0.00,0.00,0.06,0.00,0.00,0.00,-0.00,0.00,-0.00,0.07,0.06,0.07,0.06,872,872,888,872
8286,0,0.00,0.00,0.00,0.00,-0.00,-0.00,0.06,0.00,0.00,0.00,-0.00,0.00,0.00,0.07,0.06,0.07,0.06,872,872,888,872
8295,0,0.00,0.00,0.00,0.00,-0.00,-0.00,0.07,0.00,0.00,0.00,-0.00,0.00,0.00,0.07,0.07,0.07,0.07,873,873,889,873
8305,0,0.00,0.00,0.00,-0.00,-0.00,0.00,0.07,0.00,0.00,0.00,0.00,0.00,-0.00,0.07,0.07,0.07,0.07,873,873,889,873
8315,0,0.00,0.00,0.00,-0.00,-0.00,0.00,0.07,0.00,0.00,0.00,0.00,0.00,-0.00,0.07,0.07,0.07,0.07,873,873,889,873
8324,0,0.00,0.00,0.00,-0.00,-0.00,-0.00,0.07,0.00,0.00,0.00,0.00,0.00,0.00,0.07,0.07,0.07,0.07,873,873,889,873
8334,0,0.00,0.00,0.00,-0.00,-0.00,-0.00,0.07,0.00,0.00,0.00,0.00,0.00,0.00,0.07,0.07,0.07,0.07,874,873,890,873
8344,0,0.00,0.00,0.00,-0.00,-0.00,0.00,0.07,0.00,0.00,0.00,0.00,0.00,-0.00,0.07,0.07,0.07,0.07,874,873,890,873
8354,0,0.00,0.00,0.00,0.00,-0.00,0.00,0.07,0.00,0.00,0.00,-0.00,0.00,-0.00,0.07,0.07,0.07,0.07,874,873,890,873
8364,0,0.00,0.00,0.00,-0.00,-0.00,0.00,0.07,0.00,0.00,0.00,0.00,0.00,-0.00,0.07,0.07,0.07,0.07,876,876,893,876
8374,0,0.00,0.00,0.00,-0.00,-0.00,0.00,0.07,0.00,0.00,0.00,0.00,0.00,-0.00,0.07,0.07,0.07,0.07,877,877,893,877
8384,0,0.00,0.00,0.00,0.00,-0.00,0.00,0.07,0.00,0.00,0.00,-0.00,0.00,-0.00,0.07,0.07,0.07,0.07,877,877,893,877
8392,0,0.00,0.00,0.00,-0.00,-0.00,0.00,0.07,0.00,0.00,0.00,0.00,0.00,-0.00,0.07,0.07,0.07,0.07,879,878,895,878
8402,0,0.00,0.00,0.00,0.00,-0.00,-0.00,0.07,0.00,0.00,0.00,-0.00,0.00,0.00,0.07,0.07,0.07,0.07,879,879,896,879
8415,0,0.00,0.00,0.00,0.00,0.00,-0.00,0.07,0.00,0.00,0.00,-0.00,0.00,0.00,0.07,0.07,0.07,0.07,879,879,896,879
8426,0,0.00,0.00,0.00,0.00,-0.00,-0.00,0.08,0.00,0.00,0.00,-0.00,0.00,0.00,0.08,0.08,0.08,0.08,881,881,897,881
8436,0,0.00,0.00,0.00,0.00,-0.00,-0.00,0.08,0.00,0.00,0.00,-0.00,0.00,0.00,0.08,0.08,0.08,0.08,882,882,898,882
8445,0,0.00,0.00,0.00,-0.00,-0.00,-0.00,0.08,0.00,0.00,0.00,0.00,0.00,0.00,0.08,0.08,0.08,0.08,882,882,898,882
8455,0,0.00,0.00,0.00,0.00,-0.00,0.00,0.08,0.00,0.00,0.00,-0.00,0.00,-0.00,0.08,0.08,0.08,0.08,884,883,900,883
8465,0,0.00,0.00,0.00,0.00,-0.00,-0.00,0.09,0.00,0.00,0.00,-0.00,0.00,0.00,0.09,0.09,0.09,0.09,889,889,906,889
8475,0,0.00,0.00,0.00,0.00,0.00,-0.00,0.09,0.00,0.00,0.00,-0.00,0.00,0.00,0.09,0.09,0.09,0.09,890,890,907,890
8485,0,0.00,0.00,0.00,-0.00,-0.00,0.00,0.09,0.00,0.00,0.00,0.00,0.00,-0.00,0.09,0.09,0.09,0.09,890,890,907,890
8494,0,0.00,0.00,0.00,-0.00,-0.00,0.00,0.09,0.00,0.00,0.00,0.00,0.00,-0.00,0.09,0.09,0.09,0.09,894,894,911,894
8504,0,0.00,0.00,0.00,0.00,0.00,-0.00,0.09,0.00,0.00,0.00,-0.00,0.00,0.00,0.09,0.09,0.09,0.09,894,894,911,894
8515,0,0.00,0.00,0.00,-0.00,-0.00,-0.00,0.09,0.00,0.00,0.00,0.00,0.00,0.00,0.09,0.09,0.09,0.09,894,894,911,894
8525,0,0.00,0.00,0.00,0.00,0.00,0.00,0.09,0.00,0.00,0.00,-0.00,0.00,-0.00,0.09,0.09,0.09,0.09,894,894,911,894
8535,0,0.00,0.00,0.00,0.00,-0.00,0.00,0.10,0.00,0.00,0.00,-0.00,0.00,-0.00,0.10,0.10,0.10,0.10,898,898,915,898
8543,0,0.00,0.00,0.00,-0.00,-0.00,0.00,0.10,0.00,0.00,0.00,0.00,0.00,-0.00,0.10,0.10,0.10,0.10,898,898,915,898
8553,0,0.00,0.00,0.00,0.00,-0.00,0.00,0.10,0.00,0.00,0.00,-0.00,0.00,-0.00,0.10,0.10,0.10,0.10,898,898,915,898
8565,0,0.00,0.00,0.00,0.00,-0.00,-0.00,0.10,0.00,0.00,0.00,-0.00,0.00,0.00,0.10,0.10,0.10,0.10,898,898,915,898
8575,0,0.00,0.00,0.00,-0.00,-0.00,-0.00,0.10,0.00,0.00,0.00,0.00,0.00,0.00,0.10,0.10,0.10,0.10,899,899,916,899
8585,0,0.00,0.00,0.00,0.00,0.00,0.00,0.10,0.00,0.00,0.00,-0.00,0.00,-0.00,0.10,0.10,0.10,0.10,899,899,916,899
8594,0,0.00,0.00,0.00,0.00,0.00,0.00,0.10,0.00,0.00,0.00,-0.00,0.00,-0.00,0.10,0.10,0.10,0.10,899,899,916,899
8603,0,0.00,0.00,0.00,0.00,0.00,0.00,0.10,0.00,0.00,0.00,-0.00,0.00,-0.00,0.10,0.10,0.10,0.10,899,899,916,899
8613,0,0.00,0.00,0.00,-0.00,-0.00,-0.00,0.10,0.00,0.00,0.00,0.00,0.00,0.00,0.10,0.10,0.10,0.10,900,899,916,899
8623,0,0.00,0.00,0.00,0.00,0.00,-0.00,0.10,0.00,0.00,0.00,-0.00,0.00,0.00,0.10,0.10,0.10,0.10,900,899,916,899
8633,0,0.00,0.00,0.00,0.00,-0.00,-0.00,0.10,0.00,0.00,0.00,-0.00,0.00,0.00,0.10,0.10,0.10,0.10,901,900,917,900
8641,0,0.00,0.00,0.00,0.00,-0.00,0.00,0.10,0.00,0.00,0.00,-0.00,0.00,-0.00,0.10,0.10,0.10,0.10,901,900,917,900
8648,0,0.00,0.00,0.00,-0.00,0.00,0.00,0.10,0.00,0.00,0.00,0.00,0.00,-0.00,0.10,0.10,0.10,0.10,901,900,917,900
8657,0,0.00,0.00,0.00,0.00,-0.00,0.00,0.10,0.00,0.00,0.00,-0.00,0.00,-0.00,0.10,0.10,0.10,0.10,901,900,917,900
8666,0,0.00,0.00,0.00,0.00,-0.00,0.00,0.10,0.00,0.00,0.00,-0.00,0.00,-0.00,0.10,0.10,0.10,0.10,901,900,917,900
8676,0,0.00,0.00,0.00,-0.00,0.00,-0.00,0.10,0.00,0.00,0.00,0.00,0.00,0.00,0.10,0.10,0.10,0.10,901,900,917,900
8685,0,0.00,0.00,0.00,0.00,-0.00,-0.00,0.10,0.00,0.00,0.00,-0.00,0.00,0.00,0.10,0.10,0.10,0.10,901,900,917,900
8693,0,0.00,0.00,0.00,-0.00,0.00,0.00,0.10,0.00,0.00,0.00,0.00,0.00,-0.00,0.10,0.10,0.10,0.10,902,901,918,901
8701,0,0.00,0.00,0.00,-0.00,-0.00,-0.00,0.10,0.00,0.00,0.00,0.00,0.00,0.00,0.10,0.10,0.10,0.10,902,901,918,901
8716,0,0.00,0.00,0.00,0.00,0.00,-0.00,0.10,0.00,0.00,0.00,-0.00,0.00,0.00,0.10,0.10,0.10,0.10,902,902,919,902
8726,0,0.00,0.00,0.00,-0.00,-0.00,0.00,0.10,0.00,0.00,0.00,0.00,0.00,-0.00,0.10,0.10,0.10,0.10,902,902,919,902
8736,0,0.00,0.00,0.00,-0.00,-0.00,0.00,0.10,0.00,0.00,0.00,0.00,0.00,-0.00,0.10,0.10,0.10,0.10,902,902,919,902
8745,0,0.00,0.00,0.00,-0.00,-0.00,0.00,0.10,0.00,0.00,0.00,0.00,0.00,-0.00,0.10,0.10,0.10,0.10,902,902,919,902
8755,0,0.00,0.00,0.00,-0.00,-0.00,-0.00,0.10,0.00,0.00,0.00,0.00,0.00,0.00,0.10,0.10,0.10,0.10,902,902,919,902
8765,0,0.00,0.00,0.00,-0.00,0.00,-0.00,0.10,0.00,0.00,0.00,0.00,0.00,0.00,0.10,0.10,0.10,0.10,903,903,920,903
8775,0,0.00,0.00,0.00,-0.00,0.00,-0.00,0.10,0.00,0.00,0.00,0.00,0.00,0.00,0.10,0.10,0.10,0.10,903,903,920,903
8785,0,0.00,0.00,0.00,0.00,0.00,-0.00,0.10,0.00,0.00,0.00,-0.00,0.00,0.00,0.10,0.10,0.10,0.10,903,903,920,903
8793,0,0.00,0.00,0.00,0.00,-0.00,-0.00,0.10,0.00,0.00,0.00,-0.00,0.00,0.00,0.10,0.10,0.10,0.10,904,904,921,904
8801,0,0.00,0.00,0.00,-0.00,-0.00,0.00,0.10,0.00,0.00,0.00,0.00,0.00,-0.00,0.10,0.10,0.10,0.10,904,904,921,904
8809,0,0.00,0.00,0.00,-0.00,-0.00,0.00,0.10,0.00,0.00,0.00,0.00,0.00,-0.00,0.10,0.10,0.10,0.10,904,904,921,904
8817,0,0.00,0.00,0.00,-0.00,0.00,0.00,0.10,0.00,0.00,0.00,0.00,0.00,-0.00,0.10,0.10,0.10,0.10,904,904,921,904
8826,0,0.00,0.00,0.00,-0.00,0.00,0.00,0.10,0.00,0.00,0.00,0.00,0.00,-0.00,0.11,0.10,0.11,0.10,905,904,921,904
8836,0,0.00,0.00,0.00,0.00,0.00,-0.00,0.11,0.00,0.00,0.00,-0.00,0.00,0.00,0.11,0.11,0.11,0.11,906,905,922,905
8846,0,0.00,0.00,0.00,-0.00,0.00,0.00,0.11,0.00,0.00,0.00,0.00,0.00,-0.00,0.11,0.11,0.11,0.11,906,905,922,905
8856,0,0.00,0.00,0.00,0.00,-0.00,0.00,0.11,0.00,0.00,0.00,-0.00,0.00,-0.00,0.11,0.11,0.11,0.11,908,908,925,908
8866,0,0.00,0.00,0.00,0.00,0.00,-0.00,0.11,0.00,0.00,0.00,-0.00,0.00,0.00,0.11,0.11,0.11,0.11,909,908,925,908
8875,0,0.00,0.00,0.00,0.00,-0.00,-0.00,0.11,0.00,0.00,0.00,-0.00,0.00,0.00,0.11,0.11,0.11,0.11,909,908,925,908
8886,0,0.00,0.00,0.00,-0.00,0.00,-0.00,0.11,0.00,0.00,0.00,0.00,0.00,0.00,0.11,0.11,0.11,0.11,909,908,925,908
8893,0,0.00,0.00,0.00,0.00,0.00,-0.00,0.11,0.00,0.00,0.00,-0.00,0.00,0.00,0.11,0.11,0.11,0.11,912,911,928,911
8903,0,0.00,0.00,0.00,0.00,0.00,-0.00,0.11,0.00,0.00,0.00,-0.00,0.00,0.00,0.11,0.11,0.11,0.11,912,911,928,911
8910,0,0.00,0.00,0.00,-0.00,0.00,0.00,0.12,0.00,0.00,0.00,0.00,0.00,-0.00,0.12,0.12,0.12,0.12,916,916,933,916
8918,0,0.00,0.00,0.00,-0.00,-0.00,0.00,0.12,0.00,0.00,0.00,0.00,0.00,-0.00,0.12,0.12,0.12,0.12,917,917,934,917
8927,0,0.00,0.00,0.00,-0.00,0.00,0.00,0.12,0.00,0.00,0.00,0.00,0.00,-0.00,0.12,0.12,0.12,0.12,917,917,934,917
8937,0,0.00,0.00,0.00,-0.00,0.00,0.00,0.12,0.00,0.00,0.00,0.00,0.00,-0.00,0.12,0.12,0.12,0.12,917,917,934,917
8946,0,0.00,0.00,0.00,-0.00,-0.00,0.00,0.12,0.00,0.00,0.00,0.00,0.00,-0.00,0.12,0.12,0.12,0.12,917,917,934,917
8956,0,0.00,0.00,0.00,-0.00,-0.00,0.00,0.12,0.00,0.00,0.00,0.00,0.00,-0.00,0.12,0.12,0.12,0.12,919,918,935,918
8965,0,0.00,0.00,0.00,-0.00,-0.00,0.00,0.12,0.00,0.00,0.00,0.00,0.00,-0.00,0.12,0.12,0.12,0.12,919,918,935,918
8975,0,0.00,0.00,0.00,-0.00,-0.00,-0.00,0.12,0.00,0.00,0.00,0.00,0.00,0.00,0.12,0.12,0.12,0.12,920,919,936,919
8985,0,0.00,0.00,0.00,-0.00,0.00,-0.00,0.12,0.00,0.00,0.00,0.00,0.00,0.00,0.12,0.12,0.12,0.12,920,919,936,919
8993,0,0.00,0.00,0.00,-0.00,0.00,-0.00,0.12,0.00,0.00,0.00,0.00,0.00,0.00,0.12,0.12,0.12,0.12,920,919,936,919
9007,0,0.00,0.00,0.00,-0.00,0.00,-0.00,0.12,0.00,0.00,0.00,0.00,0.00,0.00,0.12,0.12,0.12,0.12,920,919,936,919
9017,0,0.00,0.00,0.00,-0.00,0.00,0.00,0.12,0.00,0.00,0.00,0.00,0.00,-0.00,0.12,0.12,0.12,0.12,920,919,936,919
9027,0,0.00,0.00,0.00,-0.00,0.00,0.00,0.12,0.00,0.00,0.00,0.00,0.00,-0.00,0.12,0.12,0.12,0.12,921,920,937,920
9037,0,0.00,0.00,0.00,-0.00,0.00,-0.00,0.12,0.00,0.00,0.00,0.00,0.00,0.00,0.12,0.12,0.12,0.12,921,920,937,920
9047,0,0.00,0.00,0.00,-0.00,0.00,-0.00,0.12,0.00,0.00,0.00,0.00,0.00,0.00,0.12,0.12,0.12,0.12,921,920,937,920
9057,0,0.00,0.00,0.00,-0.00,0.00,-0.00,0.12,0.00,0.00,0.00,0.00,0.00,0.00,0.12,0.12,0.12,0.12,921,920,937,920
9067,0,0.00,0.00,0.00,-0.00,0.00,0.00,0.12,0.00,0.00,0.00,0.00,0.00,-0.00,0.12,0.12,0.12,0.12,921,920,937,920
9077,0,0.00,0.00,0.00,-0.00,-0.00,0.00,0.12,0.00,0.00,0.00,0.00,0.00,-0.00,0.12,0.12,0.12,0.12,921,920,937,920
9088,0,0.00,0.00,0.00,-0.00,-0.00,0.00,0.12,0.00,0.00,0.00,0.00,0.00,-0.00,0.12,0.12,0.12,0.12,921,920,937,920
9097,0,0.00,0.00,0.00,-0.00,-0.00,0.00,0.12,0.00,0.00,0.00,0.00,0.00,-0.00,0.12,0.12,0.12,0.12,921,920,937,920
9107,0,0.00,0.00,0.00,-0.00,0.00,0.00,0.12,0.00,0.00,0.00,0.00,0.00,-0.00,0.12,0.12,0.12,0.12,921,920,937,920
9117,0,0.00,0.00,0.00,-0.00,0.00,0.00,0.12,0.00,0.00,0.00,0.00,0.00,-0.00,0.12,0.12,0.12,0.12,921,920,937,920
9127,0,0.00,0.00,0.00,-0.00,0.00,-0.00,0.12,0.00,0.00,0.00,0.00,0.00,0.00,0.13,0.12,0.13,0.12,921,921,938,921
9137,0,0.00,0.00,0.00,-0.00,0.00,-0.00,0.12,0.00,0.00,0.00,0.00,0.00,0.00,0.13,0.12,0.13,0.12,921,921,938,921
9148,0,0.00,0.00,0.00,-0.00,0.00,-0.00,0.12,0.00,0.00,0.00,0.00,0.00,0.00,0.13,0.12,0.13,0.12,921,921,938,921
9157,0,0.00,0.00,0.00,-0.00,0.00,-0.00,0.13,0.00,0.00,0.00,0.00,0.00,0.00,0.13,0.13,0.13,0.13,922,921,939,921
9167,0,0.00,0.00,0.00,-0.00,-0.00,-0.00,0.13,0.00,0.00,0.00,0.00,0.00,0.00,0.13,0.13,0.13,0.13,922,921,939,921
9178,0,0.00,0.00,0.00,-0.00,-0.00,0.00,0.13,0.00,0.00,0.00,0.00,0.00,-0.00,0.13,0.13,0.13,0.13,922,921,939,921
9188,0,0.00,0.00,0.00,-0.00,-0.00,0.00,0.13,0.00,0.00,0.00,0.00,0.00,-0.00,0.13,0.13,0.13,0.13,924,923,940,923
9197,0,0.00,0.00,0.00,-0.00,-0.00,0.00,0.13,0.00,0.00,0.00,0.00,0.00,-0.00,0.13,0.13,0.13,0.13,925,924,941,924
9207,0,0.00,0.00,0.00,-0.00,0.00,0.00,0.13,0.00,0.00,0.00,0.00,0.00,-0.00,0.13,0.13,0.13,0.13,925,924,941,924
9218,0,0.00,0.00,0.00,0.00,-0.00,-0.00,0.13,0.00,0.00,0.00,-0.00,0.00,0.00,0.13,0.13,0.13,0.13,925,924,941,924
9227,0,0.00,0.00,0.00,0.00,-0.00,-0.00,0.13,0.00,0.00,0.00,-0.00,0.00,0.00,0.13,0.13,0.13,0.13,927,926,944,926
9238,0,0.00,0.00,0.00,-0.00,-0.00,-0.00,0.13,0.00,0.00,0.00,0.00,0.00,0.00,0.13,0.13,0.13,0.13,927,926,944,926
9247,0,0.00,0.00,0.00,0.00,0.00,-0.00,0.13,0.00,0.00,0.00,-0.00,0.00,0.00,0.13,0.13,0.13,0.13,927,926,944,926
9257,0,0.00,0.00,0.00,-0.00,-0.00,-0.00,0.13,0.00,0.00,0.00,0.00,0.00,0.00,0.13,0.13,0.13,0.13,929,928,945,928
9267,0,0.00,0.00,0.00,-0.00,0.00,-0.00,0.13,0.00,0.00,0.00,0.00,0.00,0.00,0.13,0.13,0.13,0.13,929,928,945,928
9277,0,0.00,0.00,0.00,-0.00,0.00,0.00,0.13,0.00,0.00,0.00,0.00,0.00,-0.00,0.13,0.13,0.13,0.13,929,928,945,928
9287,0,0.00,0.00,0.00,0.00,0.00,0.00,0.14,0.00,0.00,0.00,-0.00,0.00,-0.00,0.14,0.13,0.14,0.13,930,929,946,929
9296,0,0.00,0.00,0.00,-0.00,-0.00,0.00,0.14,0.00,0.00,0.00,0.00,0.00,-0.00,0.14,0.14,0.14,0.14,931,930,948,930
9306,0,0.00,0.00,0.00,-0.00,-0.00,0.00,0.14,0.00,0.00,0.00,0.00,0.00,-0.00,0.14,0.14,0.14,0.14,931,930,948,930
9319,0,0.00,0.00,0.00,-0.00,0.00,-0.00,0.14,0.00,0.00,0.00,0.00,0.00,0.00,0.14,0.14,0.14,0.14,931,930,948,930
9328,0,0.00,0.00,0.00,-0.00,0.00,-0.00,0.14,0.00,0.00,0.00,0.00,0.00,0.00,0.14,0.14,0.14,0.14,931,930,948,930
9338,0,0.00,0.00,0.00,-0.00,0.00,-0.00,0.14,0.00,0.00,0.00,0.00,0.00,0.00,0.14,0.14,0.14,0.14,931,930,948,930
9347,0,0.00,0.00,0.00,-0.00,-0.00,-0.00,0.14,0.00,0.00,0.00,0.00,0.00,0.00,0.14,0.14,0.14,0.14,931,930,948,930
9358,0,0.00,0.00,0.00,-0.00,-0.00,0.00,0.14,0.00,0.00,0.00,0.00,0.00,-0.00,0.14,0.14,0.14,0.14,931,930,948,930
9367,0,0.00,0.00,0.00,-0.00,-0.00,0.00,0.14,0.00,0.00,0.00,0.00,0.00,-0.00,0.14,0.14,0.14,0.14,932,931,949,931
9377,0,0.00,0.00,0.00,-0.00,-0.00,0.00,0.14,0.00,0.00,0.00,0.00,0.00,-0.00,0.14,0.14,0.14,0.14,932,931,949,931
9388,0,0.00,0.00,0.00,-0.00,0.00,0.00,0.14,0.00,0.00,0.00,0.00,0.00,-0.00,0.14,0.14,0.14,0.14,932,931,949,931
9396,0,0.00,0.00,0.00,-0.00,0.00,0.00,0.14,0.00,0.00,0.00,0.00,0.00,-0.00,0.14,0.14,0.14,0.14,932,931,949,931
9406,0,0.00,0.00,0.00,-0.00,0.00,-0.00,0.14,0.00,0.00,0.00,0.00,0.00,0.00,0.14,0.14,0.14,0.14,932,931,949,931
9416,0,0.00,0.00,0.00,-0.00,-0.00,-0.00,0.14,0.00,0.00,0.00,0.00,0.00,0.00,0.14,0.14,0.14,0.14,932,931,949,931
9426,0,0.00,0.00,0.00,-0.00,0.00,-0.00,0.14,0.00,0.00,0.00,0.00,0.00,0.00,0.14,0.14,0.14,0.14,933,932,949,932
9436,0,0.00,0.00,0.00,0.00,0.00,0.00,0.14,0.00,0.00,0.00,-0.00,0.00,-0.00,0.14,0.14,0.14,0.14,933,932,949,932
9444,0,0.00,0.00,0.00,-0.00,-0.00,0.00,0.14,0.00,0.00,0.00,0.00,0.00,-0.00,0.14,0.14,0.14,0.14,933,932,949,932
9451,0,0.00,0.00,0.00,-0.00,-0.00,0.00,0.14,0.00,0.00,0.00,0.00,0.00,-0.00,0.14,0.14,0.14,0.14,933,932,949,932
9459,0,0.00,0.00,0.00,-0.00,0.00,0.00,0.14,0.00,0.00,0.00,0.00,0.00,-0.00,0.14,0.14,0.14,0.14,933,932,949,932
9468,0,0.00,0.00,0.00,-0.00,-0.00,-0.00,0.14,0.00,0.00,0.00,0.00,0.00,0.00,0.14,0.14,0.14,0.14,933,932,949,932
9478,0,0.00,0.00,0.00,-0.00,-0.00,-0.00,0.14,0.00,0.00,0.00,0.00,0.00,0.00,0.14,0.14,0.14,0.14,933,932,949,932
9487,0,0.00,0.00,0.00,-0.00,0.00,-0.00,0.14,0.00,0.00,0.00,0.00,0.00,0.00,0.14,0.14,0.14,0.14,936,935,953,935
9496,0,0.00,0.00,0.00,-0.00,-0.00,0.00,0.14,0.00,0.00,0.00,0.00,0.00,-0.00,0.14,0.14,0.14,0.14,936,935,953,935
9506,0,0.00,0.00,0.00,0.00,-0.00,0.00,0.14,0.00,0.00,0.00,-0.00,0.00,-0.00,0.14,0.14,0.14,0.14,936,935,953,935
9515,0,0.00,0.00,0.00,-0.00,0.00,0.00,0.14,0.00,0.00,0.00,0.00,0.00,-0.00,0.14,0.14,0.14,0.14,936,935,953,935
9524,0,0.00,0.00,0.00,-0.00,0.00,0.00,0.14,0.00,0.00,0.00,0.00,0.00,-0.00,0.14,0.14,0.14,0.14,936,935,953,935
9532,0,0.00,0.00,0.00,-0.00,-0.00,0.00,0.14,0.00,0.00,0.00,0.00,0.00,-0.00,0.14,0.14,0.14,0.14,937,936,953,936
9540,0,0.00,0.00,0.00,0.00,0.00,0.00,0.15,0.00,0.00,0.00,-0.00,0.00,-0.00,0.15,0.15,0.15,0.15,940,939,957,939
9549,0,0.00,0.00,0.00,-0.00,-0.00,-0.00,0.15,0.00,0.00,0.00,0.00,0.00,0.00,0.15,0.15,0.15,0.15,942,941,958,941
9558,0,0.00,0.00,0.00,-0.00,-0.00,-0.00,0.15,0.00,0.00,0.00,0.00,0.00,0.00,0.15,0.15,0.15,0.15,944,943,960,943
9568,0,0.00,0.00,0.00,-0.00,0.00,-0.00,0.15,0.00,0.00,0.00,0.00,0.00,0.00,0.15,0.15,0.15,0.15,944,943,961,943
9578,0,0.00,0.00,0.00,-0.00,0.00,-0.00,0.15,0.00,0.00,0.00,0.00,0.00,0.00,0.15,0.15,0.15,0.15,944,943,961,943
9588,0,0.00,0.00,0.00,-0.00,0.00,-0.00,0.16,0.00,0.00,0.00,0.00,0.00,0.00,0.16,0.15,0.16,0.15,946,945,963,945
9595,0,0.00,0.00,0.00,-0.00,-0.00,-0.00,0.16,0.00,0.00,0.00,0.00,0.00,0.00,0.16,0.15,0.16,0.15,946,945,963,945
9609,0,0.00,0.00,0.00,0.00,-0.00,0.00,0.16,0.00,0.00,0.00,0.00,0.00,-0.00,0.16,0.15,0.16,0.15,946,945,963,945
9619,0,0.00,0.00,0.00,-0.00,0.00,0.00,0.16,0.00,0.00,0.00,0.00,0.00,-0.00,0.16,0.16,0.16,0.16,947,946,963,946
9629,0,0.00,0.00,0.00,-0.00,0.00,0.00,0.16,0.00,0.00,0.00,0.00,0.00,-0.00,0.16,0.16,0.16,0.16,947,946,963,946
9638,0,0.00,0.00,0.00,-0.00,0.00,0.00,0.16,0.00,0.00,0.00,0.00,0.00,-0.00,0.16,0.16,0.16,0.16,947,946,963,946
9648,0,0.00,0.00,0.00,-0.00,0.00,0.00,0.16,0.00,0.00,0.00,0.00,0.00,-0.00,0.16,0.16,0.16,0.16,947,946,963,946
9658,0,0.00,0.00,0.00,-0.00,0.00,-0.00,0.16,0.00,0.00,0.00,0.00,0.00,0.00,0.16,0.16,0.16,0.16,948,947,964,947
9668,0,0.00,0.00,0.00,-0.00,0.00,-0.00,0.16,0.00,0.00,0.00,0.00,0.00,0.00,0.16,0.16,0.16,0.16,948,947,964,947
9677,0,0.00,0.00,0.00,-0.00,-0.00,-0.00,0.16,0.00,0.00,0.00,0.00,0.00,0.00,0.16,0.16,0.16,0.16,948,947,964,947
9687,0,0.00,0.00,0.00,-0.00,-0.00,0.00,0.16,0.00,0.00,0.00,0.00,0.00,-0.00,0.16,0.16,0.16,0.16,948,947,964,947
9694,0,0.00,0.00,0.00,-0.00,-0.00,-0.00,0.16,0.00,0.00,0.00,0.00,0.00,0.00,0.16,0.16,0.16,0.16,949,948,965,948
9707,0,0.00,0.00,0.00,-0.00,-0.00,-0.00,0.16,0.00,0.00,0.00,0.00,0.00,0.00,0.16,0.16,0.16,0.16,949,948,965,948
9717,0,0.00,0.00,0.00,-0.00,0.00,-0.00,0.16,0.00,0.00,0.00,0.00,0.00,0.00,0.16,0.16,0.16,0.16,948,947,965,948
9727,0,0.00,0.00,0.00,-0.00,0.00,-0.00,0.16,0.00,0.00,0.00,0.00,0.00,0.00,0.16,0.16,0.16,0.16,949,948,966,949
9736,0,0.00,0.00,0.00,-0.00,-0.00,0.00,0.16,0.00,0.00,0.00,0.00,0.00,-0.00,0.16,0.16,0.16,0.16,949,948,966,949
9744,0,0.00,0.00,0.00,-0.00,-0.00,0.00,0.16,0.00,0.00,0.00,0.00,0.00,-0.00,0.16,0.16,0.16,0.16,949,948,966,948
9752,0,0.00,0.00,0.00,-0.00,-0.00,0.00,0.16,0.00,0.00,0.00,0.00,0.00,-0.00,0.16,0.16,0.16,0.16,949,948,966,948
9760,0,0.00,0.00,0.00,-0.00,-0.00,0.00,0.16,0.00,0.00,0.00,0.00,0.00,-0.00,0.16,0.16,0.16,0.16,949,948,966,948
9769,0,0.00,0.00,0.00,-0.00,-0.00,0.00,0.16,0.00,0.00,0.00,0.00,0.00,-0.00,0.16,0.16,0.16,0.16,949,948,966,948
9779,0,0.00,0.00,0.00,-0.00,-0.00,0.00,0.16,0.00,0.00,0.00,0.00,0.00,-0.00,0.16,0.16,0.16,0.16,952,951,968,951
9789,0,0.00,0.00,0.00,0.00,0.00,0.00,0.16,0.00,0.00,0.00,0.00,0.00,-0.00,0.16,0.16,0.16,0.16,953,952,969,952
9798,0,0.00,0.00,0.00,0.00,0.00,0.00,0.16,0.00,0.00,0.00,0.00,0.00,-0.00,0.16,0.16,0.16,0.16,953,952,969,952
9808,0,0.00,0.00,0.00,-0.00,0.00,0.00,0.16,0.00,0.00,0.00,0.00,0.00,-0.00,0.16,0.16,0.16,0.16,953,952,969,952
9818,0,0.00,0.00,0.00,-0.00,-0.00,0.00,0.17,0.00,0.00,0.00,0.00,0.00,-0.00,0.17,0.17,0.17,0.17,955,954,972,954
9828,0,0.00,0.00,0.00,-0.00,-0.00,-0.00,0.17,0.00,0.00,0.00,0.00,0.00,0.00,0.17,0.17,0.17,0.17,955,954,972,954
9838,0,0.00,0.00,0.00,-0.00,-0.00,-0.00,0.17,0.00,0.00,0.00,0.00,0.00,0.00,0.17,0.17,0.17,0.17,956,955,972,955
9848,0,0.00,0.00,0.00,-0.00,0.00,-0.00,0.17,0.00,0.00,0.00,0.00,0.00,0.00,0.17,0.17,0.17,0.17,956,955,972,955
9858,0,0.00,0.00,0.00,-0.00,-0.00,-0.00,0.17,0.00,0.00,0.00,0.00,0.00,0.00,0.17,0.17,0.17,0.17,956,955,973,955
9868,0,0.00,0.00,0.00,-0.00,-0.00,-0.00,0.17,0.00,0.00,0.00,0.00,0.00,0.00,0.17,0.17,0.17,0.17,957,956,973,956
9878,0,0.00,0.00,0.00,-0.00,0.00,0.00,0.17,0.00,0.00,0.00,0.00,0.00,-0.00,0.17,0.17,0.17,0.17,957,956,973,956
9888,0,0.00,0.00,0.00,-0.00,-0.00,0.00,0.17,0.00,0.00,0.00,0.00,0.00,-0.00,0.17,0.17,0.17,0.17,957,956,974,957
9900,0,0.00,0.00,0.00,0.00,-0.00,0.00,0.17,0.00,0.00,0.00,0.00,0.00,-0.00,0.17,0.17,0.17,0.17,957,956,974,957
9910,0,0.00,0.00,0.00,-0.00,-0.00,0.00,0.17,0.00,0.00,0.00,0.00,0.00,-0.00,0.17,0.17,0.17,0.17,958,956,974,957
9920,0,0.00,0.00,0.00,-0.00,-0.00,0.00,0.17,0.00,0.00,0.00,0.00,0.00,-0.00,0.17,0.17,0.17,0.17,958,957,975,957
9929,0,0.00,0.00,0.00,-0.00,-0.00,0.00,0.17,0.00,0.00,0.00,0.00,0.00,-0.00,0.17,0.17,0.17,0.17,959,958,976,958
9939,0,0.00,0.00,0.00,-0.00,0.00,0.00,0.17,0.00,0.00,0.00,0.00,0.00,-0.00,0.17,0.17,0.17,0.17,959,958,976,958
9947,0,0.00,0.00,0.00,0.00,0.00,-0.00,0.17,0.00,0.00,0.00,0.00,0.00,0.00,0.17,0.17,0.17,0.17,959,958,976,958
9955,0,0.00,0.00,0.00,0.00,0.00,-0.00,0.17,0.00,0.00,0.00,0.00,0.00,0.00,0.17,0.17,0.17,0.17,960,959,977,959
9963,0,0.00,0.00,0.00,0.00,-0.00,-0.00,0.17,0.00,0.00,0.00,0.00,0.00,0.00,0.17,0.17,0.17,0.17,962,961,978,961
9971,0,0.00,0.00,0.00,0.00,-0.00,-0.00,0.17,0.00,0.00,0.00,0.00,0.00,0.00,0.17,0.17,0.17,0.17,962,960,978,961
9980,0,0.00,0.00,0.00,-0.00,-0.00,-0.00,0.17,0.00,0.00,0.00,0.00,0.00,0.00,0.18,0.17,0.18,0.17,962,961,979,962
9990,0,0.00,0.00,0.00,-0.00,-0.00,-0.00,0.18,0.00,0.00,0.00,0.00,0.00,0.00,0.18,0.18,0.18,0.18,963,962,980,962
9999,0,0.00,0.00,0.00,-0.00,0.00,-0.00,0.18,0.00,0.00,0.00,0.00,0.00,0.00,0.18,0.17,0.18,0.18,963,962,980,962
10009,0,0.00,0.00,0.00,-0.00,-0.00,0.00,0.18,0.00,0.00,0.00,0.00,0.00,-0.00,0.18,0.18,0.18,0.18,963,962,980,962
10019,0,0.00,0.00,0.00,-0.00,-0.00,0.00,0.18,0.00,0.00,0.00,0.00,0.00,-0.00,0.18,0.18,0.18,0.18,964,963,981,963
10029,0,0.00,0.00,0.00,-0.00,-0.00,0.00,0.18,0.00,0.00,0.00,0.00,0.00,-0.00,0.18,0.18,0.18,0.18,965,964,982,964
10038,0,0.00,0.00,0.00,-0.00,0.00,0.00,0.18,0.00,0.00,0.00,0.00,0.00,-0.00,0.18,0.18,0.18,0.18,965,964,982,964
10048,0,0.00,0.00,0.00,-0.00,0.00,0.00,0.18,0.00,0.00,0.00,0.00,0.00,-0.00,0.18,0.18,0.18,0.18,965,964,982,964
10057,0,0.00,0.00,0.00,-0.00,0.00,0.00,0.18,0.00,0.00,0.00,0.00,0.00,-0.00,0.18,0.18,0.18,0.18,965,964,982,964
10067,0,0.00,0.00,0.00,-0.00,-0.00,-0.00,0.18,0.00,0.00,0.00,0.00,0.00,0.00,0.18,0.18,0.18,0.18,966,965,982,965
10076,0,0.00,0.00,0.00,-0.00,-0.00,-0.00,0.18,0.00,0.00,0.00,0.00,0.00,0.00,0.18,0.18,0.18,0.18,966,965,982,965
10084,0,0.00,0.00,0.00,-0.00,0.00,-0.00,0.18,0.00,0.00,0.00,0.00,0.00,0.00,0.18,0.18,0.18,0.18,966,965,982,965
10091,0,0.00,0.00,0.00,-0.00,0.00,-0.00,0.18,0.00,0.00,0.00,0.00,0.00,0.00,0.18,0.18,0.18,0.18,967,965,983,966
10100,0,0.00,0.00,0.00,-0.00,-0.00,-0.00,0.18,0.00,0.00,0.00,0.00,0.00,0.00,0.18,0.18,0.18,0.18,967,965,983,966
10110,0,0.00,0.00,0.00,-0.00,-0.00,-0.00,0.18,0.00,0.00,0.00,0.00,0.00,0.00,0.18,0.18,0.18,0.18,967,965,983,966
10120,0,0.00,0.00,0.00,-0.00,0.00,-0.00,0.18,0.00,0.00,0.00,0.00,0.00,0.00,0.18,0.18,0.18,0.18,968,966,984,966
10130,0,0.00,0.00,0.00,-0.00,0.00,-0.00,0.18,0.00,0.00,0.00,0.00,0.00,0.00,0.18,0.18,0.18,0.18,968,966,984,966
10140,0,0.00,0.00,0.00,-0.00,0.00,-0.00,0.18,0.00,0.00,0.00,0.00,0.00,0.00,0.18,0.18,0.18,0.18,967,966,984,966
10150,0,0.00,0.00,0.00,-0.00,-0.00,-0.00,0.18,0.00,0.00,0.00,0.00,0.00,0.00,0.18,0.18,0.18,0.18,968,967,985,967
10160,0,0.00,0.00,0.00,-0.00,-0.00,-0.00,0.18,0.00,0.00,0.00,0.00,0.00,0.00,0.18,0.18,0.18,0.18,968,967,985,967
10170,0,0.00,0.00,0.00,-0.00,-0.00,0.00,0.18,0.00,0.00,0.00,0.00,0.00,-0.00,0.18,0.18,0.18,0.18,968,967,985,967
10181,0,0.00,0.00,0.00,-0.00,0.00,0.00,0.18,0.00,0.00,0.00,0.00,0.00,-0.00,0.18,0.18,0.18,0.18,968,967,985,967
10192,0,0.00,0.00,0.00,0.00,-0.00,0.00,0.18,0.00,0.00,0.00,0.00,0.00,-0.00,0.18,0.18,0.18,0.18,969,968,986,968
10202,0,0.00,0.00,0.00,-0.00,-0.00,0.00,0.18,0.00,0.00,0.00,0.00,0.00,-0.00,0.18,0.18,0.18,0.18,969,968,986,968
10211,0,0.00,0.00,0.00,-0.00,-0.00,0.00,0.18,0.00,0.00,0.00,0.00,0.00,-0.00,0.18,0.18,0.18,0.18,970,969,987,969
10220,0,0.00,0.00,0.00,-0.00,-0.00,0.00,0.18,0.00,0.00,0.00,0.00,0.00,-0.00,0.18,0.18,0.18,0.18,970,969,987,969
10230,0,0.00,0.00,0.00,-0.00,-0.00,0.00,0.19,0.00,0.00,0.00,0.00,0.00,-0.00,0.19,0.18,0.19,0.18,971,969,987,970
10240,0,0.00,0.00,0.00,-0.00,0.00,-0.00,0.19,0.00,0.00,0.00,0.00,0.00,0.00,0.19,0.18,0.19,0.18,971,969,987,970
10250,0,0.00,0.00,0.00,-0.00,-0.00,-0.00,0.19,0.00,0.00,0.00,0.00,0.00,0.00,0.19,0.18,0.19,0.19,971,970,988,971
10258,0,0.00,0.00,0.00,-0.00,-0.00,-0.00,0.19,0.00,0.00,0.00,0.00,0.00,0.00,0.19,0.18,0.19,0.19,971,970,988,971
10267,0,0.00,0.00,0.00,-0.00,-0.00,-0.00,0.19,0.00,0.00,0.00,0.00,0.00,0.00,0.19,0.18,0.19,0.19,971,970,988,971
10277,0,0.00,0.00,0.00,-0.00,0.00,-0.00,0.19,0.00,0.00,0.00,0.00,0.00,0.00,0.19,0.19,0.19,0.19,972,971,989,971
10287,0,0.00,0.00,0.00,-0.00,0.00,-0.00,0.19,0.00,0.00,0.00,0.00,0.00,0.00,0.19,0.19,0.19,0.19,972,971,989,971
10295,0,0.00,0.00,0.00,-0.00,0.00,0.00,0.19,0.00,0.00,0.00,0.00,0.00,-0.00,0.19,0.19,0.19,0.19,972,971,989,971
10302,0,0.00,0.00,0.00,-0.00,0.00,0.00,0.19,0.00,0.00,0.00,0.00,0.00,-0.00,0.19,0.19,0.19,0.19,973,972,990,972
10311,0,0.00,0.00,0.00,-0.00,-0.00,0.00,0.19,0.00,0.00,0.00,0.00,0.00,-0.00,0.19,0.19,0.19,0.19,973,972,990,972
10321,0,0.00,0.00,0.00,-0.00,-0.00,0.00,0.19,0.00,0.00,0.00,0.00,0.00,-0.00,0.19,0.19,0.19,0.19,973,972,990,972
10330,0,0.00,0.00,0.00,0.00,-0.00,0.00,0.19,0.00,0.00,0.00,0.00,0.00,-0.00,0.19,0.19,0.19,0.19,974,973,991,973
10340,0,0.00,0.00,0.00,-0.00,-0.00,0.00,0.19,0.00,0.00,0.00,0.00,0.00,-0.00,0.19,0.19,0.19,0.19,974,973,990,973
10350,0,0.00,0.00,0.00,-0.00,0.00,0.00,0.19,0.00,0.00,0.00,0.00,0.00,-0.00,0.19,0.19,0.19,0.19,975,974,991,974
10359,0,0.00,0.00,0.00,-0.00,0.00,-0.00,0.19,0.00,0.00,0.00,0.00,0.00,0.00,0.19,0.19,0.19,0.19,975,974,992,975
10369,0,0.00,0.00,0.00,-0.00,0.00,-0.00,0.19,0.00,0.00,0.00,0.00,0.00,0.00,0.19,0.19,0.19,0.19,976,975,993,976
10378,0,0.00,0.00,0.00,-0.00,-0.00,-0.00,0.19,0.00,0.00,0.00,0.00,0.00,0.00,0.19,0.19,0.19,0.19,976,975,993,976
10388,0,0.00,0.00,0.00,0.00,-0.00,-0.00,0.19,0.00,0.00,0.00,0.00,0.00,0.00,0.20,0.19,0.20,0.19,979,978,995,978
10396,0,0.00,0.00,0.00,0.00,0.00,-0.00,0.20,0.00,0.00,0.00,0.00,0.00,0.00,0.20,0.20,0.20,0.20,979,978,996,979
10404,0,0.00,0.00,0.00,-0.00,0.00,-0.00,0.20,0.00,0.00,0.00,0.00,0.00,0.00,0.20,0.20,0.20,0.20,979,978,996,979
10412,0,0.00,0.00,0.00,-0.00,0.00,-0.00,0.20,0.00,0.00,0.00,0.00,0.00,0.00,0.20,0.20,0.20,0.20,979,978,996,979
10421,0,0.00,0.00,0.00,-0.00,0.00,0.00,0.20,0.00,0.00,0.00,0.00,0.00,-0.00,0.20,0.20,0.20,0.20,979,978,996,979
10431,0,0.00,0.00,0.00,-0.00,0.00,0.00,0.20,0.00,0.00,0.00,0.00,0.00,-0.00,0.20,0.20,0.20,0.20,979,978,996,979
10441,0,0.00,0.00,0.00,0.00,-0.00,0.00,0.20,0.00,0.00,0.00,0.00,0.00,-0.00,0.20,0.20,0.20,0.20,979,978,996,979
10448,0,0.00,0.00,0.00,0.00,-0.00,0.00,0.20,0.00,0.00,0.00,0.00,0.00,-0.00,0.20,0.20,0.20,0.20,980,979,997,980
10456,0,0.00,0.00,0.00,-0.00,-0.00,0.00,0.20,0.00,0.00,0.00,0.00,0.00,-0.00,0.20,0.20,0.20,0.20,981,980,998,981
10465,0,0.00,0.00,0.00,-0.00,0.00,-0.00,0.20,0.00,0.00,0.00,0.00,0.00,0.00,0.20,0.20,0.20,0.20,982,981,999,981
10479,0,0.00,0.00,0.00,-0.00,0.00,-0.00,0.20,0.00,0.00,0.00,0.00,0.00,0.00,0.20,0.20,0.20,0.20,982,981,999,982
10492,0,0.00,0.00,0.00,0.00,-0.00,0.00,0.20,0.00,0.00,0.00,0.00,0.00,-0.00,0.20,0.20,0.20,0.20,984,983,1000,983
10501,0,0.00,0.00,0.00,0.00,-0.00,0.00,0.20,0.00,0.00,0.00,0.00,0.00,-0.00,0.20,0.20,0.20,0.20,984,983,1000,983
10511,0,0.00,0.00,0.00,0.00,-0.00,0.00,0.20,0.00,0.00,0.00,0.00,0.00,-0.00,0.20,0.20,0.20,0.20,984,983,1000,983
10521,0,0.00,0.00,0.00,-0.00,0.00,0.00,0.20,0.00,0.00,0.00,0.00,0.00,-0.00,0.20,0.20,0.20,0.20,985,984,1002,985
10531,0,0.00,0.00,0.00,-0.00,0.00,-0.00,0.20,0.00,0.00,0.00,0.00,0.00,0.00,0.20,0.20,0.20,0.20,985,984,1002,985
10541,0,0.00,0.00,0.00,-0.00,0.00,-0.00,0.20,0.00,0.00,0.00,0.00,0.00,0.00,0.20,0.20,0.20,0.20,985,984,1002,985
10550,0,0.00,0.00,0.00,-0.00,-0.00,-0.00,0.21,0.00,0.00,0.00,0.00,0.00,0.00,0.21,0.21,0.21,0.21,988,987,1005,988
10560,0,0.00,0.00,0.00,-0.00,-0.00,-0.00,0.21,0.00,0.00,0.00,0.00,0.00,0.00,0.21,0.21,0.21,0.21,990,989,1007,990
10570,0,0.00,0.00,0.00,0.00,-0.00,0.00,0.21,0.00,0.00,0.00,0.00,0.00,-0.00,0.21,0.21,0.21,0.21,990,989,1007,990
10580,0,0.00,0.00,0.00,-0.00,-0.00,0.00,0.21,0.00,0.00,0.00,0.00,0.00,-0.00,0.21,0.21,0.21,0.21,990,989,1007,990
10590,0,0.00,0.00,0.00,-0.00,-0.00,0.00,0.21,0.00,0.00,0.00,0.00,0.00,-0.00,0.21,0.21,0.21,0.21,991,990,1008,991
10598,0,0.00,0.00,0.00,-0.00,0.00,0.00,0.21,0.00,0.00,0.00,0.00,0.00,-0.00,0.21,0.21,0.21,0.21,991,990,1008,991
10607,0,0.00,0.00,0.00,0.00,0.00,0.00,0.21,0.00,0.00,0.00,0.00,0.00,-0.00,0.21,0.21,0.21,0.21,991,990,1008,991
10615,0,0.00,0.00,0.00,0.00,-0.00,0.00,0.21,0.00,0.00,0.00,0.00,0.00,-0.00,0.21,0.21,0.21,0.21,991,990,1008,991
10623,0,0.00,0.00,0.00,0.00,-0.00,0.00,0.21,0.00,0.00,0.00,0.00,0.00,-0.00,0.21,0.21,0.21,0.21,992,991,1009,991
10632,0,0.00,0.00,0.00,-0.00,-0.00,0.00,0.21,0.00,0.00,0.00,0.00,0.00,-0.00,0.21,0.21,0.21,0.21,992,991,1009,991
10642,0,0.00,0.00,0.00,-0.00,-0.00,0.00,0.21,0.00,0.00,0.00,0.00,0.00,-0.00,0.21,0.21,0.21,0.21,992,991,1009,991
10651,0,0.00,0.00,0.00,-0.00,0.00,0.00,0.21,0.00,0.00,0.00,0.00,0.00,-0.00,0.21,0.21,0.21,0.21,992,991,1009,991
10661,0,0.00,0.00,0.00,0.00,0.00,-0.00,0.21,0.00,0.00,0.00,0.00,0.00,0.00,0.21,0.21,0.21,0.21,993,992,1009,992
10671,0,0.00,0.00,0.00,0.00,-0.00,-0.00,0.21,0.00,0.00,0.00,0.00,0.00,0.00,0.21,0.21,0.21,0.21,993,992,1009,992
10681,0,0.00,0.00,0.00,-0.00,-0.00,-0.00,0.21,0.00,0.00,0.00,0.00,0.00,0.00,0.21,0.21,0.21,0.21,992,992,1009,992
10691,0,0.00,0.00,0.00,-0.00,0.00,-0.00,0.21,0.00,0.00,0.00,0.00,0.00,0.00,0.21,0.21,0.21,0.21,992,992,1009,992
10699,0,0.00,0.00,0.00,-0.00,0.00,-0.00,0.21,0.00,0.00,0.00,0.00,0.00,0.00,0.21,0.21,0.21,0.21,992,991,1009,992
10707,0,0.00,0.00,0.00,0.00,0.00,-0.00,0.21,0.00,0.00,0.00,0.00,0.00,0.00,0.21,0.21,0.21,0.21,992,991,1010,992
10714,0,0.00,0.00,0.00,0.00,-0.00,-0.00,0.21,0.00,0.00,0.00,0.00,0.00,0.00,0.21,0.21,0.21,0.21,992,991,1010,992
10722,0,0.00,0.00,0.00,-0.00,-0.00,0.00,0.21,0.00,0.00,0.00,0.00,0.00,-0.00,0.21,0.21,0.21,0.21,992,991,1010,992
10732,0,0.00,0.00,0.00,-0.00,-0.00,0.00,0.21,0.00,0.00,0.00,0.00,0.00,-0.00,0.21,0.21,0.21,0.21,992,992,1009,993
10741,0,0.00,0.00,0.00,-0.00,-0.00,0.00,0.22,0.00,0.00,0.00,0.00,0.00,-0.00,0.22,0.22,0.22,0.22,997,997,1014,998
10750,0,0.00,0.00,0.00,0.00,0.00,0.00,0.22,0.00,0.00,0.00,0.00,0.00,-0.00,0.22,0.22,0.22,0.22,997,997,1014,998
10760,0,0.00,0.00,0.00,0.00,0.00,0.00,0.22,0.00,0.00,0.00,0.00,0.00,-0.00,0.22,0.22,0.22,0.22,998,997,1015,998
10772,0,0.00,0.00,0.00,-0.00,-0.00,0.00,0.22,0.00,0.00,0.00,0.00,0.00,-0.00,0.22,0.22,0.22,0.22,998,997,1015,998
10782,0,0.00,0.00,0.00,-0.00,-0.00,0.00,0.22,0.00,0.00,0.00,0.00,0.00,-0.00,0.22,0.22,0.22,0.22,998,997,1015,998
10792,0,0.00,0.00,0.00,-0.00,-0.00,0.00,0.22,0.00,0.00,0.00,0.00,0.00,-0.00,0.22,0.22,0.22,0.22,998,997,1015,998
10802,0,0.00,0.00,0.00,-0.00,-0.00,0.00,0.22,0.00,0.00,0.00,0.00,0.00,-0.00,0.22,0.22,0.22,0.22,998,997,1015,998
10812,0,0.00,0.00,0.00,0.00,0.00,0.00,0.22,0.00,0.00,0.00,0.00,0.00,-0.00,0.22,0.22,0.22,0.22,999,999,1017,1000
10821,0,0.00,0.00,0.00,0.00,0.00,-0.00,0.22,0.00,0.00,0.00,0.00,0.00,0.00,0.22,0.22,0.22,0.22,999,999,1017,1000
10831,0,0.00,0.00,0.00,-0.00,0.00,-0.00,0.22,0.00,0.00,0.00,0.00,0.00,0.00,0.22,0.22,0.22,0.22,999,999,1017,1000
10841,0,0.00,0.00,0.00,-0.00,-0.00,0.00,0.22,0.00,0.00,0.00,0.00,0.00,-0.00,0.22,0.22,0.22,0.22,999,999,1017,1000
10850,0,0.00,0.00,0.00,-0.00,-0.00,0.00,0.22,0.00,0.00,0.00,0.00,0.00,-0.00,0.22,0.22,0.22,0.22,1000,1000,1018,1001
10859,0,0.00,0.00,0.00,-0.00,-0.00,-0.00,0.22,0.00,0.00,0.00,0.00,0.00,0.00,0.22,0.22,0.22,0.22,1001,1001,1018,1002
10869,0,0.00,0.00,0.00,-0.00,0.00,-0.00,0.22,0.00,0.00,0.00,0.00,0.00,0.00,0.22,0.22,0.22,0.22,1002,1001,1019,1003
10879,0,0.00,0.00,0.00,0.00,0.00,-0.00,0.22,0.00,0.00,0.00,0.00,0.00,0.00,0.22,0.22,0.22,0.22,1002,1001,1019,1003
10889,0,0.00,0.00,0.00,-0.00,-0.00,0.00,0.22,0.00,0.00,0.00,0.00,0.00,-0.00,0.22,0.22,0.23,0.23,1002,1002,1020,1004
10896,0,0.00,0.00,0.00,-0.00,0.00,0.00,0.23,0.00,0.00,0.00,0.00,0.00,-0.00,0.23,0.23,0.23,0.23,1003,1003,1021,1004
10904,0,0.00,0.00,0.00,-0.00,0.00,0.00,0.23,0.00,0.00,0.00,0.00,0.00,-0.00,0.23,0.23,0.23,0.23,1003,1003,1021,1004
10913,0,0.00,0.00,0.00,-0.00,0.00,-0.00,0.23,0.00,0.00,0.00,0.00,0.00,0.00,0.23,0.23,0.23,0.23,1003,1003,1021,1004
10922,0,0.00,0.00,0.00,-0.00,0.00,-0.00,0.23,0.00,0.00,0.00,0.00,0.00,0.00,0.23,0.23,0.23,0.23,1004,1004,1022,1005
10932,0,0.00,0.00,0.00,0.00,0.00,0.00,0.23,0.00,0.00,0.00,0.00,0.00,-0.00,0.23,0.23,0.23,0.23,1004,1004,1022,1005
10942,0,0.00,0.00,0.00,0.00,-0.00,0.00,0.23,0.00,0.00,0.00,0.00,0.00,-0.00,0.23,0.23,0.23,0.23,1004,1004,1022,1005
10950,0,0.00,0.00,0.00,-0.00,-0.00,0.00,0.23,0.00,0.00,0.00,0.00,0.00,-0.00,0.23,0.23,0.23,0.23,1006,1006,1024,1008
10958,0,0.00,0.00,0.00,-0.00,-0.00,0.00,0.23,0.00,0.00,0.00,0.00,0.00,-0.00,0.23,0.23,0.23,0.23,1007,1007,1025,1008
10965,0,0.00,0.00,0.00,-0.00,-0.00,0.00,0.23,0.00,0.00,0.00,0.00,0.00,-0.00,0.23,0.23,0.23,0.23,1007,1007,1025,1008
10973,0,0.00,0.00,0.00,-0.00,0.00,-0.00,0.23,0.00,0.00,0.00,0.00,0.00,0.00,0.23,0.23,0.23,0.23,1008,1008,1026,1009
10982,0,0.00,0.00,0.00,-0.00,0.00,-0.00,0.23,0.00,0.00,0.00,0.00,0.00,0.00,0.23,0.23,0.23,0.23,1008,1008,1026,1009
10992,0,0.00,0.00,0.00,0.00,0.00,-0.00,0.23,0.00,0.00,0.00,0.00,0.00,0.00,0.23,0.23,0.23,0.23,1009,1009,1027,1010
11001,0,0.00,0.00,0.00,-0.00,0.00,-0.00,0.23,0.00,0.00,0.00,0.00,0.00,0.00,0.23,0.23,0.23,0.23,1009,1009,1027,1010
11011,0,0.00,0.00,0.00,-0.00,-0.00,-0.00,0.23,0.00,0.00,0.00,0.00,-0.00,0.00,0.23,0.23,0.23,0.23,1009,1009,1027,1010
11021,0,0.00,0.00,0.00,0.00,-0.00,-0.00,0.23,0.00,0.00,0.00,0.00,-0.00,0.00,0.23,0.23,0.24,0.24,1010,1010,1028,1012
11031,0,0.00,0.00,0.00,-0.00,-0.00,0.00,0.23,0.00,0.00,0.00,0.00,-0.00,-0.00,0.23,0.23,0.24,0.24,1010,1010,1028,1012
11040,0,0.00,0.00,0.00,-0.00,-0.00,0.00,0.23,0.00,0.00,0.00,0.00,-0.00,-0.00,0.23,0.23,0.24,0.24,1010,1010,1028,1012
11048,0,0.00,0.00,0.00,-0.00,0.00,0.00,0.23,0.00,0.00,0.00,0.00,-0.00,-0.00,0.23,0.23,0.24,0.24,1010,1011,1028,1012
11065,0,0.00,0.00,0.00,-0.00,-0.00,0.00,0.24,0.00,0.00,0.00,0.00,-0.00,-0.00,0.24,0.24,0.24,0.24,1014,1014,1031,1015
11073,0,0.00,0.00,0.00,-0.00,-0.00,0.00,0.24,0.00,0.00,0.00,0.00,-0.00,-0.00,0.24,0.24,0.24,0.24,1015,1015,1032,1016
11083,0,0.00,0.00,0.00,-0.00,-0.00,0.00,0.24,0.00,0.00,0.00,0.00,-0.00,-0.00,0.24,0.24,0.24,0.24,1015,1016,1033,1017
11092,0,0.00,0.00,0.00,-0.00,-0.00,-0.00,0.24,0.00,0.00,0.00,0.00,-0.00,0.00,0.24,0.24,0.24,0.24,1015,1016,1033,1017
11101,0,0.00,0.00,0.00,0.00,0.00,0.00,0.24,0.00,0.00,0.00,0.00,-0.00,-0.00,0.24,0.24,0.24,0.24,1016,1016,1033,1017
11111,0,0.00,0.00,0.00,0.00,0.00,-0.00,0.25,0.00,0.00,0.00,0.00,-0.00,0.00,0.25,0.25,0.25,0.25,1022,1022,1040,1023
11121,0,0.00,0.00,0.00,-0.00,-0.00,-0.00,0.25,0.00,0.00,0.00,0.00,-0.00,0.00,0.25,0.25,0.25,0.25,1024,1024,1042,1026
11131,0,0.00,0.00,0.00,-0.00,-0.00,-0.00,0.25,0.00,0.00,0.00,0.00,-0.00,0.00,0.25,0.25,0.25,0.25,1026,1026,1044,1027
11141,0,0.00,0.00,0.00,-0.00,-0.00,-0.00,0.25,0.00,0.00,0.00,0.00,-0.00,0.00,0.25,0.25,0.25,0.25,1026,1026,1044,1027
11149,0,0.00,0.00,0.00,0.00,-0.00,-0.00,0.26,0.00,0.00,0.00,0.00,-0.00,0.00,0.26,0.26,0.26,0.26,1030,1030,1048,1032
11158,0,0.00,0.00,0.00,-0.00,-0.00,-0.00,0.26,0.00,0.00,0.00,0.00,-0.00,0.00,0.26,0.26,0.26,0.26,1030,1030,1048,1032
11165,0,0.00,0.00,0.00,-0.00,-0.00,0.00,0.26,0.00,0.00,0.00,0.00,-0.00,-0.00,0.26,0.26,0.26,0.26,1031,1031,1049,1032
11174,0,0.00,0.00,0.00,-0.00,0.00,0.00,0.26,0.00,0.00,0.00,0.00,-0.00,-0.00,0.26,0.26,0.26,0.26,1032,1032,1049,1033
11183,0,0.00,0.00,0.00,-0.00,0.00,0.00,0.26,0.00,0.00,0.00,0.00,-0.00,-0.00,0.26,0.26,0.26,0.26,1032,1032,1049,1033
11193,0,0.00,0.00,0.00,-0.00,0.00,0.00,0.26,0.00,0.00,0.00,0.00,-0.00,-0.00,0.26,0.26,0.26,0.26,1032,1032,1049,1033
11204,0,0.00,0.00,0.00,0.00,-0.00,-0.00,0.26,0.00,0.00,0.00,0.00,-0.00,0.00,0.26,0.26,0.26,0.26,1032,1032,1049,1033
11213,0,0.00,0.00,0.00,0.00,-0.00,-0.00,0.26,0.00,0.00,0.00,0.00,-0.00,0.00,0.26,0.26,0.26,0.26,1032,1033,1050,1034
11223,0,0.00,0.00,0.00,0.00,-0.00,0.00,0.26,0.00,0.00,0.00,0.00,-0.00,-0.00,0.26,0.26,0.26,0.26,1032,1033,1050,1034
11233,0,0.00,0.00,0.00,-0.00,0.00,-0.00,0.26,0.00,0.00,0.00,0.00,-0.00,0.00,0.26,0.26,0.26,0.26,1032,1033,1050,1034
11244,0,0.00,0.00,0.00,-0.00,-0.00,-0.00,0.26,0.00,0.00,0.00,0.00,-0.00,0.00,0.26,0.26,0.26,0.26,1033,1034,1051,1035
11253,0,0.00,0.00,0.00,-0.00,-0.00,-0.00,0.26,0.00,0.00,0.00,0.00,-0.00,0.00,0.26,0.26,0.26,0.26,1033,1034,1051,1035
11263,0,0.00,0.00,0.00,-0.00,-0.00,-0.00,0.26,0.00,0.00,0.00,0.00,-0.00,0.00,0.26,0.26,0.26,0.26,1033,1034,1051,1035
11273,0,0.00,0.00,0.00,-0.00,-0.00,-0.00,0.26,0.00,0.00,0.00,0.00,-0.00,0.00,0.26,0.26,0.26,0.26,1033,1034,1051,1035
11284,0,0.00,0.00,0.00,-0.00,0.00,0.00,0.26,0.00,0.00,0.00,0.00,-0.00,-0.00,0.26,0.26,0.26,0.27,1034,1034,1052,1036
11293,0,0.00,0.00,0.00,-0.00,0.00,0.00,0.26,0.00,0.00,0.00,0.00,-0.00,-0.00,0.26,0.26,0.26,0.27,1034,1034,1052,1036
11303,0,0.00,0.00,0.00,-0.00,0.00,0.00,0.26,0.00,0.00,0.00,0.00,-0.00,-0.00,0.26,0.26,0.26,0.27,1034,1034,1052,1036
11313,0,0.00,0.00,0.00,-0.00,-0.00,0.00,0.27,0.00,0.00,0.00,0.00,-0.00,-0.00,0.27,0.27,0.27,0.27,1038,1038,1056,1040
11323,0,0.00,0.00,0.00,-0.00,-0.00,-0.00,0.27,0.00,0.00,0.00,0.00,-0.00,0.00,0.27,0.27,0.27,0.27,1039,1039,1057,1041
11333,0,0.00,0.00,0.00,-0.00,-0.00,0.00,0.27,0.00,0.00,0.00,0.00,-0.00,-0.00,0.27,0.27,0.27,0.27,1039,1039,1057,1041
11344,0,0.00,0.00,0.00,-0.00,0.00,-0.00,0.27,0.00,0.00,0.00,0.00,-0.00,0.00,0.27,0.27,0.27,0.27,1040,1040,1058,1042
11356,0,0.00,0.00,0.00,-0.00,0.00,-0.00,0.27,0.00,0.00,0.00,0.00,-0.00,0.00,0.27,0.27,0.27,0.27,1040,1041,1058,1042
11365,0,0.00,0.00,0.00,0.00,0.00,-0.00,0.27,0.00,0.00,0.00,0.00,-0.00,0.00,0.27,0.27,0.27,0.27,1040,1041,1058,1042
11374,0,0.00,0.00,0.00,-0.00,-0.00,-0.00,0.27,0.00,0.00,0.00,0.00,-0.00,0.00,0.27,0.27,0.27,0.27,1041,1042,1059,1043
11383,0,0.00,0.00,0.00,-0.00,-0.00,-0.00,0.27,0.00,0.00,0.00,0.00,-0.00,0.00,0.27,0.27,0.27,0.27,1041,1042,1059,1043
11393,0,0.00,0.00,0.00,0.00,-0.00,-0.00,0.27,0.00,0.00,0.00,0.00,-0.00,0.00,0.27,0.27,0.27,0.27,1041,1042,1059,1043
11403,0,0.00,0.00,0.00,-0.00,-0.00,-0.00,0.27,0.00,0.00,0.00,0.00,-0.00,0.00,0.27,0.27,0.27,0.27,1041,1042,1059,1043
11413,0,0.00,0.00,0.00,-0.00,-0.00,-0.00,0.28,0.00,0.00,0.00,0.00,-0.00,0.00,0.28,0.28,0.28,0.28,1044,1045,1062,1047
11422,0,0.00,0.00,0.00,-0.00,0.00,-0.00,0.28,0.00,0.00,0.00,0.00,-0.00,0.00,0.28,0.28,0.28,0.28,1044,1045,1063,1047
11432,0,0.00,0.00,0.00,0.00,0.00,-0.00,0.28,0.00,0.00,0.00,0.00,-0.00,0.00,0.28,0.28,0.28,0.28,1044,1045,1063,1047
11442,0,0.00,0.00,0.00,-0.00,0.00,0.00,0.28,0.00,0.00,0.00,0.00,-0.00,-0.00,0.28,0.28,0.28,0.28,1044,1045,1063,1047
11449,0,0.00,0.00,0.00,0.00,-0.00,0.00,0.28,0.00,0.00,0.00,0.00,-0.00,-0.00,0.28,0.28,0.28,0.28,1049,1049,1067,1051
11457,0,0.00,0.00,0.00,-0.00,-0.00,0.00,0.28,0.00,0.00,0.00,0.00,-0.00,-0.00,0.28,0.28,0.28,0.28,1048,1049,1067,1051
11465,0,0.00,0.00,0.00,0.00,-0.00,0.00,0.28,0.00,0.00,0.00,0.00,-0.00,-0.00,0.28,0.28,0.28,0.28,1048,1049,1067,1051
11474,0,0.00,0.00,0.00,-0.00,-0.00,0.00,0.28,0.00,0.00,0.00,0.00,-0.00,-0.00,0.28,0.28,0.28,0.28,1049,1050,1067,1052
11483,0,0.00,0.00,0.00,-0.00,-0.00,0.00,0.28,0.00,0.00,0.00,0.00,-0.00,-0.00,0.28,0.28,0.28,0.28,1049,1050,1067,1051
11494,0,0.00,0.00,0.00,-0.00,-0.00,0.00,0.28,0.00,0.00,0.00,0.00,-0.00,-0.00,0.28,0.28,0.28,0.28,1049,1050,1067,1051
11501,0,0.00,0.00,0.00,-0.00,0.00,-0.00,0.28,0.00,0.00,0.00,0.00,-0.00,0.00,0.28,0.28,0.28,0.28,1049,1050,1067,1052
11509,0,0.00,0.00,0.00,-0.00,0.00,-0.00,0.28,0.00,0.00,0.00,0.00,-0.00,0.00,0.28,0.28,0.28,0.29,1050,1051,1068,1052
11517,0,0.00,0.00,0.00,-0.00,0.00,-0.00,0.29,0.00,0.00,0.00,0.00,-0.00,0.00,0.29,0.29,0.29,0.29,1056,1056,1074,1058
11525,0,0.00,0.00,0.00,-0.00,0.00,-0.00,0.29,0.00,0.00,0.00,0.00,-0.00,0.00,0.29,0.29,0.29,0.30,1058,1059,1077,1061
11534,0,0.00,0.00,0.00,-0.00,-0.00,-0.00,0.30,0.00,0.00,0.00,0.00,-0.00,0.00,0.30,0.30,0.30,0.30,1061,1061,1079,1063
11544,0,0.00,0.00,0.00,-0.00,-0.00,-0.00,0.30,0.00,0.00,0.00,0.00,-0.00,0.00,0.30,0.30,0.30,0.30,1062,1063,1081,1065
11554,0,0.00,0.00,0.00,-0.00,-0.00,-0.00,0.30,0.00,0.00,0.00,0.00,-0.00,0.00,0.30,0.30,0.30,0.30,1062,1063,1081,1065
11564,0,0.00,0.00,0.00,-0.00,0.00,-0.00,0.30,0.00,0.00,0.00,0.00,-0.00,0.00,0.30,0.30,0.30,0.30,1062,1063,1081,1065
11574,0,0.00,0.00,0.00,-0.00,0.00,-0.00,0.30,0.00,0.00,0.00,0.00,-0.00,0.00,0.30,0.30,0.30,0.30,1062,1063,1081,1065
11583,0,0.00,0.00,0.00,-0.00,0.00,0.00,0.30,0.00,0.00,0.00,0.00,-0.00,-0.00,0.30,0.30,0.30,0.31,1066,1067,1085,1069
11593,0,0.00,0.00,0.00,-0.00,-0.00,0.00,0.30,0.00,0.00,0.00,0.00,-0.00,-0.00,0.30,0.30,0.30,0.31,1066,1067,1085,1069
11601,0,0.00,0.00,0.00,-0.00,-0.00,0.00,0.30,0.00,0.00,0.00,0.00,-0.00,0.00,0.30,0.30,0.30,0.31,1066,1067,1085,1069
11609,0,0.00,0.00,0.00,-0.00,0.00,0.00,0.31,0.00,0.00,0.00,0.00,-0.00,0.00,0.30,0.30,0.31,0.31,1067,1068,1085,1070
11617,0,0.00,0.00,0.00,-0.00,-0.00,0.00,0.31,0.00,0.00,0.00,0.00,-0.00,0.00,0.30,0.30,0.31,0.31,1067,1068,1085,1070
11625,0,0.00,0.00,0.00,-0.00,-0.00,-0.00,0.31,0.00,0.00,0.00,0.00,-0.00,0.00,0.30,0.30,0.31,0.31,1067,1068,1085,1070
11638,0,0.00,0.00,0.00,0.00,-0.00,-0.00,0.31,0.00,0.00,0.00,0.00,-0.00,0.00,0.30,0.30,0.31,0.31,1067,1068,1085,1070
11647,0,0.00,0.00,0.00,0.00,0.00,0.00,0.31,0.00,0.00,0.00,0.00,-0.00,0.00,0.30,0.30,0.31,0.31,1067,1068,1085,1070
11655,0,0.00,0.00,0.00,-0.00,-0.00,0.00,0.31,0.00,0.00,0.00,0.00,-0.00,0.00,0.30,0.30,0.31,0.31,1067,1068,1085,1070
11664,0,0.00,0.00,0.00,-0.00,-0.00,-0.00,0.31,0.00,0.00,0.00,0.00,-0.00,0.00,0.30,0.30,0.31,0.31,1067,1068,1085,1070
11674,0,0.00,0.00,0.00,-0.00,-0.00,-0.00,0.31,0.00,0.00,0.00,0.00,-0.00,0.00,0.30,0.30,0.31,0.31,1067,1068,1085,1070
11684,0,0.00,0.00,0.00,-0.00,-0.00,-0.00,0.31,0.00,0.00,0.00,0.00,-0.00,0.00,0.30,0.30,0.31,0.31,1067,1068,1085,1070
11694,0,0.00,0.00,0.00,-0.00,0.00,-0.00,0.31,0.00,0.00,0.00,0.00,-0.00,0.00,0.30,0.30,0.31,0.31,1067,1068,1085,1070
11701,0,0.00,0.00,0.00,-0.00,0.00,-0.00,0.31,0.00,0.00,0.00,0.00,-0.00,0.00,0.30,0.30,0.31,0.31,1067,1068,1085,1070
11709,0,0.00,0.00,0.00,-0.00,-0.00,-0.00,0.31,0.00,0.00,0.00,0.00,-0.00,0.00,0.30,0.30,0.31,0.31,1068,1068,1086,1071
11717,0,0.00,0.00,0.00,-0.00,-0.00,0.00,0.31,0.00,0.00,0.00,0.00,-0.00,0.00,0.30,0.30,0.31,0.31,1068,1068,1086,1071
11725,0,0.00,0.00,0.00,-0.00,0.00,0.00,0.31,0.00,0.00,0.00,0.00,-0.00,0.00,0.30,0.30,0.31,0.31,1068,1068,1086,1071
11734,0,0.00,0.00,0.00,-0.00,0.00,0.00,0.31,0.00,0.00,0.00,0.00,-0.00,0.00,0.30,0.30,0.31,0.31,1068,1068,1086,1071
11744,0,0.00,0.00,0.00,-0.00,-0.00,0.00,0.31,0.00,0.00,0.00,0.00,-0.00,0.00,0.31,0.31,0.31,0.31,1069,1069,1087,1072
11752,0,0.00,0.00,0.00,-0.00,0.00,0.00,0.31,0.00,0.00,0.00,0.00,-0.00,0.00,0.31,0.31,0.31,0.31,1069,1069,1087,1072
11759,0,0.00,0.00,0.00,-0.00,-0.00,0.00,0.31,0.00,0.00,0.00,0.00,-0.00,0.00,0.31,0.31,0.31,0.31,1069,1069,1087,1072
11767,0,0.00,0.00,0.00,-0.00,0.00,0.00,0.31,0.00,0.00,0.00,0.00,-0.00,0.00,0.31,0.31,0.31,0.31,1069,1069,1087,1072
11775,0,0.00,0.00,0.00,-0.00,0.00,0.00,0.31,0.00,0.00,0.00,0.00,-0.00,0.00,0.31,0.31,0.31,0.31,1069,1069,1087,1072
11785,0,0.00,0.00,0.00,-0.00,0.00,0.00,0.31,0.00,0.00,0.00,0.00,-0.00,0.00,0.31,0.31,0.31,0.31,1069,1069,1087,1072
11794,0,0.00,0.00,0.00,-0.00,0.00,0.00,0.31,0.00,0.00,0.00,0.00,-0.00,0.00,0.31,0.31,0.31,0.31,1069,1069,1087,1072
11804,0,0.00,0.00,0.00,-0.00,0.00,0.00,0.31,0.00,0.00,0.00,0.00,-0.00,0.00,0.31,0.31,0.31,0.31,1069,1069,1087,1072
11814,0,0.00,0.00,0.00,-0.00,-0.00,0.00,0.31,0.00,0.00,0.00,0.00,-0.00,0.00,0.31,0.31,0.31,0.31,1073,1073,1091,1076
11824,0,0.00,0.00,0.00,-0.00,-0.00,-0.00,0.32,0.00,0.00,0.00,0.00,-0.00,0.00,0.31,0.31,0.32,0.32,1076,1077,1094,1079
11834,0,0.00,0.00,0.00,-0.00,-0.00,-0.00,0.32,0.00,0.00,0.00,0.00,-0.00,0.00,0.31,0.31,0.32,0.32,1076,1077,1094,1079
11844,0,0.00,0.00,0.00,-0.00,0.00,-0.00,0.32,0.00,0.00,0.00,0.00,-0.00,0.00,0.32,0.32,0.32,0.32,1077,1077,1095,1080
11852,0,0.00,0.00,0.00,-0.00,0.00,-0.00,0.32,0.00,0.00,0.00,0.00,-0.00,0.00,0.32,0.32,0.32,0.32,1077,1077,1095,1080
11860,0,0.00,0.00,0.00,-0.00,0.00,-0.00,0.32,0.00,0.00,0.00,0.00,-0.00,0.00,0.32,0.32,0.32,0.32,1077,1077,1095,1080
11868,0,0.00,0.00,0.00,-0.00,0.00,-0.00,0.32,0.00,0.00,0.00,0.00,-0.00,0.00,0.32,0.32,0.32,0.32,1077,1077,1095,1081
11876,0,0.00,0.00,0.00,-0.00,0.00,-0.00,0.32,0.00,0.00,0.00,0.00,-0.00,0.00,0.32,0.32,0.32,0.32,1077,1077,1095,1081
11885,0,0.00,0.00,0.00,-0.00,0.00,0.00,0.32,0.00,0.00,0.00,0.00,-0.00,0.00,0.32,0.32,0.32,0.32,1077,1077,1095,1081
11895,0,0.00,0.00,0.00,-0.00,0.00,0.00,0.32,0.00,0.00,0.00,0.00,-0.00,0.00,0.32,0.32,0.32,0.32,1077,1077,1095,1080
11902,0,0.00,0.00,0.00,-0.00,-0.00,0.00,0.32,0.00,0.00,0.00,0.00,-0.00,0.00,0.32,0.32,0.32,0.32,1077,1077,1095,1081
