t,is_crashed,roll,pitch,yaw,p,q,r,throttle,p_cmd,q_cmd,r_cmd,roll_cmd,pitch_cmd,yaw_cmd,roll_pid_out,pitch_pid_out,yaw_pid_out,motor_fl,motor_bl,motor_fr,motor_br,pwm_fl,pwm_bl,pwm_fr,pwm_br
7022,0,0.362500,0.325000,71.987503,-0.00,-0.00,-0.000104,0.500000,-0.018138,-0.022864,0.000000,0.000000,0.000000,0.000000,0.000183,-0.000390,0.000001,0.000000,0.000000,0.000000,0.000000,0,0,0,0
7034,0,0.580000,0.520000,129.577499,0.09,0.08,-0.000094,0.500000,-0.028943,-0.036616,0.000000,0.000000,0.000000,0.000000,0.001200,-0.002003,0.000000,0.496798,0.500801,0.499197,0.503204,1226,1262,1228,1264
7044,0,0.754000,0.676000,175.649506,0.17,0.15,-0.000085,0.007000,-0.037591,-0.044890,0.000000,0.000000,0.039999,0.000000,0.002071,-0.003336,0.000000,0.000000,0.000000,0.000000,0.000000,819,819,819,819
7054,0,0.893200,0.800800,-147.492889,0.22,0.20,-0.000077,0.007000,-0.044470,-0.053327,0.000000,0.000000,0.039999,0.000000,0.002669,-0.004282,0.000000,0.000000,0.000000,0.000000,0.000000,819,819,819,819
7064,0,1.004560,0.900640,-118.006805,0.25,0.23,-0.000070,0.006000,-0.050009,-0.060321,0.000000,0.000000,0.039999,0.000000,0.003063,-0.004909,0.000000,0.000000,0.000000,0.000000,0.000000,819,819,819,819
7074,0,1.093648,0.980512,-94.417938,0.27,0.24,0.000144,0.006000,-0.054447,-0.065924,0.000000,0.000000,0.039999,0.000000,0.003301,-0.005301,-0.000001,0.000000,0.000000,0.000000,0.000000,819,819,819,819
7084,0,1.164918,1.044410,-75.546844,0.28,0.25,0.000131,0.006000,-0.058005,-0.070412,0.000000,0.000000,0.039999,0.000000,0.003420,-0.005509,-0.000001,0.000000,0.000000,0.000000,0.000000,819,819,819,819
7094,0,1.221935,1.095528,-60.449982,0.28,0.25,-0.000089,0.019000,-0.060858,-0.074009,0.000000,0.000000,0.039999,0.000000,0.003451,-0.005579,0.000000,0.000000,0.000000,0.000000,0.000000,819,819,819,819
7104,0,1.267548,1.136422,-48.372498,0.28,0.25,-0.000288,0.030000,-0.063146,-0.076891,0.000000,0.000000,0.039999,0.000000,0.003422,-0.005549,0.000003,0.000000,0.000000,0.000000,0.000000,819,819,819,819
7115,0,1.304038,1.169138,-38.710510,0.27,0.24,-0.000364,0.041000,-0.064983,-0.079203,0.000000,0.000000,0.039999,0.000000,0.003331,-0.005417,0.000004,0.000000,0.000000,0.000000,0.000000,819,819,819,819
7125,0,1.333231,1.195310,-30.980927,0.25,0.23,-0.000330,0.041000,-0.066455,-0.081056,0.000000,0.000000,0.039999,0.000000,0.003229,-0.005269,0.000003,0.000000,0.000000,0.000000,0.000000,819,819,819,819
7134,0,1.356584,1.216248,-24.797241,0.24,0.22,-0.000195,0.054000,-0.067636,-0.082541,0.000000,0.000000,0.039999,0.000000,0.003117,-0.005107,0.000002,0.000000,0.000000,0.000000,0.000000,819,819,819,819
7144,0,1.375268,1.232999,-19.850311,0.23,0.20,-0.000072,0.055000,-0.068586,-0.083733,0.000000,0.000000,0.039999,0.000000,0.002980,-0.004903,0.000000,0.000000,0.000000,0.000000,0.000000,819,819,819,819
7154,0,1.390214,1.246399,-15.892761,0.21,0.19,0.000038,0.055000,-0.069349,-0.084690,0.000000,0.000000,0.039999,0.000000,0.002836,-0.004699,-0.000000,0.000000,0.000000,0.000000,0.000000,819,819,819,819
7165,0,1.402171,1.257119,-12.726715,0.20,0.18,0.000138,0.056000,-0.069963,-0.085459,0.000000,0.000000,0.039999,0.000000,0.002685,-0.004471,-0.000001,0.000000,0.000000,0.000000,0.000000,819,819,819,819
7182,0,1.411737,1.265695,-10.193878,0.18,0.16,0.000125,0.056000,-0.070459,-0.086078,0.000000,0.000000,0.039999,0.000000,0.002523,-0.004224,-0.000001,0.000000,0.000000,0.000000,0.000000,819,819,819,819
7195,0,1.419389,1.272556,-8.167603,0.16,0.15,0.000009,0.056000,-0.070857,-0.086575,0.000000,0.000000,0.039999,0.000000,0.002378,-0.004003,-0.000000,0.000000,0.000000,0.000000,0.000000,819,819,819,819
7204,0,1.425512,1.278045,-6.546600,0.15,0.14,-0.000095,0.056000,-0.071176,-0.086974,0.000000,0.000000,0.039999,0.000000,0.002249,-0.003810,0.000001,0.000000,0.000000,0.000000,0.000000,819,819,819,819
7214,0,1.430409,1.282436,-5.249786,0.14,0.12,-0.000190,0.056000,-0.071434,-0.087295,0.000000,0.000000,0.039999,0.000000,0.002125,-0.003624,0.000002,0.000000,0.000000,0.000000,0.000000,819,819,819,819
7224,0,1.434327,1.285949,-4.212341,0.13,0.11,-0.000275,0.056000,-0.071642,-0.087553,0.000000,0.000000,0.039999,0.000000,0.002008,-0.003446,0.000003,0.000000,0.000000,0.000000,0.000000,819,819,819,819
7234,0,1.437462,1.288759,-3.382385,0.12,0.10,-0.000146,0.055000,-0.071810,-0.087762,0.000000,0.000000,0.039999,0.000000,0.001901,-0.003281,0.000001,0.000000,0.000000,0.000000,0.000000,819,819,819,819
7244,0,1.439970,1.291007,-2.718414,0.10,0.09,-0.000235,0.055000,-0.071946,-0.087930,0.000000,0.000000,0.039999,0.000000,0.001798,-0.003128,0.000002,0.000000,0.000000,0.000000,0.000000,819,819,819,819
7254,0,1.441976,1.292806,-2.187225,0.10,0.09,-0.000213,0.055000,-0.072056,-0.088065,0.000000,0.000000,0.039999,0.000000,0.001705,-0.002988,0.000002,0.000000,0.000000,0.000000,0.000000,819,819,819,819
7296,0,1.443581,1.294245,-1.762299,0.09,0.08,-0.000504,0.056000,-0.072146,-0.088178,0.000000,0.000000,0.039999,0.000000,0.001615,-0.002845,0.000005,0.000000,0.000000,0.000000,0.000000,819,819,819,819
7310,0,1.444864,1.295396,-1.422333,0.08,0.07,-0.000559,0.056000,-0.072218,-0.088267,0.000000,0.000000,0.039999,0.000000,0.001534,-0.002725,0.000006,0.000000,0.000000,0.000000,0.000000,819,819,819,819
7322,0,1.445891,1.296317,-1.150360,0.07,0.06,-0.000403,0.056000,-0.072277,-0.088339,0.000000,0.000000,0.039999,0.000000,0.001460,-0.002616,0.000004,0.000000,0.000000,0.000000,0.000000,819,819,819,819
7335,0,1.446713,1.297053,-0.932800,0.06,0.06,-0.000675,0.056000,-0.072325,-0.088398,0.000000,0.000000,0.039999,0.000000,0.001394,-0.002509,0.000007,0.000000,0.000000,0.000000,0.000000,819,819,819,819
7344,0,1.447371,1.297643,-0.758759,0.06,0.05,-0.000818,0.056000,-0.072364,-0.088445,0.000000,0.000000,0.039999,0.000000,0.001334,-0.002420,0.000008,0.000000,0.000000,0.000000,0.000000,819,819,819,819
7355,0,1.447896,1.298114,-0.619507,0.05,0.05,-0.000741,0.056000,-0.072396,-0.088484,0.000000,0.000000,0.039999,0.000000,0.001278,-0.002333,0.000007,0.000000,0.000000,0.000000,0.000000,819,819,819,819
7364,0,1.448317,1.298491,-0.508118,0.05,0.04,-0.000670,0.056000,-0.072422,-0.088516,0.000000,0.000000,0.039999,0.000000,0.001228,-0.002258,0.000007,0.000000,0.000000,0.000000,0.000000,819,819,819,819
7375,0,1.448654,1.298793,-0.419006,0.04,0.04,-0.000088,0.056000,-0.072444,-0.088541,0.000000,0.000000,0.039999,0.000000,0.001183,-0.002197,0.000000,0.000000,0.000000,0.000000,0.000000,819,819,819,819
7385,0,1.448923,1.299034,-0.347717,0.04,0.03,-0.000080,0.056000,-0.072461,-0.088563,0.000000,0.000000,0.039999,0.000000,0.001142,-0.002134,0.000000,0.000000,0.000000,0.000000,0.000000,819,819,819,819
7395,0,1.449138,1.299228,-0.290680,0.03,0.03,-0.000176,0.056000,-0.072476,-0.088581,0.000000,0.000000,0.039999,0.000000,0.001106,-0.002070,0.000002,0.000000,0.000000,0.000000,0.000000,819,819,819,819
7405,0,1.449311,1.299382,-0.245056,0.03,0.03,-0.000470,0.057000,-0.072488,-0.088595,0.000000,0.000000,0.039999,0.000000,0.001073,-0.002016,0.000005,0.000000,0.000000,0.000000,0.000000,819,819,819,819
7415,0,1.449448,1.299506,-0.208557,0.03,0.03,-0.000529,0.057000,-0.072498,-0.088607,0.000000,0.000000,0.039999,0.000000,0.001043,-0.001974,0.000005,0.000000,0.000000,0.000000,0.000000,819,819,819,819
7425,0,1.449559,1.299605,-0.179352,0.03,0.02,-0.000893,0.057000,-0.072506,-0.088618,0.000000,0.000000,0.039999,0.000000,0.001017,-0.001925,0.000009,0.000000,0.000000,0.000000,0.000000,819,819,819,819
7435,0,1.449647,1.299684,-0.155975,0.02,0.02,-0.000809,0.057000,-0.072513,-0.088626,0.000000,0.000000,0.039999,0.000000,0.000994,-0.001883,0.000008,0.000000,0.000000,0.000000,0.000000,819,819,819,819
7445,0,1.449718,1.299747,-0.137299,0.02,0.02,-0.000421,0.057000,-0.072519,-0.088634,0.000000,0.000000,0.039999,0.000000,0.000972,-0.001843,0.000004,0.000000,0.000000,0.000000,0.000000,819,819,819,819
7455,0,1.449774,1.299798,-0.122345,0.02,0.02,-0.000277,0.057000,-0.072524,-0.088639,0.000000,0.000000,0.039999,0.000000,0.000953,-0.001821,0.000003,0.000000,0.000000,0.000000,0.000000,819,819,819,819
7465,0,1.449819,1.299838,-0.110382,0.02,0.01,0.000060,0.058000,-0.072528,-0.088645,0.000000,0.000000,0.039999,0.000000,0.000935,-0.001791,-0.000000,0.000000,0.000000,0.000000,0.000000,819,819,819,819
7475,0,1.449855,1.299871,-0.100800,0.02,0.01,0.000054,0.059000,-0.072531,-0.088649,0.000000,0.000000,0.039999,0.000000,0.000918,-0.001767,-0.000000,0.000000,0.000000,0.000000,0.000000,819,819,819,819
7485,0,1.449884,1.299896,-0.093140,0.01,0.01,0.000153,0.059000,-0.072534,-0.088653,0.000000,0.000000,0.039999,0.000000,0.000903,-0.001744,-0.000001,0.000000,0.000000,0.000000,0.000000,819,819,819,819
7495,0,1.449907,1.299917,-0.087006,0.01,0.01,0.000449,0.062000,-0.072537,-0.088656,0.000000,0.000000,0.039999,0.000000,0.000887,-0.001725,-0.000004,0.000000,0.000000,0.000000,0.000000,819,819,819,819
7505,0,1.449926,1.299934,-0.082123,0.01,0.00,0.000406,0.062000,-0.072539,-0.088659,0.000000,0.000000,0.039999,0.000000,0.000876,-0.001708,-0.000004,0.000000,0.000000,0.000000,0.000000,819,819,819,819
7515,0,1.449941,1.299947,-0.078217,0.01,0.00,0.000886,0.062000,-0.072542,-0.088661,0.000000,0.000000,0.039999,0.000000,0.000863,-0.001692,-0.000009,0.000000,0.000000,0.000000,0.000000,819,819,819,819
7525,0,1.449952,1.299958,-0.075073,0.00,0.00,0.000802,0.062000,-0.072543,-0.088663,0.000000,0.000000,0.039999,0.000000,0.000855,-0.001682,-0.000008,0.000000,0.000000,0.000000,0.000000,819,819,819,819
7535,0,1.449962,1.299966,-0.072571,0.00,0.00,0.000726,0.080000,-0.072545,-0.088665,0.000000,0.000000,0.039999,0.000000,0.000844,-0.001667,-0.000007,0.000000,0.000000,0.000000,0.000000,819,819,819,819
7545,0,1.449970,1.299973,-0.070557,0.00,0.00,0.000657,0.082000,-0.072546,-0.088668,0.000000,0.000000,0.039999,0.000000,0.000835,-0.001650,-0.000007,0.000000,0.000000,0.000000,0.000000,819,819,819,819
7555,0,1.449976,1.299978,-0.068939,0.00,0.00,0.000802,0.082000,-0.072547,-0.088669,0.000000,0.000000,0.039999,0.000000,0.000829,-0.001646,-0.000008,0.000000,0.000000,0.000000,0.000000,819,819,819,819
7565,0,1.449981,1.299983,-0.067657,0.00,0.00,0.000518,0.086000,-0.072548,-0.088670,0.000000,0.000000,0.039999,0.000000,0.000822,-0.001635,-0.000005,0.000000,0.000000,0.000000,0.000000,819,819,819,819
7575,0,1.449984,1.299986,-0.066620,0.00,0.00,0.000262,0.087000,-0.072549,-0.088672,0.000000,0.000000,0.039999,0.000000,0.000816,-0.001625,-0.000003,0.000000,0.000000,0.000000,0.000000,819,819,819,819
7585,0,1.449988,1.299989,-0.065796,0.00,0.00,0.000237,0.087000,-0.072550,-0.088673,0.000000,0.000000,0.039999,0.000000,0.000811,-0.001615,-0.000002,0.000000,0.000000,0.000000,0.000000,819,819,819,819
7595,0,1.449990,1.299991,-0.065155,0.00,0.00,0.000940,0.087000,-0.072551,-0.088674,0.000000,0.000000,0.039999,0.000000,0.000805,-0.001616,-0.000009,0.000000,0.000000,0.000000,0.000000,819,819,819,819
7605,0,1.449992,1.299993,-0.064636,0.00,0.00,0.000850,0.088000,-0.072551,-0.088675,0.000000,0.000000,0.039999,0.000000,0.000801,-0.001610,-0.000009,0.000000,0.000000,0.000000,0.000000,819,819,819,819
7615,0,1.449994,1.299994,-0.064209,0.00,0.00,0.000977,0.088000,-0.072552,-0.088676,0.000000,0.000000,0.039999,0.000000,0.000798,-0.001608,-0.000010,0.000000,0.000000,0.000000,0.000000,819,819,819,819
7633,0,1.449995,1.299996,-0.063873,0.00,0.00,0.001506,0.088000,-0.072552,-0.088677,0.000000,0.000000,0.039999,0.000000,0.000794,-0.001608,-0.000015,0.000000,0.000000,0.000000,0.000000,819,819,819,819
7644,0,1.449996,1.299996,-0.063599,0.00,0.00,0.001363,0.088000,-0.072553,-0.088678,0.000000,0.000000,0.039999,0.000000,0.000791,-0.001606,-0.000014,0.000000,0.000000,0.000000,0.000000,819,819,819,819
7655,0,1.449997,1.299997,-0.063385,0.00,0.00,0.000922,0.088000,-0.072553,-0.088680,0.000000,0.000000,0.039999,0.000000,0.000788,-0.001598,-0.000009,0.000000,0.000000,0.000000,0.000000,819,819,819,819
7665,0,1.449997,1.299998,-0.063202,0.00,0.00,0.001042,0.089000,-0.072553,-0.088680,0.000000,0.000000,0.039999,0.000000,0.000789,-0.001594,-0.000010,0.000000,0.000000,0.000000,0.000000,819,819,819,819
7675,0,1.449998,1.299998,-0.063080,0.00,0.00,0.001358,0.091000,-0.072554,-0.088681,0.000000,0.000000,0.039999,0.000000,0.000787,-0.001597,-0.000014,0.000000,0.000000,0.000000,0.000000,819,819,819,819
7685,0,1.449998,1.299999,-0.062958,0.00,0.00,0.001954,0.091000,-0.072554,-0.088682,0.000000,0.000000,0.039999,0.000000,0.000787,-0.001597,-0.000020,0.000000,0.000000,0.000000,0.000000,819,819,819,819
7696,0,1.449999,1.299999,-0.062866,0.00,0.00,0.001976,0.095000,-0.072554,-0.088683,0.000000,0.000000,0.039999,0.000000,0.000785,-0.001580,-0.000020,0.000000,0.000000,0.000000,0.000000,819,819,819,819
7705,0,1.449999,1.299999,-0.062805,0.00,0.00,0.000234,0.096000,-0.072554,-0.088684,0.000000,0.000000,0.039999,0.000000,0.000783,-0.001578,-0.000002,0.000000,0.000000,0.000000,0.000000,819,819,819,819
7715,0,1.449999,1.299999,-0.062744,0.00,0.00,-0.000514,0.096000,-0.072554,-0.088684,0.000000,0.000000,0.039999,0.000000,0.000783,-0.001583,0.000005,0.000000,0.000000,0.000000,0.000000,819,819,819,819
7725,0,1.449999,1.299999,-0.062714,0.00,0.00,0.001607,0.096000,-0.072555,-0.088685,0.000000,0.000000,0.039999,0.000000,0.000782,-0.001583,-0.000016,0.000000,0.000000,0.000000,0.000000,819,819,819,819
7736,0,1.449999,1.300000,-0.062683,0.00,0.00,0.000937,0.097000,-0.072555,-0.088685,0.000000,0.000000,0.039999,0.000000,0.000782,-0.001594,-0.000009,0.000000,0.000000,0.000000,0.000000,819,819,819,819
7745,0,1.449999,1.300000,-0.062653,0.00,0.00,-0.001018,0.097000,-0.072555,-0.088686,0.000000,0.000000,0.039999,0.000000,0.000781,-0.001598,0.000010,0.000000,0.000000,0.000000,0.000000,819,819,819,819
7756,0,1.450000,1.300000,-0.062622,0.00,0.00,-0.000092,0.097000,-0.072555,-0.088687,0.000000,0.000000,0.039999,0.000000,0.000779,-0.001587,0.000000,0.000000,0.000000,0.000000,0.000000,819,819,819,819
7766,0,1.450000,1.300000,-0.062592,0.00,0.00,0.000020,0.097000,-0.072555,-0.088688,0.000000,0.000000,0.039999,0.000000,0.000779,-0.001584,-0.000000,0.000000,0.000000,0.000000,0.000000,819,819,819,819
7776,0,1.450000,1.300000,-0.062592,0.00,0.00,-0.001225,0.097000,-0.072556,-0.088689,0.000000,0.000000,0.039999,0.000000,0.000777,-0.001580,0.000012,0.000000,0.000000,0.000000,0.000000,819,819,819,819
7786,0,1.450000,1.300000,-0.062592,0.00,0.00,-0.000798,0.097000,-0.072556,-0.088689,0.000000,0.000000,0.039999,0.000000,0.000776,-0.001589,0.000008,0.000000,0.000000,0.000000,0.000000,819,819,819,819
7796,0,1.450000,1.300000,-0.062592,0.00,0.00,-0.000204,0.097000,-0.072556,-0.088689,0.000000,0.000000,0.039999,0.000000,0.000775,-0.001588,0.000002,0.000000,0.000000,0.000000,0.000000,819,819,819,819
7806,0,1.450000,1.300000,-0.062592,0.00,0.00,0.000126,0.097000,-0.072556,-0.088691,0.000000,0.000000,0.039999,0.000000,0.000775,-0.001571,-0.000001,0.000000,0.000000,0.000000,0.000000,819,819,819,819
7816,0,1.450000,1.300000,-0.062592,0.00,0.00,-0.000715,0.097000,-0.072556,-0.088692,0.000000,0.000000,0.039999,0.000000,0.000774,-0.001565,0.000007,0.000000,0.000000,0.000000,0.000000,819,819,819,819
7826,0,1.450000,1.300000,-0.062592,0.00,0.00,-0.002305,0.097000,-0.072557,-0.088693,0.000000,0.000000,0.039999,0.000000,0.000774,-0.001568,0.000023,0.000000,0.000000,0.000000,0.000000,819,819,819,819
7836,0,1.450000,1.300000,-0.062592,0.00,0.00,-0.000221,0.097000,-0.072557,-0.088693,0.000000,0.000000,0.039999,0.000000,0.000775,-0.001573,0.000002,0.000000,0.000000,0.000000,0.000000,819,819,819,819
7846,0,1.450000,1.300000,-0.062592,0.00,0.00,0.000629,0.097000,-0.072557,-0.088694,0.000000,0.000000,0.039999,0.000000,0.000775,-0.001572,-0.000006,0.000000,0.000000,0.000000,0.000000,819,819,819,819
7856,0,1.450000,1.300000,-0.062592,0.00,0.00,-0.000156,0.097000,-0.072557,-0.088694,0.000000,0.000000,0.039999,0.000000,0.000776,-0.001575,0.000002,0.000000,0.000000,0.000000,0.000000,819,819,819,819
7866,0,1.450000,1.300000,-0.062592,0.00,0.00,0.000481,0.097000,-0.072557,-0.088695,0.000000,0.000000,0.039999,0.000000,0.000777,-0.001579,-0.000005,0.000000,0.000000,0.000000,0.000000,819,819,819,819
7876,0,1.450000,1.300000,-0.062592,0.00,0.00,0.000539,0.097000,-0.072557,-0.088695,0.000000,0.000000,0.039999,0.000000,0.000778,-0.001579,-0.000005,0.000000,0.000000,0.000000,0.000000,819,819,819,819
7886,0,1.450000,1.300000,-0.062592,0.00,0.00,0.001938,0.097000,-0.072557,-0.088696,0.000000,0.000000,0.039999,0.000000,0.000777,-0.001569,-0.000019,0.000000,0.000000,0.000000,0.000000,819,819,819,819
7899,0,1.450000,1.300000,-0.062592,0.00,0.00,0.000200,0.097000,-0.072557,-0.088698,0.000000,0.000000,0.039999,0.000000,0.000776,-0.001563,-0.000002,0.000000,0.000000,0.000000,0.000000,819,819,819,819
7910,0,1.450000,1.300000,-0.062592,0.00,-0.00,-0.001374,0.097000,-0.072557,-0.088699,0.000000,0.000000,0.039999,0.000000,0.000775,-0.001558,0.000014,0.000000,0.000000,0.000000,0.000000,819,819,819,819
7924,0,1.462500,1.300000,-0.062592,0.00,0.00,-0.003212,0.097000,-0.073178,-0.088699,0.000000,0.000000,0.039999,0.000000,0.000826,-0.001564,0.000032,0.000000,0.000000,0.000000,0.000000,819,819,819,819
7935,0,1.472500,1.300000,-0.062592,0.00,-0.00,-0.000834,0.097000,-0.073675,-0.088700,0.000000,0.000000,0.039999,0.000000,0.000875,-0.001559,0.000008,0.000000,0.000000,0.000000,0.000000,819,819,819,819
7955,0,1.468000,1.300000,-0.062592,0.00,-0.00,-0.001273,0.098000,-0.073452,-0.088702,0.000000,0.000000,0.039999,0.000000,0.000853,-0.001555,0.000013,0.000000,0.000000,0.000000,0.000000,819,819,819,819
7966,0,1.464400,1.300000,-0.062592,0.00,0.00,-0.002085,0.098000,-0.073274,-0.088702,0.000000,0.000000,0.039999,0.000000,0.000828,-0.001565,0.000021,0.000000,0.000000,0.000000,0.000000,819,819,819,819
7976,0,1.461520,1.300000,-0.062592,0.00,-0.00,-0.001161,0.099000,-0.073132,-0.088703,0.000000,0.000000,0.039999,0.000000,0.000808,-0.001554,0.000012,0.000000,0.000000,0.000000,0.000000,819,819,819,819
7986,0,1.471716,1.300000,-0.062592,0.00,-0.00,-0.002813,0.099000,-0.073637,-0.088704,0.000000,0.000000,0.039999,0.000000,0.000863,-0.001557,0.000028,0.000000,0.000000,0.000000,0.000000,819,819,819,819
7996,0,1.479873,1.300000,-0.062592,0.01,-0.00,-0.002546,0.103000,-0.074042,-0.088704,0.000000,0.000000,0.039999,0.000000,0.000900,-0.001564,0.000026,0.100562,0.103638,0.102311,0.105489,1000,1000,1000,1000
8006,0,1.486398,1.300000,-0.062592,0.01,0.00,-0.000957,0.103000,-0.074425,-0.089208,0.000000,0.000000,0.039999,0.000000,0.000928,-0.001578,0.000010,0.100504,0.103640,0.102340,0.105516,1000,1000,1000,1000
8016,0,1.491619,1.300000,-0.062592,0.01,-0.00,-0.000348,0.103000,-0.074745,-0.089714,0.000000,0.000000,0.039999,0.000000,0.000946,-0.001576,0.000004,0.100482,0.103627,0.102366,0.105525,1000,1000,1000,1000
8026,0,1.495795,1.300000,-0.062592,0.02,-0.00,-0.000107,0.124000,-0.075013,-0.090220,0.000000,0.000000,0.039999,0.000000,0.000956,-0.001573,0.000001,0.121472,0.124616,0.123382,0.126531,1000,1000,1000,1000
8036,0,1.499136,1.300000,-0.062592,0.02,-0.00,-0.001755,0.126000,-0.075240,-0.090726,0.000000,0.000000,0.039999,0.000000,0.000957,-0.001586,0.000018,0.123475,0.126611,0.125354,0.128561,1000,1000,1000,1000
8047,0,1.501809,1.300000,-0.062592,0.01,-0.00,-0.003765,0.126000,-0.075435,-0.091233,0.000000,0.000000,0.039999,0.000000,0.000955,-0.001596,0.000038,0.123487,0.126604,0.125320,0.128589,1000,1000,1000,1000
8056,0,1.503947,1.300000,-0.062592,0.01,-0.00,-0.004858,0.126000,-0.075603,-0.091740,0.000000,0.000000,0.039999,0.000000,0.000953,-0.001614,0.000049,0.123482,0.126612,0.125290,0.128615,1000,1000,1000,1000
8067,0,1.505658,1.300000,-0.062592,0.01,-0.00,-0.003567,0.127000,-0.075749,-0.092249,0.000000,0.000000,0.039999,0.000000,0.000951,-0.001615,0.000036,0.124470,0.127628,0.126301,0.129602,1000,1000,1000,1000
8077,0,1.507026,1.300000,-0.062592,0.01,-0.00,-0.003021,0.127000,-0.075879,-0.092758,0.000000,0.000000,0.039999,0.000000,0.000951,-0.001625,0.000030,0.124454,0.127644,0.126296,0.129606,1000,1000,1000,1000
8087,0,1.508121,1.300000,-72.050079,0.01,-0.00,-0.002112,0.127000,-0.075999,-0.093268,0.000000,0.000000,0.039999,0.000000,0.000913,-0.001618,0.000021,0.124490,0.127683,0.126274,0.129552,1000,1000,1000,1000
8096,0,1.508997,1.300000,-129.640060,0.00,-0.00,-0.001704,0.127000,-0.076104,-0.093777,0.000000,0.000000,0.039999,0.000000,0.000912,-0.001653,0.000017,0.124453,0.127724,0.126242,0.129581,1000,1000,1000,1000
8106,0,1.509698,1.300000,-175.712051,0.00,0.00,-0.002682,0.127000,-0.076201,-0.094287,0.000000,0.000000,0.039999,0.000000,0.000907,-0.001676,0.000027,0.124444,0.127742,0.126204,0.129610,1000,1000,1000,1000
8117,0,1.510258,1.300000,147.430359,0.00,-0.00,-0.002635,0.127000,-0.076292,-0.094800,0.000000,0.000000,0.039999,0.000000,0.000888,-0.001652,0.000027,0.124486,0.127737,0.126210,0.129567,1000,1000,1000,1000
8126,0,1.510707,1.300000,117.944290,0.00,-0.00,0.002072,0.127000,-0.076376,-0.095313,0.000000,0.000000,0.039999,0.000000,0.000882,-0.001649,-0.000021,0.124448,0.127788,0.126253,0.129511,1000,1000,1000,1000
8137,0,1.498565,1.300000,94.355431,-0.00,-0.00,0.009129,0.126000,-0.075837,-0.095826,0.000000,0.000000,0.039999,0.000000,0.000811,-0.001648,-0.000091,0.123450,0.126928,0.125255,0.128368,1000,1000,1000,1000
8146,0,1.488852,1.300000,75.484344,-0.00,-0.00,0.019039,0.126000,-0.075418,-0.096341,0.000000,0.000000,0.039999,0.000000,0.000747,-0.001624,-0.000191,0.123438,0.127068,0.125314,0.128181,1000,1000,1000,1000
8157,0,1.456082,1.300000,60.387478,-0.02,-0.00,0.025002,0.126000,-0.073853,-0.096855,0.000000,0.000000,0.039999,0.000000,0.000589,-0.001627,-0.000251,0.123534,0.127289,0.125212,0.127965,1000,1000,1000,1000
8166,0,1.442365,1.300000,48.309982,-0.03,-0.00,0.018482,0.126000,-0.073235,-0.097370,0.000000,0.000000,0.039999,0.000000,0.000496,-0.001632,-0.000185,0.123687,0.127322,0.125049,0.127943,1000,1000,1000,1000
8177,0,1.456392,1.300000,38.647987,-0.02,0.00,-0.011254,0.126000,-0.073988,-0.097880,0.000000,0.000000,0.039999,0.000000,0.000577,-0.001735,0.000113,0.123801,0.127045,0.124730,0.128425,1000,1000,1000,1000
8187,0,1.505114,1.287500,30.918390,0.00,0.00,-0.040030,0.126000,-0.076460,-0.097509,0.000000,0.000000,0.039999,0.000000,0.000859,-0.001842,0.000401,0.123700,0.126582,0.124616,0.129103,1000,1000,1000,1000
8197,0,1.556591,1.265000,24.734713,0.03,0.00,-0.051046,0.127000,-0.079074,-0.096440,0.000000,0.000000,0.039999,0.000000,0.001132,-0.001751,0.000512,0.124628,0.127107,0.125869,0.130396,1000,1000,1000,1000
8207,0,1.610273,1.247000,19.787771,0.05,-0.00,-0.050238,0.126000,-0.081800,-0.095684,0.000000,0.000000,0.039999,0.000000,0.001396,-0.001588,0.000504,0.123520,0.125688,0.125304,0.129488,1000,1000,1000,1000
8217,0,1.653218,1.232600,15.830217,0.07,-0.02,-0.047331,0.126000,-0.084001,-0.095180,0.000000,0.000000,0.039999,0.000000,0.001566,-0.001344,0.000475,0.123565,0.125303,0.125747,0.129385,1000,1000,1000,1000
8227,0,1.687575,1.233580,12.676674,0.07,-0.03,-0.043249,0.127000,-0.085783,-0.095745,0.000000,0.000000,0.039999,0.000000,0.001633,-0.001259,0.000434,0.124543,0.126191,0.126940,0.130326,1000,1000,1000,1000
8237,0,1.715060,1.234364,10.166339,0.07,-0.03,-0.036031,0.127000,-0.087229,-0.096292,0.000000,0.000000,0.039999,0.000000,0.001634,-0.001271,0.000362,0.124458,0.126275,0.127001,0.130267,1000,1000,1000,1000
8247,0,1.712048,1.234991,8.170571,0.05,-0.02,-0.014680,0.127000,-0.087167,-0.096821,0.000000,0.000000,0.039999,0.000000,0.001459,-0.001405,0.000148,0.124284,0.126797,0.126906,0.130012,1000,1000,1000,1000
8257,0,1.672138,1.235493,6.586457,0.02,-0.01,0.017077,0.127000,-0.085275,-0.097344,0.000000,0.000000,0.039999,0.000000,0.001089,-0.001521,-0.000170,0.124219,0.127602,0.126738,0.129440,1000,1000,1000,1000
8274,0,1.602711,1.235894,5.331666,-0.02,-0.01,0.048927,0.127000,-0.081904,-0.097867,0.000000,0.000000,0.039999,0.000000,0.000715,-0.001517,-0.000490,0.124278,0.128292,0.126687,0.128743,1000,1000,1000,1000
8287,0,1.472169,1.248716,4.365333,-0.08,-0.01,0.082000,0.127000,-0.075506,-0.099264,0.000000,0.000000,0.039999,0.000000,-0.000033,-0.001575,-0.000822,0.124637,0.129429,0.126214,0.127720,1000,1000,1000,1000
8297,0,1.367735,1.258972,3.592266,-0.15,-0.01,0.119392,0.126000,-0.070404,-0.100486,0.000000,0.000000,0.039999,0.000000,-0.000712,-0.001615,-0.001197,0.123900,0.129524,0.124870,0.125706,1000,1000,1000,1000
8307,0,1.171688,1.279678,3.023813,-0.25,-0.00,0.156237,0.126000,-0.060752,-0.102447,0.000000,0.000000,0.039999,0.000000,-0.001834,-0.001706,-0.001567,0.124561,0.131106,0.124028,0.124305,1000,1000,1000,1000
8317,0,1.014850,1.296242,2.569051,-0.33,-0.00,0.184090,0.126000,-0.053029,-0.104130,0.000000,0.000000,0.039999,0.000000,-0.002678,-0.001726,-0.001847,0.125105,0.132250,0.123444,0.123201,1000,1000,1000,1000
8327,0,0.801880,1.321994,2.267740,-0.43,-0.00,0.201628,0.127000,-0.042515,-0.106461,0.000000,0.000000,0.039999,0.000000,-0.003799,-0.001852,-0.002023,0.126923,0.134674,0.123373,0.123030,1000,1000,1000,1000
8337,0,0.606504,1.367595,2.051692,-0.51,0.00,0.207862,0.127000,-0.032854,-0.110197,0.000000,0.000000,0.039999,0.000000,-0.004726,-0.002089,-0.002087,0.127551,0.135902,0.122272,0.122276,1000,1000,1000,1000
8347,0,0.450203,1.404076,1.878854,-0.57,0.00,0.211847,0.127000,-0.025114,-0.113321,0.000000,0.000000,0.039999,0.000000,-0.005374,-0.002116,-0.002128,0.128130,0.136617,0.121638,0.121615,1000,1000,1000,1000
8357,0,0.287663,1.483261,1.815583,-0.62,0.02,0.212343,0.127000,-0.017055,-0.119452,0.000000,0.000000,0.039999,0.000000,-0.006017,-0.002483,-0.002133,0.128400,0.137634,0.120633,0.121333,1000,1000,1000,1000
8367,0,0.145130,1.559109,1.802467,-0.66,0.04,0.201083,0.126000,-0.009977,-0.125379,0.000000,0.000000,0.039999,0.000000,-0.006520,-0.002885,-0.002021,0.127614,0.137426,0.118617,0.120343,1000,1000,1000,1000
8377,0,0.031104,1.657287,1.841973,-0.69,0.06,0.182498,0.126000,-0.004305,-0.132908,0.000000,0.000000,0.039999,0.000000,-0.006853,-0.003369,-0.001836,0.127648,0.138059,0.117613,0.120680,1000,1000,1000,1000
8387,0,-0.060117,1.773329,1.911079,-0.71,0.07,0.163606,0.126000,0.000244,-0.141746,0.000000,0.000000,0.039999,0.000000,-0.007054,-0.003730,-0.001647,0.127676,0.138431,0.116863,0.121029,1000,1000,1000,1000
8397,0,-0.120593,1.928664,2.016363,-0.71,0.10,0.146613,0.126000,0.003273,-0.153389,0.000000,0.000000,0.039999,0.000000,-0.007088,-0.004330,-0.001477,0.127281,0.138895,0.116060,0.121764,1000,1000,1000,1000
8407,0,-0.168975,2.102931,2.150590,-0.70,0.13,0.127400,0.127000,0.005703,-0.166419,0.000000,0.000000,0.039999,0.000000,-0.007078,-0.005161,-0.001285,0.127632,0.140524,0.116047,0.123798,1000,1000,1000,1000
8417,0,-0.182680,2.292345,2.307972,-0.68,0.17,0.096229,0.127000,0.006415,-0.180592,0.000000,0.000000,0.039999,0.000000,-0.006894,-0.005977,-0.000973,0.126944,0.140845,0.115102,0.125110,1000,1000,1000,1000
8427,0,-0.168644,2.506376,2.483878,-0.65,0.20,0.062527,0.127000,0.005750,-0.196581,0.000000,0.000000,0.039999,0.000000,-0.006594,-0.006805,-0.000636,0.126153,0.141034,0.114238,0.126575,1000,1000,1000,1000
8437,0,-0.132415,2.752601,2.687102,-0.62,0.24,0.034100,0.127000,0.003980,-0.214917,0.000000,0.000000,0.039999,0.000000,-0.006219,-0.007881,-0.000351,0.124987,0.141450,0.113252,0.128311,1000,1000,1000,1000
8447,0,-0.065932,3.012080,2.899682,-0.57,0.29,0.010860,0.127000,0.000705,-0.234289,0.000000,0.000000,0.039999,0.000000,-0.005722,-0.009020,-0.000118,0.123584,0.141861,0.112376,0.130180,1000,1000,1000,1000
8457,0,0.012254,3.294664,3.132246,-0.53,0.34,-0.014939,0.127000,-0.003158,-0.255395,0.000000,0.000000,0.039999,0.000000,-0.005218,-0.010243,0.000141,0.122116,0.142320,0.111399,0.132165,1000,1000,1000,1000
8467,0,0.124803,3.608232,3.380796,-0.47,0.39,-0.047925,0.127000,-0.008735,-0.278806,0.000000,0.000000,0.039999,0.000000,-0.004606,-0.011503,0.000471,0.120574,0.142637,0.110420,0.134368,1000,1000,1000,1000
8477,0,0.264843,3.946585,3.642137,-0.41,0.44,-0.079538,0.127000,-0.015688,-0.304096,0.000000,0.000000,0.039999,0.000000,-0.003934,-0.012793,0.000789,0.118929,0.142939,0.109484,0.136648,1000,1000,1000,1000
8488,0,0.426874,4.317268,3.913710,-0.34,0.50,-0.108771,0.127000,-0.023743,-0.331803,0.000000,0.000000,0.039999,0.000000,-0.003200,-0.014233,0.001082,0.117050,0.143351,0.108485,0.139115,1000,1000,1000,1000
8497,0,0.556499,4.613815,4.130968,-0.30,0.51,-0.137091,0.127000,-0.030205,-0.354493,0.000000,0.000000,0.039999,0.000000,-0.002710,-0.014815,0.001367,0.116261,0.143158,0.108109,0.140472,1000,1000,1000,1000
8507,0,0.772700,5.063552,4.442275,-0.22,0.59,-0.166659,0.127000,-0.040970,-0.388034,0.000000,0.000000,0.039999,0.000000,-0.001821,-0.016713,0.001664,0.113771,0.143871,0.106802,0.143556,1000,1000,1000,1000
8517,0,0.945660,5.423342,4.691319,-0.18,0.60,-0.194661,0.127000,-0.049610,-0.415496,0.000000,0.000000,0.039999,0.000000,-0.001252,-0.017467,0.001945,0.112729,0.143774,0.106336,0.145161,1000,1000,1000,1000
8527,0,1.209028,5.948674,5.028056,-0.09,0.69,-0.222283,0.127000,-0.062741,-0.454698,0.000000,0.000000,0.039999,0.000000,-0.000222,-0.019689,0.002223,0.109756,0.144688,0.104866,0.148690,1000,1000,1000,1000
8538,0,1.419722,6.368939,5.297445,-0.04,0.70,-0.249561,0.127000,-0.073293,-0.486808,0.000000,0.000000,0.039999,0.000000,0.000318,-0.020409,0.002497,0.108770,0.144593,0.104412,0.150225,1000,1000,1000,1000
8547,0,1.650778,6.842651,5.587956,0.03,0.77,-0.282434,0.127000,-0.084847,-0.522804,0.000000,0.000000,0.039999,0.000000,0.001132,-0.022250,0.002828,0.106446,0.145290,0.103054,0.153210,1000,1000,1000,1000
8557,0,2.010622,7.496621,5.957865,0.14,0.89,-0.320475,0.127000,-0.102813,-0.571654,0.000000,0.000000,0.039999,0.000000,0.002435,-0.025110,0.003211,0.102665,0.146464,0.101114,0.157757,1000,1000,1000,1000
8567,0,2.298498,8.019797,6.253792,0.20,0.93,-0.356974,0.127000,-0.117243,-0.611660,0.000000,0.000000,0.039999,0.000000,0.003207,-0.026395,0.003578,0.100976,0.146611,0.100233,0.160180,1000,1000,1000,1000
8578,0,2.728798,8.750838,6.653034,0.31,1.03,-0.399436,0.127000,-0.138766,-0.666465,0.000000,0.000000,0.039999,0.000000,0.004524,-0.029098,0.004005,0.097383,0.147569,0.098421,0.164628,1000,1000,1000,1000
8593,0,3.198039,9.485671,7.047427,0.37,1.04,-0.444600,0.127000,-0.162307,-0.721958,0.000000,0.000000,0.039999,0.000000,0.005346,-0.030122,0.004460,0.095992,0.147317,0.097763,0.166928,1000,1000,1000,1000
8603,0,3.698431,10.236037,7.437942,0.51,1.17,-0.490655,0.127000,-0.187340,-0.778740,0.000000,0.000000,0.039999,0.000000,0.007064,-0.033325,0.004924,0.091535,0.148337,0.095815,0.172312,1000,1000,1000,1000
8615,0,4.236245,10.998831,7.825354,0.62,1.22,-0.537723,0.127000,-0.214308,-0.836803,0.000000,0.000000,0.039999,0.000000,0.008392,-0.035233,0.005398,0.088773,0.148443,0.094761,0.176023,1000,1000,1000,1000
8627,0,4.803996,11.771564,8.210283,0.73,1.26,-0.588506,0.126000,-0.242796,-0.895909,0.000000,0.000000,0.039999,0.000000,0.009755,-0.037034,0.005909,0.085120,0.147369,0.092812,0.178698,1000,1000,1000,1000
8637,0,5.420697,12.564752,8.593226,0.89,1.37,-0.646487,0.127000,-0.273701,-0.956738,0.000000,0.000000,0.039999,0.000000,0.011725,-0.039847,0.006493,0.081921,0.148629,0.092385,0.185065,1000,1000,1000,1003
8647,0,6.076557,13.386802,8.974582,1.06,1.47,-0.705798,0.126000,-0.306590,-1.019952,0.000000,0.000000,0.039999,0.000000,0.013730,-0.042652,0.007091,0.076709,0.147831,0.089988,0.189472,1000,1000,1000,1007
8657,0,6.776246,14.231941,9.354666,1.23,1.56,-0.770045,0.126000,-0.341698,-1.085159,0.000000,0.000000,0.039999,0.000000,0.015795,-0.045414,0.007738,0.072529,0.147881,0.088643,0.194947,1000,1000,1000,1011
8668,0,7.748497,15.283053,9.821233,1.47,1.70,-0.837826,0.126000,-0.390404,-1.165208,0.000000,0.000000,0.039999,0.000000,0.018732,-0.049104,0.008421,0.066586,0.147951,0.087207,0.202257,1000,1000,1000,1017
8678,0,8.738797,16.323944,10.281986,1.74,1.86,-0.905697,0.126000,-0.440028,-1.244976,0.000000,0.000000,0.039999,0.000000,0.021951,-0.053206,0.009105,0.059948,0.148149,0.085640,0.210263,1000,1000,1000,1024
8688,0,9.768538,17.356655,10.738089,2.00,2.00,-0.974581,0.126000,-0.491678,-1.324652,0.000000,0.000000,0.039999,0.000000,0.025099,-0.056904,0.009800,0.053797,0.148005,0.084395,0.217803,1000,1000,1000,1030
8698,0,10.592330,18.182825,11.102971,2.13,2.01,-1.047284,0.126000,-0.533199,-1.390360,0.000000,0.000000,0.039999,0.000000,0.026829,-0.058292,0.010533,0.051413,0.146930,0.084004,0.221654,1000,1000,1000,1033
8708,0,11.788865,19.243759,11.569877,2.43,2.13,-1.125204,0.126000,-0.593238,-1.472865,0.000000,0.000000,0.039999,0.000000,0.030462,-0.061804,0.011319,0.045052,0.146023,0.083339,0.229586,1000,1000,1000,1039
8718,0,12.746093,20.092506,11.943401,2.58,2.13,-1.205567,0.126000,-0.641507,-1.541021,0.000000,0.000000,0.039999,0.000000,0.032455,-0.062933,0.012130,0.042742,0.144349,0.083392,0.233518,1000,1000,1000,1043
8728,0,14.124374,21.184006,12.417221,2.92,2.25,-1.284410,0.125000,-0.710694,-1.626538,0.000000,0.000000,0.039999,0.000000,0.036612,-0.066390,0.012925,0.034924,0.141852,0.082297,0.240927,1000,1000,1000,1049
8741,0,15.552000,22.269705,12.896276,3.09,2.22,-1.362602,0.125000,-0.782586,-1.712279,0.000000,0.000000,0.039999,0.000000,0.039046,-0.067420,0.013715,0.032249,0.139659,0.082911,0.245181,1000,1000,1000,1052
8750,0,17.019100,23.325764,13.367022,3.50,2.37,-1.425179,0.125000,-0.856272,-1.796243,0.000000,0.000000,0.039999,0.000000,0.043957,-0.071396,0.014348,0.023995,0.138090,0.083213,0.254702,1000,1000,1000,1060
8760,0,18.430281,24.308111,13.856118,3.77,2.45,-1.411862,0.122000,-0.927372,-1.875555,0.000000,0.000000,0.039999,0.000000,0.047375,-0.074184,0.014221,0.014662,0.134588,0.080970,0.257780,1000,1000,1000,1063
8770,0,19.746725,25.193989,14.334895,3.98,2.52,-1.370276,0.122000,-0.993854,-1.948523,0.000000,0.000000,0.039999,0.000000,0.050132,-0.076721,0.013810,0.008957,0.134778,0.081601,0.262663,1000,1000,1000,1067
8780,0,20.862381,25.977692,14.755417,4.11,2.58,-1.263416,0.122000,-1.050415,-2.014712,0.000000,0.000000,0.039999,0.000000,0.052103,-0.078849,0.012745,0.003792,0.136001,0.082509,0.265697,1000,1000,1000,1069
8790,0,21.717405,26.679653,15.091834,4.15,2.61,-1.104427,0.004000,-1.094082,-2.075529,0.000000,0.000000,0.039999,0.000000,0.052961,-0.080418,0.011156,0.000000,0.000000,0.000000,0.000000,819,819,819,819
8800,0,22.276424,27.253723,15.310967,4.08,2.65,-0.932459,0.004000,-1.110726,-1.914287,0.000000,0.000000,0.039999,0.000000,0.052365,-0.078295,0.009437,0.000000,0.000000,0.000000,0.000000,819,819,819,819
8810,0,22.498640,27.737978,15.411275,3.88,2.66,-0.711023,0.004000,-1.122040,-1.948400,0.000000,0.000000,0.039999,0.000000,0.050569,-0.079100,0.007220,0.000000,0.000000,0.000000,0.000000,819,819,819,819
8820,0,22.451412,28.187881,15.366521,3.60,2.62,-0.520054,0.003000,-1.119958,-1.980148,0.000000,0.000000,0.039999,0.000000,0.047759,-0.078940,0.005309,0.000000,0.000000,0.000000,0.000000,819,819,819,819
8830,0,22.151131,28.572805,15.205717,3.23,2.58,-0.331164,0.003000,-1.105301,-2.007315,0.000000,0.000000,0.039999,0.000000,0.043936,-0.078764,0.003417,0.000000,0.000000,0.000000,0.000000,819,819,819,819
8839,0,21.710905,28.905745,14.939573,2.81,2.54,-0.208614,0.003000,-1.083695,-2.030821,0.000000,0.000000,0.039999,0.000000,0.039489,-0.078521,0.002189,0.000000,0.000000,0.000000,0.000000,819,819,819,819
8849,0,21.183725,29.209595,14.576659,2.41,2.45,-0.124545,0.003000,-1.057715,-2.052327,0.000000,0.000000,0.039999,0.000000,0.035212,-0.077414,0.001347,0.000000,0.000000,0.000000,0.000000,819,819,819,819
8859,0,20.611982,29.490175,14.123827,2.03,2.37,-0.072195,0.003000,-1.029483,-2.072190,0.000000,0.000000,0.039999,0.000000,0.031138,-0.076349,0.000823,0.000000,0.000000,0.000000,0.000000,819,819,819,819
8869,0,20.029587,29.727140,13.586562,1.68,2.28,-0.053522,0.003000,-1.000683,-2.088986,0.000000,0.000000,0.039999,0.000000,0.027407,-0.075145,0.000636,0.000000,0.000000,0.000000,0.000000,819,819,819,819
8879,0,19.463671,29.941713,12.969251,1.38,2.18,-0.056210,0.003000,-0.972663,-2.104211,0.000000,0.000000,0.039999,0.000000,0.024129,-0.073815,0.000663,0.000000,0.000000,0.000000,0.000000,819,819,819,819
8889,0,18.910938,30.138371,12.275400,1.13,2.09,-0.060715,0.003000,-0.945253,-2.118170,0.000000,0.000000,0.039999,0.000000,0.021349,-0.072528,0.000709,0.000000,0.000000,0.000000,0.000000,819,819,819,819
8904,0,18.293751,30.308197,11.507820,1.00,1.99,-0.026760,0.003000,-0.914500,-2.130265,0.000000,0.000000,0.039999,0.000000,0.019722,-0.070911,0.000369,0.000000,0.000000,0.000000,0.000000,819,819,819,819
8916,0,17.600000,30.444057,10.643756,0.82,1.91,0.014851,0.003000,-0.879961,-2.139928,0.000000,0.000000,0.039999,0.000000,0.017589,-0.069814,-0.000049,0.000000,0.000000,0.000000,0.000000,819,819,819,819
8927,0,16.745001,30.527746,9.690005,0.60,1.84,0.112613,0.003000,-0.837399,-2.145910,0.000000,0.000000,0.039999,0.000000,0.014906,-0.068756,-0.001029,0.000000,0.000000,0.000000,0.000000,819,819,819,819
8938,0,15.686001,30.519697,8.627005,0.37,1.81,0.290830,0.003000,-0.784627,-2.145391,0.000000,0.000000,0.039999,0.000000,0.012131,-0.068221,-0.002816,0.000000,0.000000,0.000000,0.000000,819,819,819,819
8948,0,14.388801,30.400759,7.451604,0.03,1.75,0.465070,0.003000,-0.720054,-2.137083,0.000000,0.000000,0.039999,0.000000,0.008032,-0.067151,-0.004565,0.000000,0.000000,0.000000,0.000000,819,819,819,819
8958,0,12.863541,30.155607,6.161283,-0.37,1.67,0.650116,0.004000,-0.644128,-2.119908,0.000000,0.000000,0.039999,0.000000,0.003209,-0.065515,-0.006422,0.000000,0.000000,0.000000,0.000000,819,819,819,819
8968,0,11.130833,29.746986,76.766525,-0.84,1.56,0.787322,0.004000,-0.557882,-2.091255,0.000000,0.000000,0.039999,0.000000,-0.002345,-0.063022,-0.007801,0.000000,0.000000,0.000000,0.000000,819,819,819,819
8978,0,8.882166,28.832590,132.525726,-1.54,1.22,0.882374,0.004000,-0.446049,-2.027188,0.000000,0.000000,0.039999,0.000000,-0.010501,-0.056217,-0.008757,0.000000,0.000000,0.000000,0.000000,819,819,819,819
8989,0,7.083233,28.101072,177.133087,-1.98,1.01,0.937204,0.004000,-0.356455,-1.975875,0.000000,0.000000,0.039999,0.000000,-0.015759,-0.051831,-0.009311,0.000000,0.000000,0.000000,0.000000,819,819,819,819
8998,0,5.094086,26.828358,-147.806030,-2.49,0.57,0.934078,0.004000,-0.257427,-1.886670,0.000000,0.000000,0.039999,0.000000,-0.021963,-0.042758,-0.009284,0.000000,0.000000,0.000000,0.000000,819,819,819,819
9008,0,3.352769,25.485186,-120.019821,-2.87,0.11,0.893943,0.004000,-0.170663,-1.792512,0.000000,0.000000,0.039999,0.000000,-0.026660,-0.033399,-0.008886,0.000000,0.000000,0.000000,0.000000,819,819,819,819
9018,0,1.884715,24.098148,-98.015839,-3.13,-0.34,0.806738,0.004000,-0.097448,-1.695258,0.000000,0.000000,0.039999,0.000000,-0.029961,-0.024059,-0.008015,0.000000,0.000000,0.000000,0.000000,819,819,819,819
9028,0,0.710272,22.988518,-80.412659,-3.27,-0.64,0.678491,0.004000,-0.038815,-1.617397,0.000000,0.000000,0.039999,0.000000,-0.031992,-0.017578,-0.006733,0.000000,0.000000,0.000000,0.000000,819,819,819,819
9039,0,-0.116782,21.638313,-66.580109,-3.25,-1.03,0.507504,0.004000,0.002593,-1.522670,0.000000,0.000000,0.039999,0.000000,-0.032245,-0.009390,-0.005022,0.000000,0.000000,0.000000,0.000000,819,819,819,819
9049,0,-0.778426,20.558151,-55.514069,-3.25,-1.37,0.316594,0.004000,0.035710,-1.446922,0.000000,0.000000,0.039999,0.000000,-0.032544,-0.002292,-0.003110,0.000000,0.000000,0.000000,0.000000,819,819,819,819
9059,0,-0.957741,19.544022,-46.686249,-3.03,-1.71,0.132525,0.004000,0.044896,-1.375821,0.000000,0.000000,0.039999,0.000000,-0.030526,0.004671,-0.001266,0.000000,0.000000,0.000000,0.000000,819,819,819,819
9068,0,-1.101192,18.732718,-39.623993,-2.85,-2.00,-0.025042,0.004000,0.052264,-1.318971,0.000000,0.000000,0.039999,0.000000,-0.028727,0.010744,0.000314,0.000000,0.000000,0.000000,0.000000,819,819,819,819
9079,0,-0.890954,18.158674,-33.936676,-2.50,-2.11,-0.137173,0.004000,0.042091,-1.278644,0.000000,0.000000,0.039999,0.000000,-0.025135,0.013264,0.001438,0.000000,0.000000,0.000000,0.000000,819,819,819,819
9089,0,-0.635263,17.724440,-29.374329,-2.15,-2.14,-0.192329,0.004000,0.029646,-1.248085,0.000000,0.000000,0.039999,0.000000,-0.021507,0.014229,0.001992,0.000000,0.000000,0.000000,0.000000,819,819,819,819
9099,0,-0.380711,17.339552,-25.686951,-1.84,-2.09,-0.212712,0.004000,0.017215,-1.220926,0.000000,0.000000,0.039999,0.000000,-0.018297,0.013838,0.002197,0.000000,0.000000,0.000000,0.000000,819,819,819,819
9109,0,-0.102068,16.956642,-22.699554,-1.56,-2.00,-0.239344,0.004000,0.003550,-1.193867,0.000000,0.000000,0.039999,0.000000,-0.015363,0.012770,0.002465,0.000000,0.000000,0.000000,0.000000,819,819,819,819
9119,0,0.195845,16.512814,-20.247131,-1.31,-1.91,-0.267696,0.004000,-0.011111,-1.162518,0.000000,0.000000,0.039999,0.000000,-0.012734,0.011836,0.002750,0.000000,0.000000,0.000000,0.000000,819,819,819,819
9129,0,0.434176,16.157751,-18.285187,-1.12,-1.75,-0.300089,0.004000,-0.022853,-1.137353,0.000000,0.000000,0.039999,0.000000,-0.010760,0.009601,0.003076,0.000000,0.000000,0.000000,0.000000,819,819,819,819
9139,0,0.787341,15.498701,-16.590637,-0.90,-1.74,-0.322670,0.004000,-0.040306,-1.090909,0.000000,0.000000,0.039999,0.000000,-0.008373,0.010103,0.003304,0.000000,0.000000,0.000000,0.000000,819,819,819,819
9149,0,1.132373,14.746461,-15.160004,-0.71,-1.74,-0.336162,0.004000,-0.057383,-1.037925,0.000000,0.000000,0.039999,0.000000,-0.006292,0.011162,0.003441,0.000000,0.000000,0.000000,0.000000,819,819,819,819
9159,0,1.470898,13.882169,-13.940491,-0.55,-1.78,-0.339875,0.004000,-0.074159,-0.977070,0.000000,0.000000,0.039999,0.000000,-0.004465,0.012790,0.003480,0.000000,0.000000,0.000000,0.000000,819,819,819,819
9169,0,1.779219,12.878235,-12.889862,-0.41,-1.84,-0.331629,0.004000,-0.089455,-0.906405,0.000000,0.000000,0.039999,0.000000,-0.002966,0.015094,0.003398,0.000000,0.000000,0.000000,0.000000,819,819,819,819
9179,0,2.050875,11.725088,-11.974396,-0.31,-1.94,-0.313492,0.004000,-0.102944,-0.825257,0.000000,0.000000,0.039999,0.000000,-0.001764,0.018103,0.003218,0.000000,0.000000,0.000000,0.000000,819,819,819,819
9189,0,2.280700,10.402571,-11.179504,-0.23,-2.06,-0.285472,0.004000,-0.114365,-0.732206,0.000000,0.000000,0.039999,0.000000,-0.000838,0.021856,0.002939,0.000000,0.000000,0.000000,0.000000,819,819,819,819
9199,0,2.439560,8.944557,-10.493591,-0.18,-2.24,-0.237730,0.004000,-0.122269,-0.629659,0.000000,0.000000,0.039999,0.000000,-0.000288,0.026683,0.002461,0.000000,0.000000,0.000000,0.000000,819,819,819,819
9209,0,2.529148,7.603146,-9.907379,-0.14,-2.55,-0.180119,0.004000,-0.126716,-0.535449,0.000000,0.000000,0.039999,0.000000,0.000119,0.033439,0.001885,0.000000,0.000000,0.000000,0.000000,819,819,819,819
9226,0,2.525819,6.555017,-9.425903,-0.14,-2.62,-0.106012,0.004000,-0.126546,-0.461675,0.000000,0.000000,0.039999,0.000000,0.000152,0.035945,0.001142,0.000000,0.000000,0.000000,0.000000,819,819,819,819
9238,0,2.435655,5.754014,-9.065704,-0.14,-2.72,-0.017908,0.004000,-0.122040,-0.405345,0.000000,0.000000,0.039999,0.000000,0.000050,0.038728,0.000260,0.000000,0.000000,0.000000,0.000000,819,819,819,819
9248,0,2.251024,5.138211,-8.790070,-0.21,-2.77,0.085246,0.004000,-0.112868,-0.362004,0.000000,0.000000,0.039999,0.000000,-0.000731,0.040289,-0.000775,0.000000,0.000000,0.000000,0.000000,819,819,819,819
9259,0,1.978319,4.658069,-8.582031,-0.31,-2.73,0.108340,0.004000,-0.099318,-0.328130,0.000000,0.000000,0.039999,0.000000,-0.001847,0.040124,-0.001006,0.000000,0.000000,0.000000,0.000000,819,819,819,819
9269,0,1.722655,4.298955,-8.415619,-0.42,-2.66,0.074316,0.004000,-0.086631,-0.302758,0.000000,0.000000,0.039999,0.000000,-0.003054,0.039380,-0.000666,0.000000,0.000000,0.000000,0.000000,819,819,819,819
9279,0,1.568124,4.061665,-8.244995,-0.47,-2.54,0.046220,0.004000,-0.078952,-0.285921,0.000000,0.000000,0.039999,0.000000,-0.003683,0.037652,-0.000385,0.000000,0.000000,0.000000,0.000000,819,819,819,819
9289,0,1.457000,3.896832,-8.108490,-0.49,-2.38,0.039549,0.004000,-0.073406,-0.274151,0.000000,0.000000,0.039999,0.000000,-0.003891,0.035178,-0.000318,0.000000,0.000000,0.000000,0.000000,819,819,819,819
9299,0,1.355600,3.764966,-7.999298,-0.48,-2.22,0.040559,0.004000,-0.068327,-0.264697,0.000000,0.000000,0.039999,0.000000,-0.003908,0.032563,-0.000328,0.000000,0.000000,0.000000,0.000000,819,819,819,819
9309,0,1.286980,3.671973,-7.924438,-0.46,-2.05,0.026550,0.004000,-0.064872,-0.257980,0.000000,0.000000,0.039999,0.000000,-0.003728,0.029866,-0.000188,0.000000,0.000000,0.000000,0.000000,819,819,819,819
9319,0,1.257084,3.610078,-7.864532,-0.43,-1.88,0.007344,0.004000,-0.063342,-0.253454,0.000000,0.000000,0.039999,0.000000,-0.003407,0.027115,0.000005,0.000000,0.000000,0.000000,0.000000,819,819,819,819
9329,0,1.258167,3.573062,-7.816620,-0.39,-1.72,-0.012629,0.004000,-0.063354,-0.250683,0.000000,0.000000,0.039999,0.000000,-0.002984,0.024373,0.000205,0.000000,0.000000,0.000000,0.000000,819,819,819,819
9339,0,1.259034,3.543450,-7.778290,-0.35,-1.56,-0.025523,0.004000,-0.063361,-0.248441,0.000000,0.000000,0.039999,0.000000,-0.002624,0.021749,0.000334,0.000000,0.000000,0.000000,0.000000,819,819,819,819
9349,0,1.284727,3.507260,-7.747620,-0.30,-1.42,-0.039886,0.004000,-0.064601,-0.245746,0.000000,0.000000,0.039999,0.000000,-0.002147,0.019299,0.000478,0.000000,0.000000,0.000000,0.000000,819,819,819,819
9359,0,1.330282,3.453308,-7.723083,-0.25,-1.29,-0.053299,0.004000,-0.066828,-0.241817,0.000000,0.000000,0.039999,0.000000,-0.001597,0.017177,0.000613,0.000000,0.000000,0.000000,0.000000,819,819,819,819
9369,0,1.366725,3.410146,-7.703461,-0.21,-1.17,-0.066267,0.004000,-0.068609,-0.238657,0.000000,0.000000,0.039999,0.000000,-0.001153,0.015183,0.000743,0.000000,0.000000,0.000000,0.000000,819,819,819,819
9379,0,1.420880,3.363117,-7.687744,-0.16,-1.07,-0.079143,0.004000,-0.071273,-0.235242,0.000000,0.000000,0.039999,0.000000,-0.000663,0.013508,0.000873,0.000000,0.000000,0.000000,0.000000,819,819,819,819
9389,0,1.489204,3.312994,-7.675171,-0.11,-0.98,-0.084475,0.004000,-0.074643,-0.231630,0.000000,0.000000,0.039999,0.000000,-0.000127,0.012183,0.000926,0.000000,0.000000,0.000000,0.000000,819,819,819,819
9399,0,1.556363,3.272895,-7.665131,-0.07,-0.91,-0.075102,0.004000,-0.077957,-0.228736,0.000000,0.000000,0.039999,0.000000,0.000373,0.011053,0.000833,0.000000,0.000000,0.000000,0.000000,819,819,819,819
9409,0,1.610091,3.253316,-7.657104,-0.03,-0.84,-0.048278,0.004000,-0.080609,-0.227287,0.000000,0.000000,0.039999,0.000000,0.000775,0.009862,0.000564,0.000000,0.000000,0.000000,0.000000,819,819,819,819
9419,0,1.590573,3.262653,-7.663177,-0.03,-0.76,-0.012396,0.004000,-0.079636,-0.227865,0.000000,0.000000,0.039999,0.000000,0.000722,0.008474,0.000205,0.000000,0.000000,0.000000,0.000000,819,819,819,819
9429,0,1.574958,3.270123,-7.668030,-0.04,-0.69,0.017487,0.004000,-0.078860,-0.228319,0.000000,0.000000,0.039999,0.000000,0.000668,0.007202,-0.000095,0.000000,0.000000,0.000000,0.000000,819,819,819,819
9440,0,1.499967,3.276098,-7.659424,-0.07,-0.62,0.034479,0.004000,-0.075140,-0.228671,0.000000,0.000000,0.039999,0.000000,0.000292,0.006001,-0.000265,0.000000,0.000000,0.000000,0.000000,819,819,819,819
9450,0,1.439973,3.280879,-7.652527,-0.10,-0.55,0.038043,0.004000,-0.072164,-0.228942,0.000000,0.000000,0.039999,0.000000,0.000006,0.004849,-0.000301,0.000000,0.000000,0.000000,0.000000,819,819,819,819
9460,0,1.391979,3.284703,-7.647003,-0.11,-0.49,0.030076,0.004000,-0.069776,-0.229152,0.000000,0.000000,0.039999,0.000000,-0.000162,0.003806,-0.000221,0.000000,0.000000,0.000000,0.000000,819,819,819,819
9469,0,1.353583,3.287763,-7.642578,-0.12,-0.43,0.013540,0.004000,-0.067864,-0.229316,0.000000,0.000000,0.039999,0.000000,-0.000273,0.002896,-0.000056,0.000000,0.000000,0.000000,0.000000,819,819,819,819
9480,0,1.360366,3.277710,-7.639038,-0.10,-0.39,-0.005778,0.004000,-0.068188,-0.228569,0.000000,0.000000,0.039999,0.000000,-0.000114,0.002226,0.000138,0.000000,0.000000,0.000000,0.000000,819,819,819,819
9490,0,1.365793,3.269668,-7.636230,-0.09,-0.36,-0.021188,0.004000,-0.068445,-0.227969,0.000000,0.000000,0.039999,0.000000,0.000026,0.001643,0.000292,0.000000,0.000000,0.000000,0.000000,819,819,819,819
9500,0,1.395135,3.263235,-7.633972,-0.07,-0.33,-0.028605,0.004000,-0.069890,-0.227486,0.000000,0.000000,0.039999,0.000000,0.000282,0.001124,0.000367,0.000000,0.000000,0.000000,0.000000,819,819,819,819
9509,0,1.431108,3.270588,-7.632172,-0.04,-0.29,-0.029100,0.004000,-0.071664,-0.227972,0.000000,0.000000,0.039999,0.000000,0.000569,0.000529,0.000372,0.000000,0.000000,0.000000,0.000000,819,819,819,819
9520,0,1.447386,3.276470,-7.630737,-0.03,-0.26,-0.022708,0.004000,-0.072467,-0.228357,0.000000,0.000000,0.039999,0.000000,0.000689,-0.000007,0.000308,0.000000,0.000000,0.000000,0.000000,819,819,819,819
9530,0,1.460409,3.281177,-7.629578,-0.02,-0.23,-0.012986,0.004000,-0.073110,-0.228661,0.000000,0.000000,0.039999,0.000000,0.000790,-0.000511,0.000211,0.000000,0.000000,0.000000,0.000000,819,819,819,819
9545,0,1.458327,3.284941,-7.628662,-0.02,-0.21,-0.003359,0.004000,-0.073004,-0.228903,0.000000,0.000000,0.039999,0.000000,0.000802,-0.000950,0.000114,0.000000,0.000000,0.000000,0.000000,819,819,819,819
9555,0,1.444162,3.287953,-7.627930,-0.02,-0.19,0.003904,0.004000,-0.072301,-0.229094,0.000000,0.000000,0.039999,0.000000,0.000734,-0.001346,0.000041,0.000000,0.000000,0.000000,0.000000,819,819,819,819
9569,0,1.432829,3.290363,-7.627319,-0.03,-0.17,0.003222,0.004000,-0.071736,-0.229248,0.000000,0.000000,0.039999,0.000000,0.000714,-0.001658,0.000048,0.000000,0.000000,0.000000,0.000000,819,819,819,819
9580,0,1.423764,3.292290,-7.626831,-0.03,-0.15,-0.000400,0.004000,-0.071284,-0.229369,0.000000,0.000000,0.039999,0.000000,0.000693,-0.001937,0.000084,0.000000,0.000000,0.000000,0.000000,819,819,819,819
9590,0,1.416511,3.293833,-7.626465,-0.03,-0.14,-0.004715,0.004000,-0.070922,-0.229465,0.000000,0.000000,0.039999,0.000000,0.000682,-0.002191,0.000128,0.000000,0.000000,0.000000,0.000000,819,819,819,819
9600,0,1.423209,3.295066,-7.626160,-0.02,-0.12,-0.007376,0.004000,-0.071251,-0.229539,0.000000,0.000000,0.039999,0.000000,0.000747,-0.002437,0.000154,0.000000,0.000000,0.000000,0.000000,819,819,819,819
9610,0,1.428567,3.296053,-7.625916,-0.02,-0.11,-0.007815,0.004000,-0.071514,-0.229596,0.000000,0.000000,0.039999,0.000000,0.000799,-0.002669,0.000159,0.000000,0.000000,0.000000,0.000000,819,819,819,819
9620,0,1.432854,3.296843,-7.625732,-0.01,-0.10,-0.006140,0.004000,-0.071725,-0.229642,0.000000,0.000000,0.039999,0.000000,0.000840,-0.002876,0.000142,0.000000,0.000000,0.000000,0.000000,819,819,819,819
9630,0,1.436283,3.297474,-7.625580,-0.01,-0.09,-0.003588,0.004000,-0.071894,-0.229678,0.000000,0.000000,0.039999,0.000000,0.000874,-0.003053,0.000117,0.000000,0.000000,0.000000,0.000000,819,819,819,819
9640,0,1.439026,3.297979,-7.625458,-0.00,-0.08,-0.001381,0.004000,-0.072029,-0.229706,0.000000,0.000000,0.039999,0.000000,0.000897,-0.003195,0.000094,0.000000,0.000000,0.000000,0.000000,819,819,819,819
9650,0,1.441221,3.298384,-7.625366,-0.00,-0.07,-0.000214,0.004000,-0.072137,-0.229729,0.000000,0.000000,0.039999,0.000000,0.000918,-0.003323,0.000083,0.000000,0.000000,0.000000,0.000000,819,819,819,819
9660,0,1.442977,3.298707,-7.625275,-0.00,-0.06,-0.000194,0.004000,-0.072223,-0.229747,0.000000,0.000000,0.039999,0.000000,0.000934,-0.003430,0.000083,0.000000,0.000000,0.000000,0.000000,819,819,819,819
9670,0,1.444381,3.298966,-7.625214,-0.00,-0.06,-0.001108,0.004000,-0.072292,-0.229761,0.000000,0.000000,0.039999,0.000000,0.000945,-0.003531,0.000092,0.000000,0.000000,0.000000,0.000000,819,819,819,819
9680,0,1.445505,3.299173,-7.625153,-0.00,-0.05,-0.002143,0.004000,-0.072348,-0.229772,0.000000,0.000000,0.039999,0.000000,0.000955,-0.003634,0.000102,0.000000,0.000000,0.000000,0.000000,819,819,819,819
9690,0,1.446404,3.299338,-7.625122,-0.00,-0.05,-0.002664,0.004000,-0.072392,-0.229779,0.000000,0.000000,0.039999,0.000000,0.000963,-0.003734,0.000107,0.000000,0.000000,0.000000,0.000000,819,819,819,819
9700,0,1.447123,3.299471,-7.625092,-0.00,-0.04,-0.002515,0.004000,-0.072428,-0.229785,0.000000,0.000000,0.039999,0.000000,0.000969,-0.003823,0.000106,0.000000,0.000000,0.000000,0.000000,819,819,819,819
9710,0,1.447699,3.299577,-7.625061,-0.00,-0.04,-0.001447,0.004000,-0.072456,-0.229790,0.000000,0.000000,0.039999,0.000000,0.000973,-0.003897,0.000095,0.000000,0.000000,0.000000,0.000000,819,819,819,819
9720,0,1.448159,3.299662,-7.625031,-0.00,-0.03,-0.000066,0.004000,-0.072479,-0.229794,0.000000,0.000000,0.039999,0.000000,0.000976,-0.003957,0.000081,0.000000,0.000000,0.000000,0.000000,819,819,819,819
9730,0,1.448527,3.299729,-7.625000,-0.00,-0.03,0.000977,0.004000,-0.072497,-0.229797,0.000000,0.000000,0.039999,0.000000,0.000980,-0.004006,0.000071,0.000000,0.000000,0.000000,0.000000,819,819,819,819
9741,0,1.448822,3.299784,-7.625000,-0.00,-0.03,0.000987,0.004000,-0.072512,-0.229800,0.000000,0.000000,0.039999,0.000000,0.000982,-0.004051,0.000071,0.000000,0.000000,0.000000,0.000000,819,819,819,819
9750,0,1.449057,3.299827,-7.625000,-0.00,-0.03,0.000168,0.004000,-0.072524,-0.229803,0.000000,0.000000,0.039999,0.000000,0.000983,-0.004092,0.000079,0.000000,0.000000,0.000000,0.000000,819,819,819,819
9760,0,1.449246,3.299862,-7.625000,-0.00,-0.02,-0.001299,0.004000,-0.072533,-0.229804,0.000000,0.000000,0.039999,0.000000,0.000986,-0.004133,0.000094,0.000000,0.000000,0.000000,0.000000,819,819,819,819
9770,0,1.449397,3.299890,-7.625000,0.00,-0.02,-0.002730,0.004000,-0.072541,-0.229806,0.000000,0.000000,0.039999,0.000000,0.000987,-0.004167,0.000108,0.000000,0.000000,0.000000,0.000000,819,819,819,819
9780,0,1.449517,3.299912,-7.625000,0.00,-0.02,-0.003196,0.004000,-0.072547,-0.229807,0.000000,0.000000,0.039999,0.000000,0.000989,-0.004199,0.000113,0.000000,0.000000,0.000000,0.000000,819,819,819,819
9790,0,1.449614,3.299930,-7.625000,0.00,-0.02,-0.002581,0.004000,-0.072551,-0.229808,0.000000,0.000000,0.039999,0.000000,0.000991,-0.004236,0.000107,0.000000,0.000000,0.000000,0.000000,819,819,819,819
9800,0,1.449691,3.299944,-7.625000,0.00,-0.01,-0.001092,0.004000,-0.072555,-0.229809,0.000000,0.000000,0.039999,0.000000,0.000991,-0.004275,0.000092,0.000000,0.000000,0.000000,0.000000,819,819,819,819
9810,0,1.449753,3.299955,-7.625000,0.00,-0.01,0.000669,0.004000,-0.072559,-0.229809,0.000000,0.000000,0.039999,0.000000,0.000991,-0.004309,0.000074,0.000000,0.000000,0.000000,0.000000,819,819,819,819
9820,0,1.449802,3.299964,-7.625000,0.00,-0.01,0.002057,0.004000,-0.072561,-0.229810,0.000000,0.000000,0.039999,0.000000,0.000993,-0.004329,0.000060,0.000000,0.000000,0.000000,0.000000,819,819,819,819
9831,0,1.437342,3.299972,-7.625000,-0.00,-0.01,0.002379,0.004000,-0.071943,-0.229812,0.000000,0.000000,0.039999,0.000000,0.000930,-0.004345,0.000057,0.000000,0.000000,0.000000,0.000000,819,819,819,819
9841,0,1.427374,3.299977,-7.625000,-0.01,-0.01,0.001946,0.004000,-0.071449,-0.229813,0.000000,0.000000,0.039999,0.000000,0.000880,-0.004354,0.000061,0.000000,0.000000,0.000000,0.000000,819,819,819,819
9858,0,1.419399,3.299982,-7.625000,-0.01,-0.01,0.000829,0.004000,-0.071051,-0.229816,0.000000,0.000000,0.039999,0.000000,0.000860,-0.004365,0.000072,0.000000,0.000000,0.000000,0.000000,819,819,819,819
9869,0,1.413019,3.299986,-7.625000,-0.01,-0.00,-0.000183,0.004000,-0.070734,-0.229817,0.000000,0.000000,0.039999,0.000000,0.000839,-0.004378,0.000082,0.000000,0.000000,0.000000,0.000000,819,819,819,819
9880,0,1.420415,3.299989,-7.625000,-0.00,-0.00,-0.000580,0.004000,-0.071100,-0.229818,0.000000,0.000000,0.039999,0.000000,0.000890,-0.004396,0.000086,0.000000,0.000000,0.000000,0.000000,819,819,819,819
9891,0,1.426332,3.299991,-7.625000,-0.00,-0.00,-0.000318,0.004000,-0.071393,-0.229819,0.000000,0.000000,0.039999,0.000000,0.000925,-0.004417,0.000084,0.000000,0.000000,0.000000,0.000000,819,819,819,819
9901,0,1.431066,3.299993,-7.625000,-0.00,-0.00,0.000438,0.004000,-0.071626,-0.229820,0.000000,0.000000,0.039999,0.000000,0.000958,-0.004434,0.000076,0.000000,0.000000,0.000000,0.000000,819,819,819,819
9911,0,1.422353,3.299994,-7.625000,-0.00,-0.00,0.001536,0.004000,-0.071195,-0.229821,0.000000,0.000000,0.039999,0.000000,0.000912,-0.004447,0.000065,0.000000,0.000000,0.000000,0.000000,819,819,819,819
9921,0,1.415382,3.299996,-7.625000,-0.00,-0.00,0.002634,0.004000,-0.070849,-0.229822,0.000000,0.000000,0.039999,0.000000,0.000879,-0.004454,0.000054,0.000000,0.000000,0.000000,0.000000,819,819,819,819
9931,0,1.409806,3.299997,-7.625000,-0.01,-0.00,0.003213,0.004000,-0.070572,-0.229824,0.000000,0.000000,0.039999,0.000000,0.000857,-0.004457,0.000048,0.000000,0.000000,0.000000,0.000000,819,819,819,819
9941,0,1.405345,3.299997,-7.625000,-0.01,-0.00,0.003218,0.004000,-0.070349,-0.229825,0.000000,0.000000,0.039999,0.000000,0.000847,-0.004465,0.000048,0.000000,0.000000,0.000000,0.000000,819,819,819,819
9951,0,1.401776,3.299998,-7.625000,-0.01,-0.00,0.002498,0.004000,-0.070172,-0.229826,0.000000,0.000000,0.039999,0.000000,0.000838,-0.004476,0.000056,0.000000,0.000000,0.000000,0.000000,819,819,819,819
9961,0,1.398921,3.299999,-7.625000,-0.01,-0.00,0.001432,0.004000,-0.070029,-0.229827,0.000000,0.000000,0.039999,0.000000,0.000835,-0.004484,0.000066,0.000000,0.000000,0.000000,0.000000,819,819,819,819
9971,0,1.396637,3.299999,-7.625000,-0.01,-0.00,0.000363,0.004000,-0.069914,-0.229828,0.000000,0.000000,0.039999,0.000000,0.000837,-0.004497,0.000077,0.000000,0.000000,0.000000,0.000000,819,819,819,819
9981,0,1.394809,3.299999,-7.625000,-0.01,-0.00,-0.000190,0.004000,-0.069823,-0.229830,0.000000,0.000000,0.039999,0.000000,0.000839,-0.004497,0.000082,0.000000,0.000000,0.000000,0.000000,819,819,819,819
9991,0,1.393348,3.299999,-7.625000,-0.01,-0.00,-0.000068,0.004000,-0.069749,-0.229831,0.000000,0.000000,0.039999,0.000000,0.000844,-0.004507,0.000081,0.000000,0.000000,0.000000,0.000000,819,819,819,819
10001,0,1.392178,3.300000,-7.625000,-0.01,-0.00,0.000560,0.004000,-0.069690,-0.229833,0.000000,0.000000,0.039999,0.000000,0.000848,-0.004509,0.000075,0.000000,0.000000,0.000000,0.000000,819,819,819,819
10011,0,1.391243,3.300000,-7.625000,-0.01,-0.00,0.001336,0.004000,-0.069643,-0.229834,0.000000,0.000000,0.039999,0.000000,0.000855,-0.004516,0.000067,0.000000,0.000000,0.000000,0.000000,819,819,819,819
10021,0,1.390494,3.300000,-7.625000,-0.01,-0.00,0.002142,0.004000,-0.069605,-0.229836,0.000000,0.000000,0.039999,0.000000,0.000861,-0.004517,0.000059,0.000000,0.000000,0.000000,0.000000,819,819,819,819
10031,0,1.389895,3.300000,-7.625000,-0.01,-0.00,0.002767,0.004000,-0.069574,-0.229838,0.000000,0.000000,0.039999,0.000000,0.000866,-0.004513,0.000053,0.000000,0.000000,0.000000,0.000000,819,819,819,819
10041,0,1.389416,3.300000,-7.625000,-0.00,-0.00,0.002712,0.004000,-0.069550,-0.229839,0.000000,0.000000,0.039999,0.000000,0.000875,-0.004522,0.000053,0.000000,0.000000,0.000000,0.000000,819,819,819,819
10051,0,1.389033,3.300000,-7.625000,-0.00,-0.00,0.002247,0.004000,-0.069530,-0.229840,0.000000,0.000000,0.039999,0.000000,0.000883,-0.004530,0.000058,0.000000,0.000000,0.000000,0.000000,819,819,819,819
10061,0,1.388726,3.300000,-7.625000,-0.00,-0.00,0.001619,0.004000,-0.069514,-0.229842,0.000000,0.000000,0.039999,0.000000,0.000890,-0.004534,0.000064,0.000000,0.000000,0.000000,0.000000,819,819,819,819
10071,0,1.388481,3.300000,-7.625000,-0.00,-0.00,0.000947,0.004000,-0.069501,-0.229843,0.000000,0.000000,0.039999,0.000000,0.000895,-0.004541,0.000071,0.000000,0.000000,0.000000,0.000000,819,819,819,819
10081,0,1.388285,3.300000,-7.625000,-0.00,-0.00,0.000132,0.004000,-0.069491,-0.229844,0.000000,0.000000,0.039999,0.000000,0.000901,-0.004548,0.000079,0.000000,0.000000,0.000000,0.000000,819,819,819,819
10091,0,1.388128,3.300000,-7.625000,-0.00,-0.00,-0.000088,0.004000,-0.069482,-0.229846,0.000000,0.000000,0.039999,0.000000,0.000907,-0.004548,0.000081,0.000000,0.000000,0.000000,0.000000,819,819,819,819
10101,0,1.388003,3.300000,-7.625000,-0.00,-0.00,0.000231,0.004000,-0.069476,-0.229847,0.000000,0.000000,0.039999,0.000000,0.000911,-0.004551,0.000078,0.000000,0.000000,0.000000,0.000000,819,819,819,819
