t,is_crashed,roll,pitch,yaw,p,q,r,throttle,p_cmd,q_cmd,r_cmd,roll_cmd,pitch_cmd,yaw_cmd,roll_pid_out,pitch_pid_out,yaw_pid_out,motor_fl,motor_bl,motor_fr,motor_br,pwm_fl,pwm_bl,pwm_fr,pwm_br
6940,0,0.020726,-0.007636,0.000000,0.00,0.00,0.000030,0.004000,-0.000421,0.000385,0.000000,0.000000,0.000000,0.000000,0.000037,0.000045,-0.000000,0.000000,0.000000,0.000000,0.000000,0,0,0,0
6954,0,0.000000,0.000000,0.000000,-0.28,0.10,-0.000131,0.004000,-0.000559,0.000614,0.000000,0.000000,0.000000,0.000000,-0.023526,-0.013958,0.000002,0.000000,0.000000,0.000000,0.000000,819,819,819,819
6967,0,0.000000,0.000000,0.000000,0.00,0.00,-0.000148,0.004000,0.000000,0.000000,0.000000,0.000000,0.000000,0.000000,-0.000670,-0.001758,0.000002,0.000000,0.000000,0.000000,0.000000,819,819,819,819
6982,0,0.000000,0.000000,0.000000,-0.00,0.00,-0.000014,0.004000,-0.000000,0.000000,0.000000,0.000000,0.000000,0.000000,-0.000671,-0.001761,0.000000,0.000000,0.000000,0.000000,0.000000,819,819,819,819
6998,0,0.000000,0.000000,0.000000,-0.00,0.00,0.000058,0.004000,-0.000000,0.000000,0.000000,0.000000,0.000000,0.000000,-0.000673,-0.001755,-0.000000,0.000000,0.000000,0.000000,0.000000,819,819,819,819
7013,0,0.000000,0.000000,0.000000,0.00,-0.00,0.000073,0.004000,0.000000,-0.000000,0.000000,0.000000,0.000000,0.000000,-0.000668,-0.001749,-0.000001,0.000000,0.000000,0.000000,0.000000,819,819,819,819
7025,0,0.000000,0.000000,0.000000,-0.00,0.00,0.000091,0.004000,-0.000000,0.000000,0.000000,0.000000,0.000000,0.000000,-0.000672,-0.001755,-0.000001,0.000000,0.000000,0.000000,0.000000,819,819,819,819
7041,0,0.000000,0.000000,0.000000,-0.00,-0.00,0.000110,0.004000,-0.000000,-0.000000,0.000000,0.000000,0.000000,0.000000,-0.000673,-0.001746,-0.000002,0.000000,0.000000,0.000000,0.000000,819,819,819,819
7056,0,0.000000,0.000000,0.000000,0.00,-0.00,0.000052,0.004000,0.000000,-0.000000,0.000000,0.000000,0.000000,0.000000,-0.000669,-0.001743,-0.000000,0.000000,0.000000,0.000000,0.000000,819,819,819,819
7070,0,0.000000,0.000000,0.000000,0.00,-0.00,-0.000020,0.004000,0.000000,-0.000000,0.000000,0.000000,0.000000,0.000000,-0.000668,-0.001748,0.000000,0.000000,0.000000,0.000000,0.000000,819,819,819,819
7084,0,0.000000,0.000000,0.000000,0.00,0.00,0.000026,0.004000,0.000000,0.000000,0.000000,0.000000,0.000000,0.000000,-0.000669,-0.001760,-0.000000,0.000000,0.000000,0.000000,0.000000,819,819,819,819
7099,0,0.000000,0.000000,0.000000,0.00,0.00,0.000021,0.004000,0.000000,0.000000,0.000000,0.000000,0.000000,0.000000,-0.000669,-0.001755,-0.000000,0.000000,0.000000,0.000000,0.000000,819,819,819,819
7121,0,0.000000,0.000000,0.000000,-0.00,-0.00,-0.000103,0.004000,-0.000000,-0.000000,0.000000,0.000000,0.000000,0.000000,-0.000671,-0.001749,0.000001,0.000000,0.000000,0.000000,0.000000,819,819,819,819
7135,0,0.001091,0.000000,0.000000,0.02,0.00,-0.000279,0.004000,0.000009,0.000000,0.000000,0.000000,0.000000,0.000000,0.000657,-0.001761,0.000004,0.000000,0.000000,0.000000,0.000000,819,819,819,819
7150,0,0.001091,0.000000,0.000000,-0.00,0.00,-0.000147,0.004000,-0.000022,0.000000,0.000000,0.000000,0.000000,0.000000,-0.000631,-0.001760,0.000002,0.000000,0.000000,0.000000,0.000000,819,819,819,819
7164,0,0.000000,0.000000,0.000000,-0.02,-0.00,0.000123,0.004000,-0.000031,-0.000000,0.000000,0.000000,0.000000,0.000000,-0.001959,-0.001750,-0.000002,0.000000,0.000000,0.000000,0.000000,819,819,819,819
7177,0,0.000000,0.000000,0.000000,0.00,-0.00,0.000192,0.004000,0.000000,-0.000000,0.000000,0.000000,0.000000,0.000000,-0.000670,-0.001750,-0.000003,0.000000,0.000000,0.000000,0.000000,819,819,819,819
7192,0,0.000000,0.000000,0.000000,-0.00,0.00,-0.000068,0.004000,-0.000000,0.000000,0.000000,0.000000,0.000000,0.000000,-0.000674,-0.001764,0.000001,0.000000,0.000000,0.000000,0.000000,819,819,819,819
7207,0,0.000000,0.000000,0.000000,-0.00,-0.00,-0.000181,0.004000,-0.000000,-0.000000,0.000000,0.000000,0.000000,0.000000,-0.000673,-0.001752,0.000003,0.000000,0.000000,0.000000,0.000000,819,819,819,819
7222,0,0.000000,0.000000,0.000000,0.00,0.00,-0.000067,0.004000,0.000000,0.000000,0.000000,0.000000,0.000000,0.000000,-0.000669,-0.001758,0.000001,0.000000,0.000000,0.000000,0.000000,819,819,819,819
7237,0,0.000000,0.000000,0.000000,-0.00,0.00,0.000017,0.004000,-0.000000,0.000000,0.000000,0.000000,0.000000,0.000000,-0.000672,-0.001761,-0.000000,0.000000,0.000000,0.000000,0.000000,819,819,819,819
7251,0,0.000000,0.000000,0.000000,0.00,0.00,0.000064,0.004000,0.000000,0.000000,0.000000,0.000000,0.000000,0.000000,-0.000669,-0.001756,-0.000000,0.000000,0.000000,0.000000,0.000000,819,819,819,819
7265,0,0.000000,0.000000,0.000000,-0.00,0.00,0.000013,0.004000,-0.000000,0.000000,0.000000,0.000000,0.000000,0.000000,-0.000673,-0.001758,-0.000000,0.000000,0.000000,0.000000,0.000000,819,819,819,819
7278,0,0.000000,0.000000,0.000000,-0.00,0.00,-0.000058,0.004000,-0.000000,0.000000,0.000000,0.000000,0.000000,0.000000,-0.000672,-0.001756,0.000000,0.000000,0.000000,0.000000,0.000000,819,819,819,819
7293,0,0.000000,0.000000,0.000000,-0.00,0.00,-0.000088,0.004000,-0.000000,0.000000,0.000000,0.000000,0.000000,0.000000,-0.000672,-0.001762,0.000001,0.000000,0.000000,0.000000,0.000000,819,819,819,819
7305,0,0.000000,0.000000,0.000000,0.00,0.00,-0.000048,0.004000,0.000000,0.000000,0.000000,0.000000,0.000000,0.000000,-0.000671,-0.001765,0.000000,0.000000,0.000000,0.000000,0.000000,819,819,819,819
7322,0,0.000000,0.000000,0.000000,0.00,-0.00,0.000082,0.004000,0.000000,-0.000000,0.000000,0.000000,0.000000,0.000000,-0.000671,-0.001754,-0.000001,0.000000,0.000000,0.000000,0.000000,819,819,819,819
7336,0,0.000000,0.000000,0.000000,0.00,0.00,-0.000060,0.004000,0.000000,0.000000,0.000000,0.000000,0.000000,0.000000,-0.000669,-0.001768,0.000001,0.000000,0.000000,0.000000,0.000000,819,819,819,819
7350,0,0.000000,0.000000,0.000000,-0.00,0.00,-0.000058,0.004000,-0.000000,0.000000,0.000000,0.000000,0.000000,0.000000,-0.000672,-0.001759,0.000001,0.000000,0.000000,0.000000,0.000000,819,819,819,819
7364,0,0.000000,0.000000,0.000000,0.00,-0.00,0.000019,0.004000,0.000000,-0.000000,0.000000,0.000000,0.000000,0.000000,-0.000671,-0.001746,-0.000000,0.000000,0.000000,0.000000,0.000000,819,819,819,819
7377,0,0.000000,0.000000,0.000000,0.00,-0.00,0.000019,0.004000,0.000000,-0.000000,0.000000,0.000000,0.000000,0.000000,-0.000671,-0.001746,-0.000000,0.000000,0.000000,0.000000,0.000000,819,819,819,819
7393,0,0.000000,0.000000,0.000000,0.00,0.00,-0.000072,0.004000,0.000000,0.000000,0.000000,0.000000,0.000000,0.000000,-0.000671,-0.001758,0.000001,0.000000,0.000000,0.000000,0.000000,819,819,819,819
7408,0,0.000000,0.000000,0.000000,-0.00,0.00,-0.000152,0.004000,-0.000000,0.000000,0.000000,0.000000,0.000000,0.000000,-0.000673,-0.001766,0.000002,0.000000,0.000000,0.000000,0.000000,819,819,819,819
7423,0,0.000000,0.000000,0.000000,-0.00,-0.00,-0.000030,0.004000,-0.000000,-0.000000,0.000000,0.000000,0.000000,0.000000,-0.000672,-0.001755,0.000000,0.000000,0.000000,0.000000,0.000000,819,819,819,819
7438,0,0.000000,0.000000,0.000000,-0.00,-0.00,0.000040,0.004000,-0.000000,-0.000000,0.000000,0.000000,0.000000,0.000000,-0.000672,-0.001746,-0.000000,0.000000,0.000000,0.000000,0.000000,819,819,819,819
7452,0,0.000000,0.000000,0.000000,0.00,-0.00,-0.000023,0.004000,0.000000,-0.000000,0.000000,0.000000,0.000000,0.000000,-0.000671,-0.001747,0.000000,0.000000,0.000000,0.000000,0.000000,819,819,819,819
7466,0,0.000000,0.000000,0.000000,-0.00,-0.00,-0.000050,0.004000,-0.000000,-0.000000,0.000000,0.000000,0.000000,0.000000,-0.000675,-0.001752,0.000001,0.000000,0.000000,0.000000,0.000000,819,819,819,819
7480,0,0.000000,0.000000,0.000000,0.00,0.00,-0.000056,0.004000,0.000000,0.000000,0.000000,0.000000,0.000000,0.000000,-0.000671,-0.001758,0.000001,0.000000,0.000000,0.000000,0.000000,819,819,819,819
7495,0,0.000000,0.000000,0.000000,-0.00,0.00,0.000004,0.004000,-0.000000,0.000000,0.000000,0.000000,0.000000,0.000000,-0.000672,-0.001759,0.000000,0.000000,0.000000,0.000000,0.000000,819,819,819,819
7507,0,0.000000,0.000000,0.000000,0.00,0.00,0.000184,0.004000,0.000000,0.000000,0.000000,0.000000,0.000000,0.000000,-0.000668,-0.001755,-0.000002,0.000000,0.000000,0.000000,0.000000,819,819,819,819
7523,0,0.000000,0.000000,0.000000,-0.00,0.00,0.000204,0.004000,-0.000000,0.000000,0.000000,0.000000,0.000000,0.000000,-0.000672,-0.001755,-0.000003,0.000000,0.000000,0.000000,0.000000,819,819,819,819
7537,0,0.000000,0.000000,0.000000,-0.00,0.00,0.000147,0.004000,-0.000000,0.000000,0.000000,0.000000,0.000000,0.000000,-0.000674,-0.001766,-0.000002,0.000000,0.000000,0.000000,0.000000,819,819,819,819
7551,0,0.000000,0.000000,0.000000,0.00,0.00,0.000106,0.004000,0.000000,0.000000,0.000000,0.000000,0.000000,0.000000,-0.000671,-0.001761,-0.000001,0.000000,0.000000,0.000000,0.000000,819,819,819,819
7573,0,0.000000,0.000000,0.000000,0.00,-0.00,0.000021,0.004000,0.000000,-0.000000,0.000000,0.000000,0.000000,0.000000,-0.000671,-0.001753,-0.000000,0.000000,0.000000,0.000000,0.000000,819,819,819,819
7587,0,0.000000,0.000000,0.000000,-0.00,0.00,-0.000209,0.004000,-0.000000,0.000000,0.000000,0.000000,0.000000,0.000000,-0.000672,-0.001763,0.000003,0.000000,0.000000,0.000000,0.000000,819,819,819,819
7601,0,0.000000,0.000000,0.000000,0.00,-0.00,-0.000057,0.004000,0.000000,-0.000000,0.000000,0.000000,0.000000,0.000000,-0.000670,-0.001749,0.000000,0.000000,0.000000,0.000000,0.000000,819,819,819,819
7616,0,0.000000,0.000000,0.000000,0.00,0.00,-0.000072,0.004000,0.000000,0.000000,0.000000,0.000000,0.000000,0.000000,-0.000671,-0.001761,0.000001,0.000000,0.000000,0.000000,0.000000,819,819,819,819
7630,0,0.000000,0.000000,0.000000,-0.00,0.00,-0.000014,0.004000,-0.000000,0.000000,0.000000,0.000000,0.000000,0.000000,-0.000675,-0.001759,0.000000,0.000000,0.000000,0.000000,0.000000,819,819,819,819
7644,0,0.000000,0.000000,0.000000,0.00,-0.00,-0.000018,0.004000,0.000000,-0.000000,0.000000,0.000000,0.000000,0.000000,-0.000671,-0.001755,0.000000,0.000000,0.000000,0.000000,0.000000,819,819,819,819
7657,0,0.000000,0.000000,0.000000,0.00,-0.00,-0.000019,0.004000,0.000000,-0.000000,0.000000,0.000000,0.000000,0.000000,-0.000670,-0.001753,0.000000,0.000000,0.000000,0.000000,0.000000,819,819,819,819
7673,0,0.000000,0.000000,0.000000,-0.00,-0.00,-0.000049,0.004000,-0.000000,-0.000000,0.000000,0.000000,0.000000,0.000000,-0.000674,-0.001754,0.000000,0.000000,0.000000,0.000000,0.000000,819,819,819,819
7687,0,0.000000,0.000000,0.000000,0.00,0.00,0.000081,0.004000,0.000000,0.000000,0.000000,0.000000,0.000000,0.000000,-0.000669,-0.001760,-0.000000,0.000000,0.000000,0.000000,0.000000,819,819,819,819
7701,0,0.000000,0.000000,0.000000,0.00,-0.00,0.000092,0.004000,0.000000,-0.000000,0.000000,0.000000,0.000000,0.000000,-0.000671,-0.001753,-0.000001,0.000000,0.000000,0.000000,0.000000,819,819,819,819
7716,0,0.000000,0.000000,0.000000,0.00,-0.00,0.000049,0.004000,0.000000,-0.000000,0.000000,0.000000,0.000000,0.000000,-0.000671,-0.001750,-0.000000,0.000000,0.000000,0.000000,0.000000,819,819,819,819
7730,0,0.000000,0.000000,0.000000,0.00,-0.00,-0.000005,0.004000,0.000000,-0.000000,0.000000,0.000000,0.000000,0.000000,-0.000671,-0.001749,0.000000,0.000000,0.000000,0.000000,0.000000,819,819,819,819
7744,0,0.000000,0.000000,0.000000,0.00,0.00,-0.000123,0.004000,0.000000,0.000000,0.000000,0.000000,0.000000,0.000000,-0.000668,-0.001759,0.000002,0.000000,0.000000,0.000000,0.000000,819,819,819,819
7756,0,0.000000,0.000000,0.000000,0.00,-0.00,-0.000070,0.004000,0.000000,-0.000000,0.000000,0.000000,0.000000,0.000000,-0.000671,-0.001751,0.000001,0.000000,0.000000,0.000000,0.000000,819,819,819,819
7773,0,0.000000,0.000000,0.000000,0.00,0.00,0.000016,0.004000,0.000000,0.000000,0.000000,0.000000,0.000000,0.000000,-0.000671,-0.001759,-0.000000,0.000000,0.000000,0.000000,0.000000,819,819,819,819
7787,0,0.000000,0.000000,0.000000,0.00,0.00,0.000095,0.004000,0.000000,0.000000,0.000000,0.000000,0.000000,0.000000,-0.000670,-0.001755,-0.000001,0.000000,0.000000,0.000000,0.000000,819,819,819,819
7801,0,0.000000,0.000000,0.000000,-0.00,0.00,0.000080,0.004000,-0.000000,0.000000,0.000000,0.000000,0.000000,0.000000,-0.000674,-0.001755,-0.000001,0.000000,0.000000,0.000000,0.000000,819,819,819,819
7814,0,0.000000,0.000000,0.000000,0.00,0.00,0.000016,0.004000,0.000000,0.000000,0.000000,0.000000,0.000000,0.000000,-0.000671,-0.001761,-0.000000,0.000000,0.000000,0.000000,0.000000,819,819,819,819
7827,0,0.000000,0.000000,0.000000,0.00,-0.00,-0.000042,0.004000,0.000000,-0.000000,0.000000,0.000000,0.000000,0.000000,-0.000670,-0.001754,0.000000,0.000000,0.000000,0.000000,0.000000,819,819,819,819
7843,0,0.000000,0.000000,0.000000,0.00,0.00,-0.000024,0.004000,0.000000,0.000000,0.000000,0.000000,0.000000,0.000000,-0.000671,-0.001758,0.000000,0.000000,0.000000,0.000000,0.000000,819,819,819,819
7857,0,0.000000,0.000000,0.000000,0.00,0.00,0.000026,0.004000,0.000000,0.000000,0.000000,0.000000,0.000000,0.000000,-0.000671,-0.001758,-0.000000,0.000000,0.000000,0.000000,0.000000,819,819,819,819
7871,0,0.000000,0.000000,0.000000,0.00,0.00,0.000020,0.004000,0.000000,0.000000,0.000000,0.000000,0.000000,0.000000,-0.000670,-0.001765,-0.000000,0.000000,0.000000,0.000000,0.000000,819,819,819,819
7885,0,0.000000,0.000000,0.000000,-0.00,-0.00,-0.000011,0.004000,-0.000000,-0.000000,0.000000,0.000000,0.000000,0.000000,-0.000672,-0.001753,0.000000,0.000000,0.000000,0.000000,0.000000,819,819,819,819
7898,0,0.000000,0.000000,0.000000,0.00,0.00,0.000013,0.004000,0.000000,0.000000,0.000000,0.000000,0.000000,0.000000,-0.000671,-0.001759,-0.000000,0.000000,0.000000,0.000000,0.000000,819,819,819,819
7914,0,0.000000,0.000000,0.000000,0.00,0.00,0.000018,0.004000,0.000000,0.000000,0.000000,0.000000,0.000000,0.000000,-0.000668,-0.001766,-0.000000,0.000000,0.000000,0.000000,0.000000,819,819,819,819
7929,0,0.000000,0.000000,0.000000,-0.00,0.00,0.000049,0.004000,-0.000000,0.000000,0.000000,0.000000,0.000000,0.000000,-0.000672,-0.001763,-0.000000,0.000000,0.000000,0.000000,0.000000,819,819,819,819
7944,0,0.000000,0.000000,0.000000,-0.00,-0.00,0.000025,0.004000,-0.000000,-0.000000,0.000000,0.000000,0.000000,0.000000,-0.000672,-0.001753,-0.000000,0.000000,0.000000,0.000000,0.000000,819,819,819,819
7961,0,0.000000,0.000000,0.000000,-0.00,-0.00,-0.000010,0.004000,-0.000000,-0.000000,0.000000,0.000000,0.000000,0.000000,-0.000672,-0.001756,0.000000,0.000000,0.000000,0.000000,0.000000,819,819,819,819
7975,0,0.000000,0.000000,0.000000,-0.00,-0.00,-0.000017,0.004000,-0.000000,-0.000000,0.000000,0.000000,0.000000,0.000000,-0.000674,-0.001756,0.000000,0.000000,0.000000,0.000000,0.000000,819,819,819,819
7987,0,0.000000,0.000000,0.000000,0.00,-0.00,-0.000034,0.004000,0.000000,-0.000000,0.000000,0.000000,0.000000,0.000000,-0.000671,-0.001751,0.000000,0.000000,0.000000,0.000000,0.000000,819,819,819,819
8003,0,0.000000,0.000000,0.000000,-0.00,0.00,-0.000022,0.004000,-0.000000,0.000000,0.000000,0.000000,0.000000,0.000000,-0.000672,-0.001756,0.000000,0.000000,0.000000,0.000000,0.000000,819,819,819,819
8024,0,0.000000,0.000000,0.000000,0.00,0.00,-0.000111,0.004000,0.000000,0.000000,0.000000,0.000000,0.000000,0.000000,-0.000671,-0.001761,0.000002,0.000000,0.000000,0.000000,0.000000,819,819,819,819
8039,0,0.000000,0.000000,0.000000,0.00,0.00,-0.000098,0.004000,0.000000,0.000000,0.000000,0.000000,0.000000,0.000000,-0.000670,-0.001759,0.000002,0.000000,0.000000,0.000000,0.000000,819,819,819,819
8053,0,0.000000,0.000000,0.000000,0.00,0.00,-0.000096,0.004000,0.000000,0.000000,0.000000,0.000000,0.000000,0.000000,-0.000670,-0.001760,0.000002,0.000000,0.000000,0.000000,0.000000,819,819,819,819
8067,0,0.000000,0.000000,0.000000,-0.00,0.00,0.000011,0.004000,-0.000000,0.000000,0.000000,0.000000,0.000000,0.000000,-0.000674,-0.001758,0.000000,0.000000,0.000000,0.000000,0.000000,819,819,819,819
8081,0,0.000000,0.000000,0.000000,0.00,0.00,0.000063,0.004000,0.000000,0.000000,0.000000,0.000000,0.000000,0.000000,-0.000671,-0.001758,-0.000000,0.000000,0.000000,0.000000,0.000000,819,819,819,819
8095,0,0.000000,0.000000,0.000000,-0.00,-0.00,0.000028,0.004000,-0.000000,-0.000000,0.000000,0.000000,0.000000,0.000000,-0.000674,-0.001756,-0.000000,0.000000,0.000000,0.000000,0.000000,819,819,819,819
8108,0,0.000000,0.000000,0.000000,0.00,-0.00,-0.000010,0.004000,0.000000,-0.000000,0.000000,0.000000,0.000000,0.000000,-0.000670,-0.001753,0.000000,0.000000,0.000000,0.000000,0.000000,819,819,819,819
8125,0,0.000000,0.000000,0.000000,-0.00,0.00,-0.000032,0.004000,-0.000000,0.000000,0.000000,0.000000,0.000000,0.000000,-0.000675,-0.001765,0.000000,0.000000,0.000000,0.000000,0.000000,819,819,819,819
8139,0,0.000000,0.000000,0.000000,0.00,0.00,-0.000022,0.004000,0.000000,0.000000,0.000000,0.000000,0.000000,0.000000,-0.000671,-0.001773,0.000000,0.000000,0.000000,0.000000,0.000000,819,819,819,819
8153,0,0.000000,0.000000,0.000000,-0.00,0.00,-0.000035,0.004000,-0.000000,0.000000,0.000000,0.000000,0.000000,0.000000,-0.000674,-0.001767,0.000000,0.000000,0.000000,0.000000,0.000000,819,819,819,819
8167,0,0.000000,0.000000,0.000000,-0.00,-0.00,0.000024,0.004000,-0.000000,-0.000000,0.000000,0.000000,0.000000,0.000000,-0.000674,-0.001757,-0.000000,0.000000,0.000000,0.000000,0.000000,819,819,819,819
8182,0,0.000000,0.000000,0.000000,0.00,-0.00,0.000050,0.004000,0.000000,-0.000000,0.000000,0.000000,0.000000,0.000000,-0.000670,-0.001756,-0.000000,0.000000,0.000000,0.000000,0.000000,819,819,819,819
8196,0,0.000000,0.000000,0.000000,-0.00,-0.00,-0.000020,0.004000,-0.000000,-0.000000,0.000000,0.000000,0.000000,0.000000,-0.000674,-0.001758,0.000000,0.000000,0.000000,0.000000,0.000000,819,819,819,819
8209,0,0.000000,0.000000,0.000000,0.00,0.00,-0.000095,0.004000,0.000000,0.000000,0.000000,0.000000,0.000000,0.000000,-0.000672,-0.001762,0.000002,0.000000,0.000000,0.000000,0.000000,819,819,819,819
8225,0,0.000000,0.000000,0.000000,0.00,0.00,-0.000187,0.004000,0.000000,0.000000,0.000000,0.000000,0.000000,0.000000,-0.000669,-0.001760,0.000003,0.000000,0.000000,0.000000,0.000000,819,819,819,819
8239,0,0.000000,0.000000,0.000000,0.00,0.00,-0.000190,0.004000,0.000000,0.000000,0.000000,0.000000,0.000000,0.000000,-0.000669,-0.001771,0.000003,0.000000,0.000000,0.000000,0.000000,819,819,819,819
8253,0,0.000000,0.000000,0.000000,0.00,0.00,-0.000160,0.004000,0.000000,0.000000,0.000000,0.000000,0.000000,0.000000,-0.000669,-0.001768,0.000003,0.000000,0.000000,0.000000,0.000000,819,819,819,819
8267,0,0.000000,0.000000,0.000000,0.00,0.00,0.000029,0.004000,0.000000,0.000000,0.000000,0.000000,0.000000,0.000000,-0.000671,-0.001762,0.000000,0.000000,0.000000,0.000000,0.000000,819,819,819,819
8281,0,0.000000,0.000000,0.000000,0.00,-0.00,0.000082,0.004000,0.000000,-0.000000,0.000000,0.000000,0.000000,0.000000,-0.000671,-0.001760,-0.000000,0.000000,0.000000,0.000000,0.000000,819,819,819,819
8296,0,0.000000,0.000000,0.000000,-0.00,-0.00,0.000016,0.004000,-0.000000,-0.000000,0.000000,0.000000,0.000000,0.000000,-0.000673,-0.001758,0.000000,0.000000,0.000000,0.000000,0.000000,819,819,819,819
8308,0,0.000000,0.000000,0.000000,-0.00,0.00,-0.000088,0.004000,-0.000000,0.000000,0.000000,0.000000,0.000000,0.000000,-0.000673,-0.001766,0.000002,0.000000,0.000000,0.000000,0.000000,819,819,819,819
8324,0,0.000000,0.000000,0.000000,-0.00,-0.00,-0.000139,0.004000,-0.000000,-0.000000,0.000000,0.000000,0.000000,0.000000,-0.000673,-0.001758,0.000002,0.000000,0.000000,0.000000,0.000000,819,819,819,819
8338,0,0.000000,0.000000,0.000000,0.00,-0.00,-0.000043,0.004000,0.000000,-0.000000,0.000000,0.000000,0.000000,0.000000,-0.000671,-0.001753,0.000001,0.000000,0.000000,0.000000,0.000000,819,819,819,819
8353,0,0.000000,0.000000,0.000000,0.00,0.00,0.000037,0.004000,0.000000,0.000000,0.000000,0.000000,0.000000,0.000000,-0.000669,-0.001762,0.000000,0.000000,0.000000,0.000000,0.000000,819,819,819,819
8367,0,0.000000,0.000000,0.000000,0.00,0.00,0.000053,0.004000,0.000000,0.000000,0.000000,0.000000,0.000000,0.000000,-0.000671,-0.001763,-0.000000,0.000000,0.000000,0.000000,0.000000,819,819,819,819
8380,0,0.000000,0.000000,0.000000,-0.00,0.00,0.000056,0.004000,-0.000000,0.000000,0.000000,0.000000,0.000000,0.000000,-0.000673,-0.001761,-0.000000,0.000000,0.000000,0.000000,0.000000,819,819,819,819
8395,0,0.000000,0.000000,0.000000,-0.00,-0.00,0.000087,0.004000,-0.000000,-0.000000,0.000000,0.000000,0.000000,0.000000,-0.000673,-0.001754,-0.000000,0.000000,0.000000,0.000000,0.000000,819,819,819,819
8410,0,0.000000,0.000000,0.000000,0.00,-0.00,0.000139,0.004000,0.000000,-0.000000,0.000000,0.000000,0.000000,0.000000,-0.000671,-0.001758,-0.000001,0.000000,0.000000,0.000000,0.000000,819,819,819,819
8425,0,0.000000,0.000000,0.000000,-0.00,-0.00,0.000043,0.004000,-0.000000,-0.000000,0.000000,0.000000,0.000000,0.000000,-0.000673,-0.001755,-0.000000,0.000000,0.000000,0.000000,0.000000,819,819,819,819
8439,0,0.000000,0.000000,0.000000,-0.00,-0.00,-0.000037,0.004000,-0.000000,-0.000000,0.000000,0.000000,0.000000,0.000000,-0.000673,-0.001752,0.000000,0.000000,0.000000,0.000000,0.000000,819,819,819,819
8457,0,0.000000,0.000000,0.000000,0.00,-0.00,-0.000114,0.004000,0.000000,-0.000000,0.000000,0.000000,0.000000,0.000000,-0.000672,-0.001749,0.000002,0.000000,0.000000,0.000000,0.000000,819,819,819,819
8473,0,0.000000,0.000000,0.000000,0.00,-0.00,-0.000160,0.004000,0.000000,-0.000000,0.000000,0.000000,0.000000,0.000000,-0.000672,-0.001750,0.000003,0.000000,0.000000,0.000000,0.000000,819,819,819,819
8488,0,0.001091,0.000000,0.000000,0.01,0.00,-0.000215,0.004000,0.000007,0.000000,0.000000,0.000000,0.000000,0.000000,0.000568,-0.001758,0.000004,0.000000,0.000000,0.000000,0.000000,819,819,819,819
8502,0,0.001091,0.000000,0.000000,-0.00,-0.00,-0.000043,0.004000,-0.000022,-0.000000,0.000000,0.000000,0.000000,0.000000,-0.000628,-0.001754,0.000001,0.000000,0.000000,0.000000,0.000000,819,819,819,819
8516,0,0.001091,0.000000,0.000000,-0.00,-0.00,0.000174,0.004000,-0.000022,-0.000000,0.000000,0.000000,0.000000,0.000000,-0.000628,-0.001743,-0.000002,0.000000,0.000000,0.000000,0.000000,819,819,819,819
8529,0,0.000000,0.000000,0.000000,-0.02,-0.00,0.000339,0.004000,-0.000034,-0.000000,0.000000,0.000000,0.000000,0.000000,-0.002059,-0.001743,-0.000004,0.000000,0.000000,0.000000,0.000000,819,819,819,819
8545,0,0.000000,0.000000,0.000000,0.00,-0.00,0.000327,0.004000,0.000000,-0.000000,0.000000,0.000000,0.000000,0.000000,-0.000678,-0.001733,-0.000004,0.000000,0.000000,0.000000,0.000000,819,819,819,819
8560,0,0.000000,0.000000,0.000000,0.00,0.00,-0.000102,0.004000,0.000000,0.000000,0.000000,0.000000,0.000000,0.000000,-0.000677,-0.001751,0.000002,0.000000,0.000000,0.000000,0.000000,819,819,819,819
8575,0,0.000000,0.000000,0.000000,-0.00,-0.00,-0.000173,0.004000,-0.000000,-0.000000,0.000000,0.000000,0.000000,0.000000,-0.000680,-0.001747,0.000003,0.000000,0.000000,0.000000,0.000000,819,819,819,819
8590,0,0.001091,0.000000,0.000000,0.01,-0.00,-0.000095,0.004000,0.000007,-0.000000,0.000000,0.000000,0.000000,0.000000,0.000561,-0.001743,0.000002,0.000000,0.000000,0.000000,0.000000,819,819,819,819
8604,0,0.001091,0.000000,0.000000,0.00,-0.00,0.000072,0.004000,-0.000022,-0.000000,0.000000,0.000000,0.000000,0.000000,-0.000633,-0.001740,-0.000000,0.000000,0.000000,0.000000,0.000000,819,819,819,819
8618,0,0.000000,0.000000,0.000000,-0.02,0.00,0.000350,0.004000,-0.000031,0.000000,0.000000,0.000000,0.000000,0.000000,-0.001962,-0.001747,-0.000004,0.000000,0.000000,0.000000,0.000000,819,819,819,819
8633,0,0.000000,0.000000,0.000000,-0.00,-0.00,0.000268,0.004000,-0.000000,-0.000000,0.000000,0.000000,0.000000,0.000000,-0.000684,-0.001734,-0.000003,0.000000,0.000000,0.000000,0.000000,819,819,819,819
8647,0,0.000000,0.000000,0.000000,-0.00,-0.00,0.000130,0.004000,-0.000000,-0.000000,0.000000,0.000000,0.000000,0.000000,-0.000683,-0.001743,-0.000002,0.000000,0.000000,0.000000,0.000000,819,819,819,819
8660,0,0.000000,0.000000,0.000000,0.00,0.00,0.000041,0.004000,0.000000,0.000000,0.000000,0.000000,0.000000,0.000000,-0.000682,-0.001747,-0.000000,0.000000,0.000000,0.000000,0.000000,819,819,819,819
8675,0,0.000000,0.000000,0.000000,0.00,0.00,-0.000037,0.004000,0.000000,0.000000,0.000000,0.000000,0.000000,0.000000,-0.000682,-0.001751,0.000000,0.000000,0.000000,0.000000,0.000000,819,819,819,819
8689,0,0.000000,0.000000,0.000000,-0.00,0.00,-0.000007,0.004000,-0.000000,0.000000,0.000000,0.000000,0.000000,0.000000,-0.000683,-0.001750,0.000000,0.000000,0.000000,0.000000,0.000000,819,819,819,819
8704,0,0.000000,0.000000,0.000000,0.00,0.00,0.000044,0.004000,0.000000,0.000000,0.000000,0.000000,0.000000,0.000000,-0.000682,-0.001757,-0.000000,0.000000,0.000000,0.000000,0.000000,819,819,819,819
8718,0,0.000000,0.000000,0.000000,-0.00,0.00,0.000039,0.004000,-0.000000,0.000000,0.000000,0.000000,0.000000,0.000000,-0.000684,-0.001757,-0.000000,0.000000,0.000000,0.000000,0.000000,819,819,819,819
8732,0,0.000000,0.000000,0.000000,0.00,0.00,-0.000068,0.004000,0.000000,0.000000,0.000000,0.000000,0.000000,0.000000,-0.000682,-0.001750,0.000001,0.000000,0.000000,0.000000,0.000000,819,819,819,819
8746,0,0.000000,0.000000,0.000000,-0.00,0.00,-0.000136,0.004000,-0.000000,0.000000,0.000000,0.000000,0.000000,0.000000,-0.000683,-0.001750,0.000002,0.000000,0.000000,0.000000,0.000000,819,819,819,819
8758,0,0.000000,0.000000,0.000000,-0.00,-0.00,-0.000134,0.004000,-0.000000,-0.000000,0.000000,0.000000,0.000000,0.000000,-0.000683,-0.001743,0.000002,0.000000,0.000000,0.000000,0.000000,819,819,819,819
8775,0,0.000000,0.000000,0.000000,-0.00,-0.00,-0.000042,0.004000,-0.000000,-0.000000,0.000000,0.000000,0.000000,0.000000,-0.000683,-0.001740,0.000000,0.000000,0.000000,0.000000,0.000000,819,819,819,819
8789,0,0.000000,0.000000,0.000000,-0.00,-0.00,0.000007,0.004000,-0.000000,-0.000000,0.000000,0.000000,0.000000,0.000000,-0.000683,-0.001743,0.000000,0.000000,0.000000,0.000000,0.000000,819,819,819,819
8803,0,0.000000,0.000000,0.000000,-0.00,-0.00,0.000017,0.004000,-0.000000,-0.000000,0.000000,0.000000,0.000000,0.000000,-0.000683,-0.001738,-0.000000,0.000000,0.000000,0.000000,0.000000,819,819,819,819
8817,0,0.000000,0.000000,0.000000,-0.00,-0.00,-0.000027,0.004000,-0.000000,-0.000000,0.000000,0.000000,0.000000,0.000000,-0.000683,-0.001734,0.000000,0.000000,0.000000,0.000000,0.000000,819,819,819,819
8831,0,0.000000,0.000000,0.000000,0.00,-0.00,-0.000066,0.004000,0.000000,-0.000000,0.000000,0.000000,0.000000,0.000000,-0.000682,-0.001739,0.000001,0.000000,0.000000,0.000000,0.000000,819,819,819,819
8846,0,0.000000,0.000000,0.000000,-0.00,-0.00,-0.000166,0.005000,-0.000000,-0.000000,0.000000,0.000000,0.000000,0.000000,-0.000683,-0.001739,0.000003,0.000000,0.000000,0.000000,0.000000,819,819,819,819
8862,0,0.000000,0.000000,0.000000,0.00,-0.00,-0.000170,0.005000,0.000000,-0.000000,0.000000,0.000000,0.000000,0.000000,-0.000682,-0.001740,0.000003,0.000000,0.000000,0.000000,0.000000,819,819,819,819
8876,0,0.000000,0.000000,0.000000,0.00,-0.00,-0.000141,0.005000,0.000000,-0.000000,0.000000,0.000000,0.000000,0.000000,-0.000682,-0.001735,0.000002,0.000000,0.000000,0.000000,0.000000,819,819,819,819
8889,0,0.000000,0.000000,0.000000,0.00,-0.00,-0.000104,0.015000,0.000000,-0.000000,0.000000,0.000000,0.000000,0.000000,-0.000682,-0.001737,0.000002,0.000000,0.000000,0.000000,0.000000,819,819,819,819
8909,0,0.000000,0.000000,0.000000,0.00,0.00,0.000025,0.015000,0.000000,0.000000,0.000000,0.000000,0.000000,0.000000,-0.000682,-0.001740,0.000000,0.000000,0.000000,0.000000,0.000000,819,819,819,819
8923,0,0.000000,0.000000,0.000000,0.00,0.00,0.000112,0.025000,0.000000,0.000000,0.000000,0.000000,0.000000,0.000000,-0.000682,-0.001749,-0.000001,0.023932,0.027432,0.022570,0.026066,838,882,854,881
8937,0,0.000000,0.000000,0.000000,-0.00,-0.00,0.000129,0.025000,-0.000000,-0.000000,0.000000,0.000000,0.000000,0.000000,-0.000685,-0.001729,-0.000001,0.023955,0.027415,0.022588,0.026042,838,882,854,881
8950,0,0.000000,0.000000,0.000000,-0.00,-0.00,0.000071,0.029000,-0.000000,-0.000000,0.000000,0.000000,0.000000,0.000000,-0.000684,-0.001724,-0.000000,0.027959,0.031409,0.026593,0.030040,842,885,857,884
8966,0,0.000000,0.000000,0.000000,-0.00,-0.00,-0.000077,0.029000,-0.000000,-0.000000,0.000000,0.000000,0.000000,0.000000,-0.000684,-0.001733,0.000001,0.027952,0.031415,0.026582,0.030051,842,885,857,884
8981,0,0.000000,0.000000,0.000000,0.00,0.00,-0.000107,0.031000,0.000000,0.000000,0.000000,0.000000,0.000000,0.000000,-0.000681,-0.001736,0.000002,0.029946,0.033416,0.028581,0.032057,843,887,858,886
8996,0,0.000000,0.000000,0.000000,0.00,0.00,-0.000006,0.031000,0.000000,0.000000,0.000000,0.000000,0.000000,0.000000,-0.000682,-0.001736,0.000000,0.029946,0.033418,0.028581,0.032055,843,887,858,886
9009,0,0.000000,0.000000,0.000000,-0.00,-0.00,0.000060,0.032000,-0.000000,-0.000000,0.000000,0.000000,0.000000,0.000000,-0.000685,-0.001732,-0.000000,0.030952,0.034417,0.029583,0.033047,844,888,859,887
9025,0,0.000000,0.000000,0.000000,-0.00,-0.00,0.000149,0.034000,-0.000000,-0.000000,0.000000,0.000000,0.000000,0.000000,-0.000684,-0.001729,-0.000002,0.032953,0.036415,0.031589,0.035044,846,889,861,888
9039,0,0.000000,0.000000,0.000000,-0.00,-0.00,0.000030,0.034000,-0.000000,-0.000000,0.000000,0.000000,0.000000,0.000000,-0.000685,-0.001724,-0.000000,0.032961,0.036409,0.031591,0.035039,846,889,861,888
9053,0,0.000000,0.000000,0.000000,-0.00,-0.00,-0.000085,0.035000,-0.000000,-0.000000,0.000000,0.000000,0.000000,0.000000,-0.000685,-0.001724,0.000001,0.033962,0.037408,0.032589,0.036041,846,890,862,889
9068,0,0.000000,0.000000,0.000000,0.00,-0.00,-0.000078,0.035000,0.000000,-0.000000,0.000000,0.000000,0.000000,0.000000,-0.000683,-0.001727,0.000001,0.033957,0.037409,0.032589,0.036046,846,890,862,889
9081,0,0.000000,0.000000,0.000000,-0.00,0.00,-0.000031,0.035000,-0.000000,0.000000,0.000000,0.000000,0.000000,0.000000,-0.000684,-0.001731,0.000000,0.033954,0.037414,0.032584,0.036048,846,890,862,889
9096,0,0.000000,0.000000,0.000000,0.00,-0.00,0.000055,0.038000,0.000000,-0.000000,0.000000,0.000000,0.000000,0.000000,-0.000681,-0.001727,-0.000000,0.036954,0.040408,0.035592,0.039045,849,893,864,892
9113,0,0.000000,0.000000,0.000000,0.00,-0.00,0.000102,0.039000,0.000000,-0.000000,0.000000,0.000000,0.000000,0.000000,-0.000683,-0.001717,-0.000001,0.037964,0.041401,0.036601,0.040034,850,894,865,892
9127,0,0.000000,0.000000,0.000000,-0.00,-0.00,0.000020,0.044000,-0.000000,-0.000000,0.000000,0.000000,0.000000,0.000000,-0.000685,-0.001722,0.000000,0.042964,0.046407,0.041593,0.045037,854,898,869,896
9140,0,0.000000,0.000000,0.000000,0.00,-0.00,-0.000011,0.044000,0.000000,-0.000000,0.000000,0.000000,0.000000,0.000000,-0.000683,-0.001723,0.000000,0.042960,0.046405,0.041594,0.045041,854,898,869,897
9156,0,0.000000,0.000000,0.000000,0.00,0.00,-0.000002,0.049000,0.000000,0.000000,0.000000,0.000000,0.000000,0.000000,-0.000683,-0.001731,0.000000,0.047952,0.051413,0.046586,0.050048,858,902,873,901
9171,0,0.000000,0.000000,0.000000,-0.00,-0.00,0.000045,0.051000,-0.000000,-0.000000,0.000000,0.000000,0.000000,0.000000,-0.000685,-0.001719,-0.000000,0.049967,0.053404,0.048596,0.052033,860,903,875,902
9187,0,0.000000,0.000000,0.000000,-0.00,0.00,0.000375,0.051000,-0.000000,0.000000,0.000000,0.000000,0.000000,0.000000,-0.000688,-0.001735,-0.000005,0.049949,0.053427,0.048582,0.052042,860,903,875,902
9203,0,0.000000,0.000000,0.000000,-0.00,-0.00,0.000121,0.053000,-0.000000,-0.000001,0.000000,0.000000,0.000000,0.000000,-0.000684,-0.001692,-0.000002,0.051990,0.055378,0.050625,0.054007,861,905,877,904
9218,0,0.000000,0.000000,0.000000,0.00,-0.00,0.000116,0.053000,0.000000,-0.000000,0.000000,0.000000,0.000000,0.000000,-0.000682,-0.001715,-0.000002,0.051965,0.055398,0.050605,0.054032,861,905,876,904
9231,0,0.000000,0.000000,0.000000,-0.00,-0.00,-0.000068,0.054000,-0.000000,-0.000000,0.000000,0.000000,0.000000,0.000000,-0.000684,-0.001714,0.000001,0.052971,0.056397,0.051601,0.055031,862,906,877,905
9247,0,0.000000,0.000000,0.000000,0.00,-0.00,-0.000014,0.054000,0.000000,-0.000000,0.000000,0.000000,0.000000,0.000000,-0.000682,-0.001713,0.000000,0.052969,0.056395,0.051605,0.055031,862,906,877,905
9263,0,0.000000,0.000000,0.000000,0.00,-0.00,-0.000033,0.055000,0.000000,-0.000000,0.000000,0.000000,0.000000,0.000000,-0.000678,-0.001705,0.000000,0.053973,0.057383,0.052616,0.056028,863,907,878,906
9277,0,0.000000,0.000000,0.000000,0.00,0.00,-0.000128,0.055000,0.000000,0.000000,0.000000,0.000000,0.000000,0.000000,-0.000675,-0.001732,0.000002,0.053945,0.057405,0.052591,0.056058,863,907,878,906
9290,0,0.000000,0.000000,0.000000,0.00,0.00,-0.000224,0.055000,0.000000,0.000000,0.000000,0.000000,0.000000,0.000000,-0.000677,-0.001721,0.000003,0.053960,0.057395,0.052598,0.056047,863,907,878,906
9306,0,0.000000,0.000000,0.000000,0.00,-0.00,-0.000319,0.055000,0.000000,-0.000000,0.000000,0.000000,0.000000,0.000000,-0.000677,-0.001717,0.000005,0.053965,0.057390,0.052601,0.056044,863,907,878,906
9326,0,0.001091,0.000000,0.000000,0.01,-0.00,-0.000323,0.055000,-0.000000,-0.000000,0.000000,0.000000,0.000000,0.000000,0.000256,-0.001717,0.000005,0.053032,0.056456,0.053535,0.056978,862,906,879,906
9340,0,0.001091,0.000000,0.000000,0.00,-0.00,-0.000293,0.054000,-0.000023,-0.000000,0.000000,0.000000,0.000000,0.000000,-0.000642,-0.001714,0.000005,0.052932,0.056351,0.051640,0.055077,862,906,877,905
9358,0,0.001091,0.000000,0.000000,-0.00,0.00,-0.000059,0.054000,-0.000023,0.000000,0.000000,0.000000,0.000000,0.000000,-0.000651,-0.001720,0.000001,0.052932,0.056369,0.051628,0.055071,862,906,877,905
9375,0,0.001091,0.000000,0.000000,-0.00,0.00,0.000247,0.054000,-0.000024,0.000000,0.000000,0.000000,0.000000,0.000000,-0.000651,-0.001718,-0.000003,0.052930,0.056372,0.051634,0.055065,862,906,877,905
9389,0,0.000000,0.000000,0.000000,-0.02,0.00,0.000385,0.054000,-0.000033,0.000000,0.000000,0.000000,0.000000,0.000000,-0.001976,-0.001718,-0.000005,0.054253,0.057699,0.050310,0.053737,863,907,876,904
9404,0,0.000000,0.000000,0.000000,-0.00,-0.00,0.000016,0.054000,-0.000002,-0.000000,0.000000,0.000000,0.000000,0.000000,-0.000701,-0.001716,0.000000,0.052986,0.056417,0.051582,0.055015,862,906,877,905
9418,0,0.001091,0.000000,0.000000,0.02,0.00,-0.000393,0.054000,0.000007,0.000000,0.000000,0.000000,0.000000,0.000000,0.000628,-0.001731,0.000006,0.051647,0.055098,0.052891,0.056364,861,905,878,906
9431,0,0.001091,0.000000,0.000000,-0.00,0.00,-0.000459,0.054000,-0.000025,0.000000,0.000000,0.000000,0.000000,0.000000,-0.000648,-0.001735,0.000007,0.052920,0.056377,0.051610,0.055094,862,906,877,905
9447,0,0.001091,0.000000,0.000000,-0.00,-0.00,-0.000046,0.054000,-0.000025,-0.000000,0.000000,0.000000,0.000000,0.000000,-0.000654,-0.001720,0.000001,0.052935,0.056372,0.051625,0.055068,862,906,877,905
9464,0,0.001091,0.000000,0.000000,-0.00,-0.00,0.000280,0.054000,-0.000026,-0.000000,0.000000,0.000000,0.000000,0.000000,-0.000654,-0.001713,-0.000003,0.052938,0.056370,0.051636,0.055056,862,906,877,905
9478,0,0.000000,0.000000,0.000000,-0.02,-0.00,0.000528,0.054000,-0.000035,-0.000000,0.000000,0.000000,0.000000,0.000000,-0.001979,-0.001718,-0.000007,0.054254,0.057704,0.050309,0.053733,863,907,876,904
9491,0,0.000000,0.000000,0.000000,-0.00,-0.00,0.000349,0.054000,-0.000004,-0.000000,0.000000,0.000000,0.000000,0.000000,-0.000704,-0.001718,-0.000004,0.052981,0.056426,0.051582,0.055010,862,906,877,905
9507,0,0.000000,0.000000,0.000000,-0.00,0.00,0.000146,0.054000,-0.000004,0.000000,0.000000,0.000000,0.000000,0.000000,-0.000704,-0.001720,-0.000002,0.052982,0.056426,0.051578,0.055014,862,906,877,905
9523,0,0.000000,0.000000,0.000000,-0.00,-0.00,-0.000047,0.054000,-0.000004,-0.000000,0.000000,0.000000,0.000000,0.000000,-0.000707,-0.001718,0.000000,0.052990,0.056424,0.051575,0.055012,862,906,877,905
9538,0,0.000000,0.000000,0.000000,-0.00,-0.00,0.000097,0.054000,-0.000004,-0.000000,0.000000,0.000000,0.000000,0.000000,-0.000703,-0.001717,-0.000001,0.052985,0.056422,0.051580,0.055013,862,906,877,905
9551,0,0.000000,0.000000,0.000000,-0.00,-0.00,0.000035,0.054000,-0.000004,-0.000000,0.000000,0.000000,0.000000,0.000000,-0.000702,-0.001704,-0.000000,0.052998,0.056406,0.051594,0.055002,862,906,877,905
9567,0,0.000000,0.000000,0.000000,-0.00,-0.00,0.000022,0.054000,-0.000004,-0.000000,0.000000,0.000000,0.000000,0.000000,-0.000702,-0.001710,-0.000000,0.052992,0.056412,0.051588,0.055008,862,906,877,905
9583,0,0.000000,0.000000,0.000000,0.00,0.00,0.000065,0.054000,-0.000004,0.000000,0.000000,0.000000,0.000000,0.000000,-0.000700,-0.001718,-0.000000,0.052981,0.056418,0.051583,0.055017,862,906,877,905
9598,0,0.000000,0.000000,0.000000,-0.00,-0.00,-0.000154,0.054000,-0.000004,-0.000000,0.000000,0.000000,0.000000,0.000000,-0.000702,-0.001714,0.000002,0.052991,0.056414,0.051582,0.055014,862,906,877,905
9610,0,0.000000,0.000000,0.000000,0.00,0.00,-0.000046,0.054000,-0.000004,0.000000,0.000000,0.000000,0.000000,0.000000,-0.000696,-0.001727,0.000000,0.052970,0.056422,0.051577,0.055032,862,906,877,905
9627,0,0.000000,0.000000,0.000000,-0.00,0.00,-0.000024,0.069000,-0.000004,0.000000,0.000000,0.000000,0.000000,0.000000,-0.000702,-0.001717,0.000000,0.067985,0.071419,0.066580,0.070016,874,918,890,917
9641,0,0.000000,0.000000,0.000000,-0.00,-0.00,-0.000142,0.078000,-0.000004,-0.000000,0.000000,0.000000,0.000000,0.000000,-0.000706,-0.001702,0.000002,0.077006,0.080406,0.075590,0.078998,882,925,897,924
9655,0,0.000000,0.000000,0.000000,0.00,0.00,-0.000028,0.082000,-0.000004,0.000000,0.000000,0.000000,0.000000,0.000000,-0.000700,-0.001730,0.000000,0.080970,0.084429,0.079569,0.083031,885,929,900,928
9669,0,0.000000,0.000000,0.000000,-0.00,-0.00,0.000055,0.082000,-0.000004,-0.000000,0.000000,0.000000,0.000000,0.000000,-0.000702,-0.001715,-0.000000,0.080987,0.084418,0.079583,0.083012,885,929,900,928
9683,0,0.000000,0.000000,0.000000,-0.00,0.00,0.000179,0.083000,-0.000004,0.000000,0.000000,0.000000,0.000000,0.000000,-0.000706,-0.001717,-0.000002,0.081987,0.085426,0.080579,0.084008,886,930,901,928
9698,0,0.000000,0.000000,0.000000,-0.00,0.00,0.000081,0.083000,-0.000004,0.000000,0.000000,0.000000,0.000000,0.000000,-0.000707,-0.001717,-0.000000,0.081989,0.085425,0.080577,0.084009,886,930,901,928
9714,0,0.000000,0.000000,0.000000,-0.00,0.00,-0.000045,0.083000,-0.000004,0.000000,0.000000,0.000000,0.000000,0.000000,-0.000706,-0.001721,0.000000,0.081985,0.085426,0.080572,0.084017,886,930,901,928
9729,0,0.001091,0.000000,0.000000,0.01,-0.00,-0.000253,0.083000,0.000003,-0.000000,0.000000,0.000000,0.000000,0.000000,0.000534,-0.001713,0.000004,0.080756,0.084176,0.081817,0.085251,885,929,902,929
9741,0,0.001091,0.000000,0.000000,-0.00,0.00,-0.000127,0.083000,-0.000027,0.000000,0.000000,0.000000,0.000000,0.000000,-0.000655,-0.001724,0.000002,0.081933,0.085376,0.080620,0.084071,886,930,901,928
9757,0,0.001091,0.000000,0.000000,-0.00,-0.00,-0.000056,0.083000,-0.000027,-0.000000,0.000000,0.000000,0.000000,0.000000,-0.000653,-0.001716,0.000001,0.081939,0.085368,0.080629,0.084064,886,930,901,928
9774,0,0.000000,0.000000,0.000000,-0.01,0.00,0.000217,0.083000,-0.000031,0.000000,0.000000,0.000000,0.000000,0.000000,-0.001754,-0.001729,-0.000003,0.083023,0.086485,0.079520,0.082972,887,930,900,928
9789,0,0.000000,0.000000,0.000000,-0.00,0.00,0.000287,0.083000,-0.000005,0.000000,0.000000,0.000000,0.000000,0.000000,-0.000700,-0.001728,-0.000004,0.081967,0.085432,0.080576,0.084025,886,930,901,928
9802,0,0.000000,0.000000,0.000000,-0.00,-0.00,0.000103,0.083000,-0.000005,-0.000000,0.000000,0.000000,0.000000,0.000000,-0.000706,-0.001710,-0.000001,0.081995,0.085418,0.080585,0.084003,886,930,901,928
9824,0,0.000000,0.000000,0.000000,-0.00,0.00,0.000036,0.083000,-0.000005,0.000000,0.000000,0.000000,0.000000,0.000000,-0.000701,-0.001724,-0.000000,0.081977,0.085425,0.080575,0.084022,886,930,901,928
9839,0,0.000000,0.000000,0.000000,-0.00,0.00,0.000144,0.083000,-0.000005,0.000000,0.000000,0.000000,0.000000,0.000000,-0.000700,-0.001729,-0.000002,0.081970,0.085431,0.080573,0.084027,886,930,901,928
9855,0,0.000000,0.000000,0.000000,-0.00,-0.00,0.000014,0.083000,-0.000005,-0.000000,0.000000,0.000000,0.000000,0.000000,-0.000706,-0.001711,-0.000000,0.081995,0.085416,0.080584,0.084005,886,930,901,928
9870,0,0.000000,0.000000,0.000000,-0.00,-0.00,-0.000013,0.083000,-0.000005,-0.000000,0.000000,0.000000,0.000000,0.000000,-0.000701,-0.001698,0.000000,0.082003,0.085398,0.080601,0.083997,886,930,901,928
9884,0,0.000000,0.000000,0.000000,-0.00,-0.00,0.000211,0.083000,-0.000005,-0.000000,0.000000,0.000000,0.000000,0.000000,-0.000700,-0.001714,-0.000003,0.081983,0.085416,0.080590,0.084011,886,930,901,928
9899,0,0.000000,0.001091,0.000000,-0.00,0.01,0.000255,0.083000,-0.000005,0.000033,0.000000,0.000000,0.000000,0.000000,-0.000698,-0.003837,-0.000004,0.079857,0.087539,0.078468,0.086135,884,931,899,930
9911,0,0.000000,0.001091,0.000000,-0.00,-0.00,0.000082,0.083000,-0.000005,-0.000056,0.000000,0.000000,0.000000,0.000000,-0.000707,-0.002079,-0.000001,0.081627,0.085788,0.080215,0.084370,886,930,901,929
9927,0,0.000000,0.001091,0.000000,0.00,0.00,0.000336,0.083000,-0.000005,-0.000056,0.000000,0.000000,0.000000,0.000000,-0.000697,-0.002094,-0.000005,0.081598,0.085797,0.080213,0.084392,885,930,901,929
9942,0,-0.001091,0.001091,0.000000,-0.01,0.00,0.000478,0.083000,-0.000012,-0.000057,0.000000,0.000000,0.000000,0.000000,-0.001940,-0.002091,-0.000007,0.082843,0.087038,0.078976,0.083144,887,931,900,928
9956,0,-0.001091,0.001091,0.000000,-0.00,-0.00,0.000141,0.083000,0.000017,-0.000058,0.000000,0.000000,0.000000,0.000000,-0.000759,-0.002071,-0.000003,0.081686,0.085832,0.080173,0.084309,886,930,901,929
9970,0,-0.001091,0.001091,0.000000,-0.00,-0.00,-0.000048,0.083000,0.000018,-0.000058,0.000000,0.000000,0.000000,0.000000,-0.000760,-0.002073,-0.000000,0.081686,0.085833,0.080167,0.084314,886,930,901,929
9985,0,-0.001091,0.001091,0.000000,-0.00,0.00,0.000219,0.083000,0.000019,-0.000058,0.000000,0.000000,0.000000,0.000000,-0.000755,-0.002096,-0.000004,0.081655,0.085855,0.080152,0.084338,886,930,901,929
9999,0,-0.001091,0.001091,0.000000,0.00,-0.00,0.000181,0.083000,0.000019,-0.000059,0.000000,0.000000,0.000000,0.000000,-0.000750,-0.002084,-0.000003,0.081663,0.085837,0.080169,0.084331,886,930,901,929
10013,0,-0.001091,0.001091,0.000000,-0.00,-0.00,0.000006,0.083000,0.000019,-0.000061,0.000000,0.000000,0.000000,0.000000,-0.000758,-0.002058,-0.000001,0.081699,0.085817,0.080185,0.084299,886,930,901,929
10028,0,-0.001091,0.001091,0.000000,-0.00,-0.00,0.000199,0.083000,0.000020,-0.000061,0.000000,0.000000,0.000000,0.000000,-0.000761,-0.002074,-0.000004,0.081683,0.085838,0.080169,0.084309,886,930,901,929
10043,0,-0.002182,0.001091,0.000000,-0.01,0.00,0.000421,0.083000,0.000014,-0.000060,0.000000,0.000000,0.000000,0.000000,-0.001999,-0.002097,-0.000007,0.082895,0.087103,0.078910,0.083091,887,931,900,928
10058,0,-0.002182,0.001091,0.000000,-0.00,0.00,0.000023,0.083000,0.000044,-0.000061,0.000000,0.000000,0.000000,0.000000,-0.000811,-0.002090,-0.000002,0.081719,0.085902,0.080101,0.084278,886,930,901,929
10074,0,-0.002182,0.001091,0.000000,-0.00,-0.00,-0.000209,0.083000,0.000045,-0.000062,0.000000,0.000000,0.000000,0.000000,-0.000809,-0.002085,0.000002,0.081725,0.085892,0.080105,0.084278,886,930,901,929
10089,0,-0.002182,0.001091,0.000000,-0.00,-0.00,0.000080,0.083000,0.000046,-0.000062,0.000000,0.000000,0.000000,0.000000,-0.000811,-0.002087,-0.000002,0.081722,0.085901,0.080103,0.084274,886,930,901,929
10106,0,-0.002182,0.001091,0.000000,-0.00,-0.00,0.000229,0.083000,0.000047,-0.000063,0.000000,0.000000,0.000000,0.000000,-0.000809,-0.002090,-0.000004,0.081715,0.085904,0.080104,0.084277,886,930,901,929
10120,0,-0.002182,0.001091,0.000000,0.00,-0.00,0.000183,0.083000,0.000048,-0.000063,0.000000,0.000000,0.000000,0.000000,-0.000807,-0.002090,-0.000004,0.081714,0.085900,0.080107,0.084279,886,930,901,929
10134,0,-0.002182,0.001091,0.000000,-0.00,0.00,0.000158,0.083000,0.000049,-0.000064,0.000000,0.000000,0.000000,0.000000,-0.000810,-0.002099,-0.000004,0.081707,0.085913,0.080094,0.084286,886,930,901,929
10149,0,-0.002182,0.000000,0.000000,-0.00,-0.01,-0.000075,0.083000,0.000050,-0.000097,0.000000,0.000000,0.000000,0.000000,-0.000810,0.000018,-0.000000,0.083828,0.083793,0.082208,0.082171,887,928,902,927
10166,0,-0.002182,0.000000,0.000000,-0.00,-0.00,-0.000335,0.083000,0.000051,-0.000009,0.000000,0.000000,0.000000,0.000000,-0.000809,-0.001718,0.000003,0.082094,0.085525,0.080469,0.083912,886,930,901,928
10180,0,-0.002182,0.000000,0.000000,-0.00,-0.00,0.000085,0.083000,0.000052,-0.000010,0.000000,0.000000,0.000000,0.000000,-0.000814,-0.001707,-0.000002,0.082104,0.085523,0.080482,0.083891,886,930,901,928
10192,0,-0.002182,0.000000,0.000000,-0.00,-0.00,0.000367,0.083000,0.000053,-0.000010,0.000000,0.000000,0.000000,0.000000,-0.000810,-0.001700,-0.000006,0.082104,0.085516,0.080496,0.083883,886,930,901,928
10208,0,-0.002182,0.000000,0.000000,-0.00,-0.00,0.000165,0.083000,0.000054,-0.000010,0.000000,0.000000,0.000000,0.000000,-0.000820,-0.001699,-0.000004,0.082117,0.085522,0.080485,0.083876,886,930,901,928
10224,0,-0.002182,0.000000,0.000000,-0.00,-0.00,-0.000013,0.083000,0.000055,-0.000010,0.000000,0.000000,0.000000,0.000000,-0.000811,-0.001692,-0.000001,0.082118,0.085504,0.080499,0.083879,886,930,901,928
10239,0,-0.003272,0.000000,0.000000,-0.01,-0.00,-0.000109,0.083000,0.000049,-0.000009,0.000000,0.000000,0.000000,0.000000,-0.002062,-0.001708,-0.000000,0.083354,0.086769,0.079231,0.082646,887,931,900,927
10254,0,-0.003272,0.000000,0.000000,-0.00,0.00,0.000146,0.083000,0.000080,-0.000009,0.000000,0.000000,0.000000,0.000000,-0.000866,-0.001719,-0.000003,0.082144,0.085588,0.080419,0.083849,886,930,901,928
10269,0,-0.002182,0.000000,0.000000,0.01,0.00,-0.000032,0.083000,0.000088,-0.000009,0.000000,0.000000,0.000000,0.000000,0.000385,-0.001725,-0.000001,0.080889,0.084341,0.081661,0.085108,885,929,902,929
10289,0,-0.002182,0.000000,0.000000,0.00,-0.00,-0.000067,0.083000,0.000060,-0.000009,0.000000,0.000000,0.000000,0.000000,-0.000811,-0.001712,-0.000000,0.082099,0.085524,0.080477,0.083900,886,930,901,928
10301,0,-0.002182,0.000000,0.000000,-0.00,-0.00,-0.000333,0.104000,0.000061,-0.000010,0.000000,0.000000,0.000000,0.000000,-0.000817,-0.001694,0.000003,0.103126,0.106508,0.101486,0.104880,903,947,918,946
10317,0,-0.002182,0.000000,0.000000,0.00,-0.00,0.000299,0.107000,0.000062,-0.000010,0.000000,0.000000,0.000000,0.000000,-0.000808,-0.001700,-0.000005,0.106103,0.109513,0.104497,0.107886,906,949,921,948
10332,0,-0.003272,0.000000,0.000000,-0.01,0.00,0.000593,0.107000,0.000056,-0.000009,0.000000,0.000000,0.000000,0.000000,-0.002056,-0.001718,-0.000009,0.107329,0.110783,0.103235,0.106652,907,950,920,947
10344,0,-0.003272,0.000000,0.000000,-0.00,0.00,0.000134,0.108000,0.000087,-0.000009,0.000000,0.000000,0.000000,0.000000,-0.000871,-0.001713,-0.000004,0.107154,0.110588,0.105419,0.108838,906,950,921,949
10359,0,-0.003272,0.000000,0.000000,-0.00,-0.00,-0.000247,0.108000,0.000088,-0.000010,0.000000,0.000000,0.000000,0.000000,-0.000876,-0.001696,0.000001,0.107181,0.110570,0.105427,0.108822,906,950,921,949
10375,0,-0.003272,0.000000,0.000000,0.00,0.00,0.000027,0.108000,0.000090,-0.000009,0.000000,0.000000,0.000000,0.000000,-0.000867,-0.001720,-0.000002,0.107145,0.110589,0.105415,0.108851,906,950,921,949
10390,0,-0.002182,0.000000,0.000000,0.01,0.00,-0.000177,0.108000,0.000098,-0.000009,0.000000,0.000000,0.000000,0.000000,0.000376,-0.001729,0.000000,0.105895,0.109352,0.106647,0.110106,905,949,922,950
10403,0,-0.002182,0.000000,0.000000,0.00,0.00,-0.000020,0.108000,0.000070,-0.000009,0.000000,0.000000,0.000000,0.000000,-0.000815,-0.001719,-0.000001,0.107094,0.110535,0.105468,0.108903,906,950,921,949
10419,0,-0.002182,0.000000,0.000000,-0.00,-0.00,0.000895,0.108000,0.000071,-0.000009,0.000000,0.000000,0.000000,0.000000,-0.000840,-0.001713,-0.000014,0.107112,0.110567,0.105461,0.108860,906,950,921,949
10435,0,-0.003272,0.000000,0.000000,-0.01,0.00,0.000621,0.108000,0.000066,-0.000009,0.000000,0.000000,0.000000,0.000000,-0.002014,-0.001722,-0.000010,0.108281,0.111746,0.104274,0.107698,907,951,920,948
10450,0,-0.004363,0.000000,0.000000,-0.01,-0.00,0.000581,0.108000,0.000089,-0.000009,0.000000,0.000000,0.000000,0.000000,-0.002140,-0.001712,-0.000010,0.108417,0.111862,0.104158,0.107563,907,951,920,948
10463,0,-0.004363,0.000000,0.001091,-0.00,-0.00,0.000162,0.108000,0.000120,-0.000009,0.000000,0.000000,0.000000,0.000000,-0.000943,-0.001712,-0.000005,0.107226,0.110660,0.105350,0.108764,906,950,921,949
10479,0,-0.004363,0.000000,0.001091,-0.00,-0.00,0.000078,0.108000,0.000122,-0.000009,0.000000,0.000000,0.000000,0.000000,-0.000943,-0.001714,-0.000004,0.107226,0.110661,0.105347,0.108766,906,950,921,949
10493,0,-0.004363,0.000000,0.001091,-0.00,0.00,-0.000380,0.108000,0.000124,-0.000008,0.000000,0.000000,0.000000,0.000000,-0.000954,-0.001749,0.000002,0.107207,0.110701,0.105295,0.108797,906,950,921,949
10508,0,-0.003272,0.000000,0.001091,0.01,0.00,-0.000259,0.108000,0.000133,-0.000009,0.000000,0.000000,0.000000,0.000000,0.000290,-0.001735,0.000000,0.105976,0.109444,0.106554,0.110026,905,949,922,950
10522,0,-0.003272,0.000000,0.002182,-0.00,-0.00,-0.000143,0.108000,0.000105,-0.000010,0.000000,0.000000,0.000000,0.000000,-0.000907,-0.001716,-0.000000,0.107191,0.110623,0.105378,0.108808,906,950,921,949
10539,0,-0.003272,0.000000,0.002182,-0.00,-0.00,-0.000044,0.108000,0.000107,-0.000010,0.000000,0.000000,0.000000,0.000000,-0.000914,-0.001708,-0.000002,0.107204,0.110623,0.105380,0.108792,906,950,921,949
10554,0,-0.003272,0.000000,0.003272,-0.00,0.00,0.000128,0.108000,0.000108,-0.000009,0.000000,0.000000,0.000000,0.000000,-0.000922,-0.001736,-0.000004,0.107182,0.110663,0.105346,0.108810,906,950,921,949
10568,0,-0.003272,0.000000,0.003272,-0.00,0.00,0.000102,0.108000,0.000109,-0.000009,0.000000,0.000000,0.000000,0.000000,-0.000926,-0.001739,-0.000004,0.107183,0.110669,0.105339,0.108809,906,950,921,949
10582,0,-0.003272,0.000000,0.004363,-0.00,-0.00,-0.000299,0.108000,0.000111,-0.000009,0.000000,0.000000,0.000000,0.000000,-0.000931,-0.001722,0.000001,0.107210,0.110652,0.105345,0.108793,906,950,921,949
10595,0,-0.003272,0.000000,0.004363,-0.00,-0.00,-0.000380,0.108000,0.000112,-0.000009,0.000000,0.000000,0.000000,0.000000,-0.000936,-0.001722,0.000003,0.107217,0.110655,0.105339,0.108788,906,950,921,949
10609,0,-0.002182,0.000000,0.004363,0.01,-0.00,-0.000243,0.108000,0.000123,-0.000010,0.000000,0.000000,0.000000,0.000000,0.000384,-0.001708,0.000001,0.105909,0.109323,0.106675,0.110093,905,949,922,950
10622,0,-0.002182,0.000000,0.005454,-0.00,-0.00,-0.000567,0.108000,0.000092,-0.000011,0.000000,0.000000,0.000000,0.000000,-0.000896,-0.001683,0.000005,0.107219,0.110574,0.105415,0.108792,906,950,921,949
10638,0,-0.001091,0.000000,0.006545,0.01,-0.00,-0.001027,0.108000,0.000098,-0.000010,0.000000,0.000000,0.000000,0.000000,0.000268,-0.001687,0.000012,0.106057,0.109406,0.106570,0.109967,906,949,922,950
10653,0,0.000000,0.000000,0.006545,0.01,0.00,-0.000678,0.108000,0.000079,-0.000009,0.000000,0.000000,0.000000,0.000000,0.000434,-0.001720,0.000008,0.105855,0.109278,0.106706,0.110161,905,949,922,950
10667,0,0.000000,0.000000,0.006545,-0.00,0.00,-0.000288,0.108000,0.000050,-0.000009,0.000000,0.000000,0.000000,0.000000,-0.000742,-0.001721,0.000003,0.107023,0.110460,0.105534,0.108983,906,950,921,949
10682,0,-0.001091,0.000000,0.006545,-0.01,-0.00,0.000262,0.108000,0.000044,-0.000010,0.000000,0.000000,0.000000,0.000000,-0.001982,-0.001692,-0.000004,0.108285,0.111678,0.104330,0.107706,907,951,920,948
10694,0,-0.001091,0.000000,0.006545,-0.00,-0.00,0.000205,0.108000,0.000073,-0.000010,0.000000,0.000000,0.000000,0.000000,-0.000794,-0.001684,-0.000004,0.107106,0.110481,0.105526,0.108886,906,950,921,949
10710,0,-0.001091,0.000000,0.006545,-0.00,-0.00,-0.000188,0.108000,0.000074,-0.000010,0.000000,0.000000,0.000000,0.000000,-0.000793,-0.001686,0.000002,0.107109,0.110478,0.105519,0.108894,906,950,921,949
10730,0,-0.001091,0.000000,0.006545,0.00,0.00,-0.000342,0.108000,0.000075,-0.000008,0.000000,0.000000,0.000000,0.000000,-0.000787,-0.001725,0.000004,0.107066,0.110508,0.105484,0.108942,906,950,921,949
10745,0,0.000000,0.000000,0.006545,0.01,0.00,-0.000297,0.108000,0.000082,-0.000008,0.000000,0.000000,0.000000,0.000000,0.000452,-0.001747,0.000003,0.105804,0.109291,0.106702,0.110203,905,949,922,950
10759,0,0.000000,0.000000,0.006545,-0.00,0.00,-0.000242,0.108000,0.000053,-0.000008,0.000000,0.000000,0.000000,0.000000,-0.000740,-0.001746,0.000003,0.106997,0.110483,0.105512,0.109008,906,950,921,949
10775,0,-0.001091,0.000000,0.006545,-0.01,-0.00,0.000485,0.108000,0.000048,-0.000011,0.000000,0.000000,0.000000,0.000000,-0.001897,-0.001678,-0.000007,0.108212,0.111582,0.104432,0.107774,907,951,921,948
10790,0,-0.001091,0.001091,0.006545,-0.00,0.01,0.000264,0.108000,0.000076,0.000021,0.000000,0.000000,0.000000,0.000000,-0.000794,-0.003804,-0.000004,0.104985,0.112602,0.103406,0.111006,905,952,920,951
10806,0,-0.001091,0.001091,0.006545,-0.00,0.00,0.000160,0.108000,0.000076,-0.000064,0.000000,0.000000,0.000000,0.000000,-0.000793,-0.002131,-0.000003,0.106659,0.110927,0.105079,0.109335,906,950,921,949
10821,0,-0.001091,0.000000,0.006545,0.00,-0.01,0.000245,0.108000,0.000077,-0.000097,0.000000,0.000000,0.000000,0.000000,-0.000786,0.000011,-0.000004,0.108792,0.108779,0.107229,0.107200,908,949,923,947
10834,0,-0.001091,0.000000,0.006545,-0.00,-0.00,0.000125,0.108000,0.000077,-0.000011,0.000000,0.000000,0.000000,0.000000,-0.000795,-0.001709,-0.000003,0.107084,0.110506,0.105499,0.108911,906,950,921,949
10850,0,-0.001091,0.000000,0.006545,-0.00,-0.00,0.000040,0.108000,0.000078,-0.000011,0.000000,0.000000,0.000000,0.000000,-0.000796,-0.001694,-0.000002,0.107100,0.110492,0.105512,0.108897,906,950,921,949
10866,0,-0.001091,0.000000,0.006545,0.00,0.00,-0.000266,0.108000,0.000078,-0.000010,0.000000,0.000000,0.000000,0.000000,-0.000791,-0.001711,0.000002,0.107082,0.110500,0.105496,0.108922,906,950,921,949
10881,0,-0.001091,0.001091,0.006545,-0.00,0.01,-0.000449,0.108000,0.000079,0.000021,0.000000,0.000000,0.000000,0.000000,-0.000793,-0.003844,0.000005,0.104954,0.112632,0.103358,0.111056,905,952,920,951
10893,0,0.000000,0.001091,0.006545,0.02,0.00,-0.000151,0.108000,0.000093,-0.000065,0.000000,0.000000,0.000000,0.000000,0.000762,-0.002131,0.000001,0.105109,0.109368,0.106630,0.110894,905,949,922,950
10910,0,0.000000,0.000000,0.006545,-0.00,-0.01,-0.000015,0.108000,0.000057,-0.000088,0.000000,0.000000,0.000000,0.000000,-0.000727,-0.000249,-0.000000,0.108478,0.108977,0.107024,0.107521,908,949,923,948
10925,0,-0.001091,0.000000,0.006545,-0.01,0.00,0.000652,0.108000,0.000050,-0.000010,0.000000,0.000000,0.000000,0.000000,-0.001964,-0.001796,-0.000009,0.108159,0.111769,0.104250,0.107822,907,951,920,948
10941,0,-0.001091,0.000000,0.006545,0.00,-0.00,0.000496,0.108000,0.000080,-0.000014,0.000000,0.000000,0.000000,0.000000,-0.000775,-0.001723,-0.000008,0.107045,0.110506,0.105509,0.108940,906,950,921,949
10957,0,-0.001091,0.000000,0.006545,-0.00,-0.00,0.000069,0.108000,0.000080,-0.000012,0.000000,0.000000,0.000000,0.000000,-0.000783,-0.001748,-0.000002,0.107033,0.110533,0.105471,0.108962,906,950,921,949
10972,0,-0.001091,0.000000,0.006545,0.00,0.00,0.000075,0.108000,0.000081,-0.000010,0.000000,0.000000,0.000000,0.000000,-0.000775,-0.001797,-0.000002,0.106976,0.110574,0.105431,0.109020,906,950,921,949
10986,0,-0.002182,0.000000,0.006545,-0.02,-0.00,0.000015,0.108000,0.000073,-0.000012,0.000000,0.000000,0.000000,0.000000,-0.002104,-0.001766,-0.000002,0.108337,0.111871,0.104132,0.107660,907,951,920,948
11001,0,-0.002182,0.000000,0.006545,-0.00,0.00,0.000262,0.108000,0.000105,-0.000012,0.000000,0.000000,0.000000,0.000000,-0.000851,-0.001770,-0.000005,0.107076,0.110626,0.105384,0.108914,906,950,921,949
11017,0,-0.002182,0.000000,0.006545,-0.00,0.00,0.000875,0.108000,0.000106,-0.000010,0.000000,0.000000,0.000000,0.000000,-0.000854,-0.001804,-0.000013,0.107037,0.110672,0.105355,0.108937,906,950,921,949
11032,0,-0.003272,0.000000,0.006545,-0.01,-0.00,0.000221,0.108000,0.000101,-0.000012,0.000000,0.000000,0.000000,0.000000,-0.002081,-0.001764,-0.000005,0.108312,0.111850,0.104159,0.107678,907,951,920,948
11044,0,-0.003272,0.000000,0.006545,0.00,-0.00,0.000318,0.108000,0.000131,-0.000012,0.000000,0.000000,0.000000,0.000000,-0.000891,-0.001765,-0.000006,0.107120,0.110662,0.105350,0.108867,906,950,921,949
11060,0,-0.003272,0.000000,0.006545,-0.00,0.00,0.000597,0.108000,0.000133,-0.000011,0.000000,0.000000,0.000000,0.000000,-0.000912,-0.001777,-0.000010,0.107126,0.110699,0.105321,0.108854,906,950,921,949
11076,0,-0.003272,0.000000,0.006545,-0.00,0.00,-0.000048,0.108000,0.000134,-0.000011,0.000000,0.000000,0.000000,0.000000,-0.000910,-0.001789,-0.000002,0.107119,0.110701,0.105303,0.108877,906,950,921,949
11091,0,-0.002182,0.000000,0.006545,0.01,0.00,-0.000665,0.108000,0.000143,-0.000010,0.000000,0.000000,0.000000,0.000000,0.000340,-0.001810,0.000006,0.105856,0.109464,0.106524,0.110157,905,949,922,950
11105,0,-0.002182,0.000000,0.006545,0.00,0.00,-0.000514,0.108000,0.000115,-0.000012,0.000000,0.000000,0.000000,0.000000,-0.000835,-0.001786,0.000005,0.107054,0.110616,0.105375,0.108955,906,950,921,949
11120,0,-0.002182,0.000000,0.006545,0.00,-0.00,-0.000377,0.108000,0.000116,-0.000012,0.000000,0.000000,0.000000,0.000000,-0.000845,-0.001773,0.000003,0.107075,0.110615,0.105379,0.108931,906,950,921,949
11136,0,-0.002182,0.000000,0.006545,-0.00,0.00,0.000397,0.108000,0.000117,-0.000011,0.000000,0.000000,0.000000,0.000000,-0.000857,-0.001791,-0.000007,0.107059,0.110656,0.105358,0.108927,906,950,921,949
11150,0,-0.002182,0.000000,0.006545,0.00,-0.00,-0.000362,0.108000,0.000118,-0.000013,0.000000,0.000000,0.000000,0.000000,-0.000847,-0.001751,0.000003,0.107099,0.110594,0.105400,0.108907,906,950,921,949
11163,0,-0.002182,0.000000,0.006545,0.00,-0.00,-0.000240,0.108000,0.000119,-0.000013,0.000000,0.000000,0.000000,0.000000,-0.000848,-0.001751,0.000001,0.107099,0.110598,0.105399,0.108904,906,950,921,949
11179,0,-0.002182,0.000000,0.006545,-0.00,0.00,0.000089,0.108000,0.000120,-0.000011,0.000000,0.000000,0.000000,0.000000,-0.000861,-0.001792,-0.000003,0.107066,0.110655,0.105350,0.108928,906,950,921,949
11200,0,-0.001091,0.000000,0.006545,0.01,-0.00,-0.000363,0.108000,0.000120,-0.000012,0.000000,0.000000,0.000000,0.000000,0.000049,-0.001771,0.000003,0.106183,0.109718,0.106276,0.109823,906,949,922,950
11217,0,-0.001091,0.000000,0.007636,-0.00,-0.00,-0.000438,0.108000,0.000099,-0.000013,0.000000,0.000000,0.000000,0.000000,-0.000821,-0.001743,0.000004,0.107082,0.110559,0.105432,0.108926,906,950,921,949
11231,0,-0.001091,0.000000,0.007636,0.00,0.00,-0.000438,0.108000,0.000100,-0.000011,0.000000,0.000000,0.000000,0.000000,-0.000809,-0.001793,0.000005,0.107020,0.110597,0.105394,0.108989,906,950,921,949
11244,0,0.000000,0.000000,0.007636,0.02,-0.00,-0.000225,0.108000,0.000112,-0.000012,0.000000,0.000000,0.000000,0.000000,0.000638,-0.001773,0.000002,0.105592,0.109133,0.106863,0.110412,905,949,923,950
11260,0,-0.001091,0.000000,0.007636,-0.01,-0.00,0.000153,0.108000,0.000073,-0.000013,0.000000,0.000000,0.000000,0.000000,-0.001907,-0.001741,-0.000003,0.108163,0.111651,0.104355,0.107831,907,951,921,948
11276,0,-0.001091,-0.001091,0.007636,-0.00,-0.01,0.000655,0.108000,0.000101,-0.000038,0.000000,0.000000,0.000000,0.000000,-0.000815,0.000237,-0.000010,0.109043,0.108588,0.107431,0.106938,908,949,923,947
11291,0,-0.002182,-0.001091,0.007636,-0.01,-0.00,0.001426,0.108000,0.000096,0.000044,0.000000,0.000000,0.000000,0.000000,-0.002024,-0.001373,-0.000020,0.108630,0.111417,0.104623,0.107330,908,951,921,948
11306,0,-0.003272,-0.001091,0.006545,-0.01,-0.00,0.001016,0.108000,0.000119,0.000043,0.000000,0.000000,0.000000,0.000000,-0.002097,-0.001335,-0.000016,0.108747,0.111447,0.104584,0.107222,908,951,921,947
