t,is_crashed,roll,pitch,yaw,p,q,r,throttle,p_cmd,q_cmd,r_cmd,roll_cmd,pitch_cmd,yaw_cmd,roll_pid_out,pitch_pid_out,yaw_pid_out,motor_fl,motor_bl,motor_fr,motor_br,pwm_fl,pwm_bl,pwm_fr,pwm_br
6983,0,0.475000,0.362500,0.000000,0.00,-0.00,-0.000415,0.500000,0.000000,0.000000,0.000000,0.000000,0.000000,0.000000,0.000000,0.000011,0.000004,0.000000,0.000000,0.000000,0.000000,0,0,0,0
6995,0,0.760000,0.580000,0.000000,0.12,0.09,0.000454,0.004000,0.000000,0.000000,0.000000,0.000000,0.000000,0.000000,0.001025,-0.000951,-0.000005,0.000000,0.000000,0.000000,0.000000,819,819,819,819
7005,0,0.975500,0.754000,0.000000,0.21,0.17,0.001551,0.004000,0.000000,0.000000,0.000000,0.000000,0.000000,0.000000,0.001894,-0.001814,-0.000017,0.000000,0.000000,0.000000,0.000000,819,819,819,819
7015,0,1.147900,0.893200,0.000000,0.28,0.22,0.002232,0.004000,0.000000,0.000000,0.000000,0.000000,0.000000,0.000000,0.002528,-0.002442,-0.000024,0.000000,0.000000,0.000000,0.000000,819,819,819,819
7025,0,1.285820,1.004560,0.000000,0.32,0.26,0.002124,0.004000,0.000000,0.000000,0.000000,0.000000,0.000000,0.000000,0.002981,-0.002882,-0.000024,0.000000,0.000000,0.000000,0.000000,819,819,819,819
7035,0,1.396156,1.093648,0.000000,0.34,0.27,0.001197,0.004000,0.000000,0.000000,0.000000,0.000000,0.000000,0.000000,0.003294,-0.003178,-0.000015,0.000000,0.000000,0.000000,0.000000,819,819,819,819
7045,0,1.496925,1.164918,0.000000,0.36,0.28,0.000047,0.004000,0.000000,0.000000,0.000000,0.000000,0.000000,0.000000,0.003552,-0.003362,-0.000003,0.000000,0.000000,0.000000,0.000000,819,819,819,819
7055,0,1.577540,1.221935,0.000000,0.36,0.28,-0.000683,0.004000,0.000000,0.000000,0.000000,0.000000,0.000000,0.000000,0.003717,-0.003462,0.000005,0.000000,0.000000,0.000000,0.000000,819,819,819,819
7065,0,1.642032,1.267548,0.000000,0.36,0.28,-0.001240,0.004000,0.000000,0.000000,0.000000,0.000000,0.000000,0.000000,0.003811,-0.003500,0.000011,0.000000,0.000000,0.000000,0.000000,819,819,819,819
7075,0,1.693626,1.304038,0.000000,0.35,0.27,-0.000811,0.004000,0.000000,0.000000,0.000000,0.000000,0.000000,0.000000,0.003848,-0.003496,0.000007,0.000000,0.000000,0.000000,0.000000,819,819,819,819
7085,0,1.734900,1.333231,0.000000,0.34,0.26,0.000198,0.004000,0.000000,0.000000,0.000000,0.000000,0.000000,0.000000,0.003849,-0.003464,-0.000004,0.000000,0.000000,0.000000,0.000000,819,819,819,819
7095,0,1.767920,1.356584,0.000000,0.32,0.24,0.000801,0.004000,0.000000,0.000000,0.000000,0.000000,0.000000,0.000000,0.003821,-0.003408,-0.000010,0.000000,0.000000,0.000000,0.000000,819,819,819,819
7105,0,1.794336,1.375268,0.000000,0.30,0.23,0.001036,0.004000,0.000000,0.000000,0.000000,0.000000,0.000000,0.000000,0.003774,-0.003338,-0.000013,0.000000,0.000000,0.000000,0.000000,819,819,819,819
7114,0,1.815469,1.390214,0.000000,0.28,0.21,0.000938,0.004000,0.000000,0.000000,0.000000,0.000000,0.000000,0.000000,0.003722,-0.003268,-0.000012,0.000000,0.000000,0.000000,0.000000,819,819,819,819
7125,0,1.832375,1.402171,0.000000,0.26,0.20,0.000538,0.004000,0.000000,0.000000,0.000000,0.000000,0.000000,0.000000,0.003646,-0.003179,-0.000008,0.000000,0.000000,0.000000,0.000000,819,819,819,819
7135,0,1.845900,1.411737,0.000000,0.24,0.18,-0.000135,0.004000,0.000000,0.000000,0.000000,0.000000,0.000000,0.000000,0.003573,-0.003090,-0.000001,0.000000,0.000000,0.000000,0.000000,819,819,819,819
7145,0,1.856720,1.419389,0.000000,0.22,0.17,-0.000433,0.004000,0.000000,0.000000,0.000000,0.000000,0.000000,0.000000,0.003497,-0.003002,0.000002,0.000000,0.000000,0.000000,0.000000,819,819,819,819
7155,0,1.865376,1.425512,0.000000,0.20,0.15,-0.000392,0.004000,0.000000,0.000000,0.000000,0.000000,0.000000,0.000000,0.003421,-0.002917,0.000002,0.000000,0.000000,0.000000,0.000000,819,819,819,819
7165,0,1.872301,1.430409,0.000000,0.19,0.14,0.000060,0.004000,0.000000,0.000000,0.000000,0.000000,0.000000,0.000000,0.003346,-0.002834,-0.000003,0.000000,0.000000,0.000000,0.000000,819,819,819,819
7175,0,1.877841,1.434327,0.000000,0.17,0.13,0.000469,0.004000,0.000000,0.000000,0.000000,0.000000,0.000000,0.000000,0.003275,-0.002757,-0.000007,0.000000,0.000000,0.000000,0.000000,819,819,819,819
7185,0,1.882273,1.437462,0.000000,0.16,0.12,0.000528,0.004000,0.000000,0.000000,0.000000,0.000000,0.000000,0.000000,0.003208,-0.002682,-0.000008,0.000000,0.000000,0.000000,0.000000,819,819,819,819
7195,0,1.885818,1.439970,0.000000,0.14,0.11,0.000685,0.004000,0.000000,0.000000,0.000000,0.000000,0.000000,0.000000,0.003144,-0.002613,-0.000010,0.000000,0.000000,0.000000,0.000000,819,819,819,819
7205,0,1.888654,1.441976,0.000000,0.13,0.10,0.000516,0.004000,0.000000,0.000000,0.000000,0.000000,0.000000,0.000000,0.003084,-0.002551,-0.000009,0.000000,0.000000,0.000000,0.000000,819,819,819,819
7215,0,1.890924,1.443581,0.000000,0.12,0.09,0.000156,0.004000,0.000000,0.000000,0.000000,0.000000,0.000000,0.000000,0.003027,-0.002492,-0.000005,0.000000,0.000000,0.000000,0.000000,819,819,819,819
7231,0,1.892739,1.444864,0.000000,0.11,0.08,0.000038,0.004000,0.000000,0.000000,0.000000,0.000000,0.000000,0.000000,0.002972,-0.002439,-0.000004,0.000000,0.000000,0.000000,0.000000,819,819,819,819
7263,0,1.894191,1.445891,0.000000,0.10,0.07,0.000138,0.004000,0.000000,0.000000,0.000000,0.000000,0.000000,0.000000,0.002920,-0.002385,-0.000005,0.000000,0.000000,0.000000,0.000000,819,819,819,819
7277,0,1.895353,1.446713,0.000000,0.09,0.07,0.000125,0.004000,0.000000,0.000000,0.000000,0.000000,0.000000,0.000000,0.002875,-0.002335,-0.000005,0.000000,0.000000,0.000000,0.000000,819,819,819,819
7287,0,1.896282,1.447371,0.000000,0.08,0.06,-0.000094,0.004000,0.000000,0.000000,0.000000,0.000000,0.000000,0.000000,0.002836,-0.002295,-0.000002,0.000000,0.000000,0.000000,0.000000,819,819,819,819
7296,0,1.897026,1.447896,0.000000,0.07,0.05,-0.000604,0.004000,0.000000,0.000000,0.000000,0.000000,0.000000,0.000000,0.002799,-0.002257,0.000003,0.000000,0.000000,0.000000,0.000000,819,819,819,819
7306,0,1.897621,1.448317,0.000000,0.06,0.05,-0.000650,0.004000,0.000000,0.000000,0.000000,0.000000,0.000000,0.000000,0.002767,-0.002220,0.000004,0.000000,0.000000,0.000000,0.000000,819,819,819,819
7316,0,1.898097,1.448654,0.000000,0.06,0.04,-0.000588,0.004000,0.000000,0.000000,0.000000,0.000000,0.000000,0.000000,0.002736,-0.002191,0.000003,0.000000,0.000000,0.000000,0.000000,819,819,819,819
7325,0,1.898477,1.448923,0.000000,0.05,0.04,-0.000429,0.004000,0.000000,0.000000,0.000000,0.000000,0.000000,0.000000,0.002709,-0.002164,0.000002,0.000000,0.000000,0.000000,0.000000,819,819,819,819
7336,0,1.898782,1.449138,0.000000,0.05,0.04,-0.000284,0.004000,0.000000,0.000000,0.000000,0.000000,0.000000,0.000000,0.002684,-0.002138,0.000000,0.000000,0.000000,0.000000,0.000000,819,819,819,819
7346,0,1.899026,1.449311,0.000000,0.04,0.03,-0.000465,0.004000,0.000000,0.000000,0.000000,0.000000,0.000000,0.000000,0.002660,-0.002111,0.000002,0.000000,0.000000,0.000000,0.000000,819,819,819,819
7355,0,1.899220,1.449448,0.000000,0.04,0.03,-0.000317,0.004000,0.000000,0.000000,0.000000,0.000000,0.000000,0.000000,0.002640,-0.002081,0.000001,0.000000,0.000000,0.000000,0.000000,819,819,819,819
7365,0,1.899376,1.449559,0.000000,0.03,0.03,-0.000287,0.004000,0.000000,0.000000,0.000000,0.000000,0.000000,0.000000,0.002622,-0.002060,0.000000,0.000000,0.000000,0.000000,0.000000,819,819,819,819
7375,0,1.899501,1.449647,0.000000,0.03,0.02,-0.000674,0.004000,0.000000,0.000000,0.000000,0.000000,0.000000,0.000000,0.002606,-0.002046,0.000005,0.000000,0.000000,0.000000,0.000000,819,819,819,819
7386,0,1.899601,1.449718,0.000000,0.03,0.02,-0.000610,0.004000,0.000000,0.000000,0.000000,0.000000,0.000000,0.000000,0.002592,-0.002030,0.000005,0.000000,0.000000,0.000000,0.000000,819,819,819,819
7396,0,1.899681,1.449774,0.000000,0.03,0.02,-0.000967,0.004000,0.000000,0.000000,0.000000,0.000000,0.000000,0.000000,0.002578,-0.002016,0.000009,0.000000,0.000000,0.000000,0.000000,819,819,819,819
7405,0,1.899745,1.449819,0.000000,0.02,0.02,-0.001289,0.004000,0.000000,0.000000,0.000000,0.000000,0.000000,0.000000,0.002566,-0.002005,0.000012,0.000000,0.000000,0.000000,0.000000,819,819,819,819
7415,0,1.899796,1.449855,0.000000,0.02,0.02,-0.001374,0.004000,0.000000,0.000000,0.000000,0.000000,0.000000,0.000000,0.002555,-0.001991,0.000014,0.000000,0.000000,0.000000,0.000000,819,819,819,819
7426,0,1.899837,1.449884,0.000000,0.02,0.01,-0.001243,0.004000,0.000000,0.000000,0.000000,0.000000,0.000000,0.000000,0.002543,-0.001979,0.000013,0.000000,0.000000,0.000000,0.000000,819,819,819,819
7436,0,1.899869,1.449907,0.000000,0.02,0.01,-0.000711,0.004000,0.000000,0.000000,0.000000,0.000000,0.000000,0.000000,0.002535,-0.001970,0.000008,0.000000,0.000000,0.000000,0.000000,819,819,819,819
7446,0,1.899895,1.449926,0.000000,0.02,0.01,-0.000022,0.004000,0.000000,0.000000,0.000000,0.000000,0.000000,0.000000,0.002526,-0.001960,0.000000,0.000000,0.000000,0.000000,0.000000,819,819,819,819
7456,0,1.899916,1.449941,0.000000,0.01,0.01,0.000499,0.004000,0.000000,0.000000,0.000000,0.000000,0.000000,0.000000,0.002520,-0.001954,-0.000005,0.000000,0.000000,0.000000,0.000000,819,819,819,819
7466,0,1.899933,1.449952,0.000000,0.01,0.00,0.000037,0.004000,0.000000,0.000000,0.000000,0.000000,0.000000,0.000000,0.002512,-0.001943,-0.000000,0.000000,0.000000,0.000000,0.000000,819,819,819,819
7476,0,1.899946,1.449962,0.000000,0.01,0.00,-0.000796,0.004000,0.000000,0.000000,0.000000,0.000000,0.000000,0.000000,0.002504,-0.001937,0.000009,0.000000,0.000000,0.000000,0.000000,819,819,819,819
7486,0,1.899957,1.449970,0.000000,0.01,0.00,-0.001446,0.004000,0.000000,0.000000,0.000000,0.000000,0.000000,0.000000,0.002499,-0.001931,0.000016,0.000000,0.000000,0.000000,0.000000,819,819,819,819
7496,0,1.899966,1.449976,0.000000,0.00,0.00,-0.001826,0.004000,0.000000,0.000000,0.000000,0.000000,0.000000,0.000000,0.002495,-0.001926,0.000021,0.000000,0.000000,0.000000,0.000000,819,819,819,819
7506,0,1.899973,1.449981,0.000000,0.00,0.00,-0.001860,0.004000,0.000000,0.000000,0.000000,0.000000,0.000000,0.000000,0.002493,-0.001922,0.000022,0.000000,0.000000,0.000000,0.000000,819,819,819,819
7516,0,1.899978,1.449984,0.000000,0.00,0.00,-0.001580,0.004000,0.000000,0.000000,0.000000,0.000000,0.000000,0.000000,0.002487,-0.001913,0.000019,0.000000,0.000000,0.000000,0.000000,819,819,819,819
7526,0,1.899983,1.449988,0.000000,0.00,0.00,-0.000808,0.004000,0.000000,0.000000,0.000000,0.000000,0.000000,0.000000,0.002484,-0.001908,0.000012,0.000000,0.000000,0.000000,0.000000,819,819,819,819
7536,0,1.899986,1.449990,0.000000,0.00,0.00,-0.000317,0.004000,0.000000,0.000000,0.000000,0.000000,0.000000,0.000000,0.002481,-0.001903,0.000007,0.000000,0.000000,0.000000,0.000000,819,819,819,819
7546,0,1.899989,1.449992,0.000000,0.00,0.00,0.000024,0.004000,0.000000,0.000000,0.000000,0.000000,0.000000,0.000000,0.002477,-0.001901,0.000003,0.000000,0.000000,0.000000,0.000000,819,819,819,819
7556,0,1.899991,1.449994,0.000000,0.00,0.00,-0.000185,0.004000,0.000000,0.000000,0.000000,0.000000,0.000000,0.000000,0.002475,-0.001903,0.000005,0.000000,0.000000,0.000000,0.000000,819,819,819,819
7566,0,1.899993,1.449995,0.000000,0.00,0.00,-0.000168,0.004000,0.000000,0.000000,0.000000,0.000000,0.000000,0.000000,0.002471,-0.001903,0.000005,0.000000,0.000000,0.000000,0.000000,819,819,819,819
7605,0,1.899994,1.449996,0.000000,0.00,0.00,-0.000359,0.004000,0.000000,0.000000,0.000000,0.000000,0.000000,0.000000,0.002468,-0.001904,0.000007,0.000000,0.000000,0.000000,0.000000,819,819,819,819
7617,0,1.899996,1.449997,0.000000,0.00,0.00,-0.000429,0.004000,0.000000,0.000000,0.000000,0.000000,0.000000,0.000000,0.002466,-0.001909,0.000008,0.000000,0.000000,0.000000,0.000000,819,819,819,819
7627,0,1.899997,1.449997,0.000000,0.00,0.00,-0.000284,0.004000,0.000000,0.000000,0.000000,0.000000,0.000000,0.000000,0.002465,-0.001907,0.000007,0.000000,0.000000,0.000000,0.000000,819,819,819,819
7637,0,1.899997,1.449998,0.000000,0.00,0.00,-0.000257,0.004000,0.000000,0.000000,0.000000,0.000000,0.000000,0.000000,0.002463,-0.001902,0.000007,0.000000,0.000000,0.000000,0.000000,819,819,819,819
7646,0,1.899998,1.449998,0.000000,0.00,0.00,-0.000440,0.004000,0.000000,0.000000,0.000000,0.000000,0.000000,0.000000,0.002462,-0.001897,0.000009,0.000000,0.000000,0.000000,0.000000,819,819,819,819
7656,0,1.899998,1.449999,0.000000,0.00,0.00,-0.000813,0.004000,0.000000,0.000000,0.000000,0.000000,0.000000,0.000000,0.002463,-0.001893,0.000013,0.000000,0.000000,0.000000,0.000000,819,819,819,819
7666,0,1.899999,1.449999,0.000000,0.00,0.00,-0.000632,0.004000,0.000000,0.000000,0.000000,0.000000,0.000000,0.000000,0.002461,-0.001892,0.000011,0.000000,0.000000,0.000000,0.000000,819,819,819,819
7676,0,1.899999,1.449999,0.000000,0.00,0.00,-0.000261,0.004000,0.000000,0.000000,0.000000,0.000000,0.000000,0.000000,0.002460,-0.001893,0.000008,0.000000,0.000000,0.000000,0.000000,819,819,819,819
7686,0,1.899999,1.449999,0.000000,0.00,0.00,0.000282,0.004000,0.000000,0.000000,0.000000,0.000000,0.000000,0.000000,0.002459,-0.001891,0.000002,0.000000,0.000000,0.000000,0.000000,819,819,819,819
7696,0,1.899999,1.449999,0.000000,0.00,0.00,0.000359,0.004000,0.000000,0.000000,0.000000,0.000000,0.000000,0.000000,0.002457,-0.001890,0.000001,0.000000,0.000000,0.000000,0.000000,819,819,819,819
7706,0,1.899999,1.449999,0.000000,0.00,0.00,0.000428,0.004000,0.000000,0.000000,0.000000,0.000000,0.000000,0.000000,0.002456,-0.001889,0.000000,0.000000,0.000000,0.000000,0.000000,819,819,819,819
7716,0,1.900000,1.450000,0.000000,0.00,0.00,0.000077,0.004000,0.000000,0.000000,0.000000,0.000000,0.000000,0.000000,0.002454,-0.001888,0.000004,0.000000,0.000000,0.000000,0.000000,819,819,819,819
7726,0,1.900000,1.450000,0.000000,0.00,0.00,0.000588,0.004000,0.000000,0.000000,0.000000,0.000000,0.000000,0.000000,0.002454,-0.001882,-0.000002,0.000000,0.000000,0.000000,0.000000,819,819,819,819
7737,0,1.900000,1.450000,0.000000,0.00,-0.00,0.000428,0.004000,0.000000,0.000000,0.000000,0.000000,0.000000,0.000000,0.002454,-0.001876,-0.000000,0.000000,0.000000,0.000000,0.000000,819,819,819,819
7746,0,1.900000,1.450000,0.000000,0.00,-0.00,0.000077,0.004000,0.000000,0.000000,0.000000,0.000000,0.000000,0.000000,0.002453,-0.001877,0.000003,0.000000,0.000000,0.000000,0.000000,819,819,819,819
7756,0,1.900000,1.450000,0.000000,0.00,0.00,0.000277,0.004000,0.000000,0.000000,0.000000,0.000000,0.000000,0.000000,0.002454,-0.001880,0.000001,0.000000,0.000000,0.000000,0.000000,819,819,819,819
7766,0,1.900000,1.450000,0.000000,0.00,0.00,0.000458,0.004000,0.000000,0.000000,0.000000,0.000000,0.000000,0.000000,0.002454,-0.001883,-0.000000,0.000000,0.000000,0.000000,0.000000,819,819,819,819
7776,0,1.900000,1.450000,0.000000,0.00,0.00,0.000207,0.004000,0.000000,0.000000,0.000000,0.000000,0.000000,0.000000,0.002453,-0.001888,0.000002,0.000000,0.000000,0.000000,0.000000,819,819,819,819
7787,0,1.900000,1.450000,0.000000,0.00,0.00,0.000291,0.004000,0.000000,0.000000,0.000000,0.000000,0.000000,0.000000,0.002451,-0.001891,0.000000,0.000000,0.000000,0.000000,0.000000,819,819,819,819
7796,0,1.900000,1.450000,0.000000,0.00,0.00,0.000160,0.004000,0.000000,0.000000,0.000000,0.000000,0.000000,0.000000,0.002450,-0.001889,0.000002,0.000000,0.000000,0.000000,0.000000,819,819,819,819
7807,0,1.900000,1.450000,0.000000,0.00,0.00,0.000248,0.004000,0.000000,0.000000,0.000000,0.000000,0.000000,0.000000,0.002450,-0.001886,0.000000,0.000000,0.000000,0.000000,0.000000,819,819,819,819
7817,0,1.900000,1.450000,0.000000,0.00,0.00,0.000328,0.004000,0.000000,0.000000,0.000000,0.000000,0.000000,0.000000,0.002450,-0.001884,-0.000000,0.000000,0.000000,0.000000,0.000000,819,819,819,819
7827,0,1.900000,1.450000,0.000000,0.00,0.00,0.000297,0.004000,0.000000,0.000000,0.000000,0.000000,0.000000,0.000000,0.002450,-0.001886,0.000000,0.000000,0.000000,0.000000,0.000000,819,819,819,819
7837,0,1.900000,1.450000,0.000000,-0.00,0.00,0.000683,0.004000,0.000000,0.000000,0.000000,0.000000,0.000000,0.000000,0.002449,-0.001885,-0.000004,0.000000,0.000000,0.000000,0.000000,819,819,819,819
7847,0,1.900000,1.450000,0.000000,0.00,0.00,0.000204,0.004000,0.000000,0.000000,0.000000,0.000000,0.000000,0.000000,0.002450,-0.001887,0.000000,0.000000,0.000000,0.000000,0.000000,819,819,819,819
7857,0,1.900000,1.450000,0.000000,-0.00,0.00,-0.000230,0.004000,0.000000,0.000000,0.000000,0.000000,0.000000,0.000000,0.002449,-0.001891,0.000005,0.000000,0.000000,0.000000,0.000000,819,819,819,819
7869,0,1.900000,1.450000,0.000000,-0.00,0.00,-0.000312,0.004000,0.000000,0.000000,0.000000,0.000000,0.000000,0.000000,0.002449,-0.001895,0.000006,0.000000,0.000000,0.000000,0.000000,819,819,819,819
7878,0,1.900000,1.450000,0.000000,-0.00,0.00,-0.000386,0.004000,0.000000,0.000000,0.000000,0.000000,0.000000,0.000000,0.002447,-0.001896,0.000007,0.000000,0.000000,0.000000,0.000000,819,819,819,819
7888,0,1.900000,1.450000,0.000000,-0.00,0.00,-0.000349,0.004000,0.000000,0.000000,0.000000,0.000000,0.000000,0.000000,0.002446,-0.001892,0.000007,0.000000,0.000000,0.000000,0.000000,819,819,819,819
7897,0,1.900000,1.450000,0.000000,-0.00,0.00,-0.000005,0.004000,0.000000,0.000000,0.000000,0.000000,0.000000,0.000000,0.002446,-0.001887,0.000003,0.000000,0.000000,0.000000,0.000000,819,819,819,819
7911,0,1.900000,1.450000,0.000000,-0.00,0.00,-0.000108,0.004000,0.000000,0.000000,0.000000,0.000000,0.000000,0.000000,0.002445,-0.001887,0.000005,0.000000,0.000000,0.000000,0.000000,819,819,819,819
7930,0,1.900000,1.450000,0.000000,-0.00,0.00,-0.000409,0.004000,0.000000,0.000000,0.000000,0.000000,0.000000,0.000000,0.002446,-0.001889,0.000008,0.000000,0.000000,0.000000,0.000000,819,819,819,819
7939,0,1.900000,1.450000,0.000000,-0.00,0.00,-0.000681,0.004000,0.000000,0.000000,0.000000,0.000000,0.000000,0.000000,0.002444,-0.001893,0.000011,0.000000,0.000000,0.000000,0.000000,819,819,819,819
7949,0,1.900000,1.450000,0.000000,-0.00,0.00,-0.000823,0.004000,0.000000,0.000000,0.000000,0.000000,0.000000,0.000000,0.002444,-0.001896,0.000013,0.000000,0.000000,0.000000,0.000000,819,819,819,819
7959,0,1.900000,1.450000,0.000000,-0.00,0.00,-0.000953,0.004000,0.000000,0.000000,0.000000,0.000000,0.000000,0.000000,0.002444,-0.001897,0.000014,0.000000,0.000000,0.000000,0.000000,819,819,819,819
7969,0,1.900000,1.450000,0.000000,-0.00,0.00,-0.001069,0.004000,0.000000,0.000000,0.000000,0.000000,0.000000,0.000000,0.002442,-0.001894,0.000016,0.000000,0.000000,0.000000,0.000000,819,819,819,819
7978,0,1.900000,1.450000,0.000000,-0.00,0.00,-0.000968,0.004000,0.000000,0.000000,0.000000,0.000000,0.000000,0.000000,0.002442,-0.001889,0.000015,0.000000,0.000000,0.000000,0.000000,819,819,819,819
7988,0,1.900000,1.450000,0.000000,-0.00,-0.00,-0.000772,0.004000,0.000000,0.000000,0.000000,0.000000,0.000000,0.000000,0.002442,-0.001884,0.000014,0.000000,0.000000,0.000000,0.000000,819,819,819,819
7998,0,1.900000,1.450000,0.000000,-0.00,-0.00,-0.000492,0.004000,0.000000,0.000000,0.000000,0.000000,0.000000,0.000000,0.002441,-0.001884,0.000011,0.000000,0.000000,0.000000,0.000000,819,819,819,819
8007,0,1.900000,1.450000,0.000000,-0.00,0.00,-0.000341,0.004000,0.000000,0.000000,0.000000,0.000000,0.000000,0.000000,0.002441,-0.001885,0.000010,0.000000,0.000000,0.000000,0.000000,819,819,819,819
8017,0,1.900000,1.450000,0.000000,-0.00,0.00,-0.000723,0.004000,0.000000,0.000000,0.000000,0.000000,0.000000,0.000000,0.002439,-0.001888,0.000014,0.000000,0.000000,0.000000,0.000000,819,819,819,819
8027,0,1.900000,1.450000,0.000000,-0.00,0.00,-0.000862,0.004000,0.000000,0.000000,0.000000,0.000000,0.000000,0.000000,0.002441,-0.001890,0.000015,0.000000,0.000000,0.000000,0.000000,819,819,819,819
8037,0,1.900000,1.450000,0.000000,-0.00,0.00,-0.001091,0.004000,0.000000,0.000000,0.000000,0.000000,0.000000,0.000000,0.002439,-0.001889,0.000018,0.000000,0.000000,0.000000,0.000000,819,819,819,819
8047,0,1.900000,1.450000,0.000000,-0.00,0.00,-0.001298,0.004000,0.000000,0.000000,0.000000,0.000000,0.000000,0.000000,0.002440,-0.001888,0.000021,0.000000,0.000000,0.000000,0.000000,819,819,819,819
8057,0,1.900000,1.450000,0.000000,-0.00,0.00,-0.001382,0.004000,0.000000,0.000000,0.000000,0.000000,0.000000,0.000000,0.002441,-0.001892,0.000022,0.000000,0.000000,0.000000,0.000000,819,819,819,819
8067,0,1.900000,1.450000,0.000000,-0.00,0.00,-0.001665,0.004000,0.000000,0.000000,0.000000,0.000000,0.000000,0.000000,0.002440,-0.001895,0.000026,0.000000,0.000000,0.000000,0.000000,819,819,819,819
8077,0,1.900000,1.450000,0.000000,-0.00,0.00,-0.001507,0.004000,0.000000,0.000000,0.000000,0.000000,0.000000,0.000000,0.002439,-0.001891,0.000025,0.000000,0.000000,0.000000,0.000000,819,819,819,819
8087,0,1.900000,1.450000,0.000000,-0.00,0.00,-0.001260,0.004000,0.000000,0.000000,0.000000,0.000000,0.000000,0.000000,0.002440,-0.001887,0.000023,0.000000,0.000000,0.000000,0.000000,819,819,819,819
8097,0,1.900000,1.450000,0.000000,-0.00,-0.00,-0.001244,0.004000,0.000000,0.000000,0.000000,0.000000,0.000000,0.000000,0.002440,-0.001885,0.000023,0.000000,0.000000,0.000000,0.000000,819,819,819,819
8107,0,1.900000,1.450000,0.000000,-0.00,-0.00,-0.001333,0.004000,0.000000,0.000000,0.000000,0.000000,0.000000,0.000000,0.002441,-0.001880,0.000025,0.000000,0.000000,0.000000,0.000000,819,819,819,819
8117,0,1.900000,1.450000,0.000000,-0.00,-0.00,-0.001310,0.004000,0.000000,0.000000,0.000000,0.000000,0.000000,0.000000,0.002439,-0.001880,0.000025,0.000000,0.000000,0.000000,0.000000,819,819,819,819
8127,0,1.900000,1.450000,0.000000,-0.00,-0.00,-0.001186,0.004000,0.000000,0.000000,0.000000,0.000000,0.000000,0.000000,0.002438,-0.001881,0.000024,0.000000,0.000000,0.000000,0.000000,819,819,819,819
8137,0,1.900000,1.450000,0.000000,-0.00,-0.00,-0.001280,0.004000,0.000000,0.000000,0.000000,0.000000,0.000000,0.000000,0.002436,-0.001881,0.000026,0.000000,0.000000,0.000000,0.000000,819,819,819,819
8147,0,1.900000,1.450000,0.000000,-0.00,-0.00,-0.001262,0.004000,0.000000,0.000000,0.000000,0.000000,0.000000,0.000000,0.002437,-0.001881,0.000026,0.000000,0.000000,0.000000,0.000000,819,819,819,819
8157,0,1.900000,1.450000,0.000000,-0.00,-0.00,-0.001142,0.004000,0.000000,0.000000,0.000000,0.000000,0.000000,0.000000,0.002438,-0.001882,0.000025,0.000000,0.000000,0.000000,0.000000,819,819,819,819
8167,0,1.900000,1.450000,0.000000,-0.00,-0.00,-0.001138,0.004000,0.000000,0.000000,0.000000,0.000000,0.000000,0.000000,0.002438,-0.001877,0.000026,0.000000,0.000000,0.000000,0.000000,819,819,819,819
8177,0,1.900000,1.450000,0.000000,-0.00,-0.00,-0.001237,0.004000,0.000000,0.000000,0.000000,0.000000,0.000000,0.000000,0.002437,-0.001878,0.000027,0.000000,0.000000,0.000000,0.000000,819,819,819,819
8188,0,1.900000,1.450000,0.000000,-0.00,-0.00,-0.001326,0.004000,0.000000,0.000000,0.000000,0.000000,0.000000,0.000000,0.002438,-0.001877,0.000029,0.000000,0.000000,0.000000,0.000000,819,819,819,819
8198,0,1.900000,1.450000,0.000000,-0.00,-0.00,-0.001408,0.004000,0.000000,0.000000,0.000000,0.000000,0.000000,0.000000,0.002438,-0.001880,0.000030,0.000000,0.000000,0.000000,0.000000,819,819,819,819
8208,0,1.900000,1.450000,0.000000,-0.00,-0.00,-0.001067,0.004000,0.000000,0.000000,0.000000,0.000000,0.000000,0.000000,0.002439,-0.001883,0.000027,0.000000,0.000000,0.000000,0.000000,819,819,819,819
8217,0,1.900000,1.450000,0.000000,-0.00,0.00,-0.000344,0.004000,0.000000,0.000000,0.000000,0.000000,0.000000,0.000000,0.002439,-0.001885,0.000020,0.000000,0.000000,0.000000,0.000000,819,819,819,819
8228,0,1.900000,1.450000,0.000000,-0.00,0.00,-0.000000,0.004000,0.000000,0.000000,0.000000,0.000000,0.000000,0.000000,0.002440,-0.001886,0.000016,0.000000,0.000000,0.000000,0.000000,819,819,819,819
8242,0,1.900000,1.450000,0.000000,-0.00,0.00,-0.000207,0.004000,0.000000,0.000000,0.000000,0.000000,0.000000,0.000000,0.002440,-0.001887,0.000018,0.000000,0.000000,0.000000,0.000000,819,819,819,819
8254,0,1.900000,1.450000,0.000000,-0.00,0.00,-0.000291,0.004000,0.000000,0.000000,0.000000,0.000000,0.000000,0.000000,0.002440,-0.001885,0.000019,0.000000,0.000000,0.000000,0.000000,819,819,819,819
8266,0,1.900000,1.450000,0.000000,-0.00,0.00,-0.000885,0.004000,0.000000,0.000000,0.000000,0.000000,0.000000,0.000000,0.002439,-0.001889,0.000026,0.000000,0.000000,0.000000,0.000000,819,819,819,819
8278,0,1.900000,1.450000,0.000000,-0.00,0.00,-0.000905,0.004000,0.000000,0.000000,0.000000,0.000000,0.000000,0.000000,0.002438,-0.001889,0.000026,0.000000,0.000000,0.000000,0.000000,819,819,819,819
8288,0,1.900000,1.450000,0.000000,-0.00,-0.00,-0.000819,0.004000,0.000000,0.000000,0.000000,0.000000,0.000000,0.000000,0.002437,-0.001884,0.000026,0.000000,0.000000,0.000000,0.000000,819,819,819,819
8298,0,1.900000,1.450000,0.000000,-0.00,-0.00,-0.000638,0.004000,0.000000,0.000000,0.000000,0.000000,0.000000,0.000000,0.002438,-0.001884,0.000024,0.000000,0.000000,0.000000,0.000000,819,819,819,819
8308,0,1.900000,1.450000,0.000000,-0.00,-0.00,-0.000370,0.004000,0.000000,0.000000,0.000000,0.000000,0.000000,0.000000,0.002436,-0.001882,0.000022,0.000000,0.000000,0.000000,0.000000,819,819,819,819
8318,0,1.900000,1.450000,0.000000,-0.00,-0.00,-0.000438,0.004000,0.000000,0.000000,0.000000,0.000000,0.000000,0.000000,0.002436,-0.001880,0.000023,0.000000,0.000000,0.000000,0.000000,819,819,819,819
8328,0,1.900000,1.450000,0.000000,-0.00,-0.00,-0.000397,0.004000,0.000000,0.000000,0.000000,0.000000,0.000000,0.000000,0.002436,-0.001880,0.000022,0.000000,0.000000,0.000000,0.000000,819,819,819,819
8338,0,1.900000,1.450000,0.000000,-0.00,-0.00,-0.000566,0.004000,0.000000,0.000000,0.000000,0.000000,0.000000,0.000000,0.002437,-0.001882,0.000024,0.000000,0.000000,0.000000,0.000000,819,819,819,819
8348,0,1.900000,1.450000,0.000000,-0.00,-0.00,-0.000720,0.004000,0.000000,0.000000,0.000000,0.000000,0.000000,0.000000,0.002438,-0.001881,0.000026,0.000000,0.000000,0.000000,0.000000,819,819,819,819
8358,0,1.900000,1.450000,0.000000,-0.00,-0.00,-0.000548,0.004000,0.000000,0.000000,0.000000,0.000000,0.000000,0.000000,0.002440,-0.001878,0.000025,0.000000,0.000000,0.000000,0.000000,819,819,819,819
8368,0,1.900000,1.450000,0.000000,0.00,-0.00,-0.000703,0.004000,0.000000,0.000000,0.000000,0.000000,0.000000,0.000000,0.002440,-0.001872,0.000026,0.000000,0.000000,0.000000,0.000000,819,819,819,819
8378,0,1.900000,1.450000,0.000000,0.00,-0.00,-0.000740,0.004000,0.000000,0.000000,0.000000,0.000000,0.000000,0.000000,0.002440,-0.001873,0.000027,0.000000,0.000000,0.000000,0.000000,819,819,819,819
8388,0,1.900000,1.450000,0.000000,0.00,-0.00,-0.000669,0.004000,0.000000,0.000000,0.000000,0.000000,0.000000,0.000000,0.002440,-0.001873,0.000027,0.000000,0.000000,0.000000,0.000000,819,819,819,819
8398,0,1.900000,1.450000,0.000000,-0.00,-0.00,-0.000606,0.004000,0.000000,0.000000,0.000000,0.000000,0.000000,0.000000,0.002439,-0.001877,0.000026,0.000000,0.000000,0.000000,0.000000,819,819,819,819
8408,0,1.900000,1.450000,0.000000,-0.00,-0.00,-0.000445,0.004000,0.000000,0.000000,0.000000,0.000000,0.000000,0.000000,0.002439,-0.001879,0.000025,0.000000,0.000000,0.000000,0.000000,819,819,819,819
8418,0,1.900000,1.450000,0.000000,-0.00,-0.00,-0.000299,0.004000,0.000000,0.000000,0.000000,0.000000,0.000000,0.000000,0.002439,-0.001879,0.000024,0.000000,0.000000,0.000000,0.000000,819,819,819,819
8428,0,1.900000,1.450000,0.000000,-0.00,-0.00,-0.000167,0.004000,0.000000,0.000000,0.000000,0.000000,0.000000,0.000000,0.002439,-0.001877,0.000022,0.000000,0.000000,0.000000,0.000000,819,819,819,819
8438,0,1.900000,1.450000,0.000000,-0.00,-0.00,-0.000047,0.004000,0.000000,0.000000,0.000000,0.000000,0.000000,0.000000,0.002437,-0.001874,0.000021,0.000000,0.000000,0.000000,0.000000,819,819,819,819
8448,0,1.900000,1.450000,0.000000,-0.00,-0.00,0.000164,0.004000,0.000000,0.000000,0.000000,0.000000,0.000000,0.000000,0.002437,-0.001872,0.000019,0.000000,0.000000,0.000000,0.000000,819,819,819,819
8458,0,1.900000,1.450000,0.000000,-0.00,-0.00,0.000460,0.004000,0.000000,0.000000,0.000000,0.000000,0.000000,0.000000,0.002437,-0.001873,0.000016,0.000000,0.000000,0.000000,0.000000,819,819,819,819
8468,0,1.900000,1.450000,0.000000,-0.00,-0.00,0.000520,0.004000,0.000000,0.000000,0.000000,0.000000,0.000000,0.000000,0.002436,-0.001873,0.000015,0.000000,0.000000,0.000000,0.000000,819,819,819,819
8478,0,1.900000,1.450000,0.000000,-0.00,-0.00,0.000367,0.004000,0.000000,0.000000,0.000000,0.000000,0.000000,0.000000,0.002437,-0.001876,0.000016,0.000000,0.000000,0.000000,0.000000,819,819,819,819
8488,0,1.900000,1.450000,0.000000,-0.00,-0.00,0.000125,0.004000,0.000000,0.000000,0.000000,0.000000,0.000000,0.000000,0.002438,-0.001874,0.000019,0.000000,0.000000,0.000000,0.000000,819,819,819,819
8498,0,1.900000,1.450000,0.000000,-0.00,-0.00,-0.000405,0.004000,0.000000,0.000000,0.000000,0.000000,0.000000,0.000000,0.002439,-0.001875,0.000024,0.000000,0.000000,0.000000,0.000000,819,819,819,819
8508,0,1.900000,1.450000,0.000000,-0.00,-0.00,-0.000678,0.004000,0.000000,0.000000,0.000000,0.000000,0.000000,0.000000,0.002437,-0.001878,0.000027,0.000000,0.000000,0.000000,0.000000,819,819,819,819
8518,0,1.900000,1.450000,0.000000,-0.00,-0.00,-0.000510,0.004000,0.000000,0.000000,0.000000,0.000000,0.000000,0.000000,0.002439,-0.001879,0.000026,0.000000,0.000000,0.000000,0.000000,819,819,819,819
8528,0,1.900000,1.450000,0.000000,-0.00,-0.00,-0.000254,0.004000,0.000000,0.000000,0.000000,0.000000,0.000000,0.000000,0.002438,-0.001878,0.000023,0.000000,0.000000,0.000000,0.000000,819,819,819,819
8538,0,1.900000,1.450000,0.000000,-0.00,-0.00,-0.000023,0.004000,0.000000,0.000000,0.000000,0.000000,0.000000,0.000000,0.002437,-0.001877,0.000021,0.000000,0.000000,0.000000,0.000000,819,819,819,819
8548,0,1.900000,1.450000,0.000000,-0.00,-0.00,0.000394,0.004000,0.000000,0.000000,0.000000,0.000000,0.000000,0.000000,0.002436,-0.001876,0.000016,0.000000,0.000000,0.000000,0.000000,819,819,819,819
8566,0,1.900000,1.450000,0.000000,-0.00,-0.00,0.000564,0.004000,0.000000,0.000000,0.000000,0.000000,0.000000,0.000000,0.002437,-0.001875,0.000014,0.000000,0.000000,0.000000,0.000000,819,819,819,819
8578,0,1.900000,1.450000,0.000000,-0.00,0.00,0.000303,0.004000,0.000000,0.000000,0.000000,0.000000,0.000000,0.000000,0.002436,-0.001881,0.000017,0.000000,0.000000,0.000000,0.000000,819,819,819,819
8589,0,1.900000,1.450000,0.000000,-0.00,0.00,-0.000140,0.004000,0.000000,0.000000,0.000000,0.000000,0.000000,0.000000,0.002436,-0.001881,0.000022,0.000000,0.000000,0.000000,0.000000,819,819,819,819
8599,0,1.900000,1.450000,0.000000,-0.00,0.00,-0.000541,0.004000,0.000000,0.000000,0.000000,0.000000,0.000000,0.000000,0.002437,-0.001881,0.000026,0.000000,0.000000,0.000000,0.000000,819,819,819,819
8609,0,1.900000,1.450000,0.000000,-0.00,-0.00,-0.000594,0.004000,0.000000,0.000000,0.000000,0.000000,0.000000,0.000000,0.002437,-0.001877,0.000027,0.000000,0.000000,0.000000,0.000000,819,819,819,819
8619,0,1.900000,1.450000,0.000000,-0.00,-0.00,-0.000226,0.004000,0.000000,0.000000,0.000000,0.000000,0.000000,0.000000,0.002437,-0.001875,0.000023,0.000000,0.000000,0.000000,0.000000,819,819,819,819
8629,0,1.900000,1.450000,0.000000,-0.00,-0.00,0.000210,0.004000,0.000000,0.000000,0.000000,0.000000,0.000000,0.000000,0.002436,-0.001870,0.000019,0.000000,0.000000,0.000000,0.000000,819,819,819,819
8639,0,1.900000,1.450000,0.000000,-0.00,-0.00,0.000397,0.004000,0.000000,0.000000,0.000000,0.000000,0.000000,0.000000,0.002434,-0.001871,0.000016,0.000000,0.000000,0.000000,0.000000,819,819,819,819
8649,0,1.900000,1.450000,0.000000,-0.00,-0.00,0.000670,0.004000,0.000000,0.000000,0.000000,0.000000,0.000000,0.000000,0.002433,-0.001873,0.000013,0.000000,0.000000,0.000000,0.000000,819,819,819,819
8659,0,1.900000,1.450000,0.000000,-0.00,-0.00,0.000606,0.004000,0.000000,0.000000,0.000000,0.000000,0.000000,0.000000,0.002433,-0.001876,0.000014,0.000000,0.000000,0.000000,0.000000,819,819,819,819
8669,0,1.900000,1.450000,0.000000,-0.00,-0.00,0.000342,0.004000,0.000000,0.000000,0.000000,0.000000,0.000000,0.000000,0.002433,-0.001878,0.000016,0.000000,0.000000,0.000000,0.000000,819,819,819,819
8679,0,1.900000,1.450000,0.000000,-0.00,-0.00,-0.000002,0.004000,0.000000,0.000000,0.000000,0.000000,0.000000,0.000000,0.002436,-0.001878,0.000020,0.000000,0.000000,0.000000,0.000000,819,819,819,819
8689,0,1.900000,1.450000,0.000000,-0.00,0.00,-0.000416,0.004000,0.000000,0.000000,0.000000,0.000000,0.000000,0.000000,0.002435,-0.001879,0.000024,0.000000,0.000000,0.000000,0.000000,819,819,819,819
8699,0,1.900000,1.450000,0.000000,-0.00,0.00,-0.000273,0.004000,0.000000,0.000000,0.000000,0.000000,0.000000,0.000000,0.002436,-0.001880,0.000023,0.000000,0.000000,0.000000,0.000000,819,819,819,819
8709,0,1.900000,1.450000,0.000000,-0.00,0.00,-0.000351,0.004000,0.000000,0.000000,0.000000,0.000000,0.000000,0.000000,0.002435,-0.001879,0.000024,0.000000,0.000000,0.000000,0.000000,819,819,819,819
8719,0,1.900000,1.450000,0.000000,-0.00,-0.00,0.000097,0.004000,0.000000,0.000000,0.000000,0.000000,0.000000,0.000000,0.002436,-0.001877,0.000019,0.000000,0.000000,0.000000,0.000000,819,819,819,819
8731,0,1.900000,1.450000,0.000000,-0.00,-0.00,0.000710,0.004000,0.000000,0.000000,0.000000,0.000000,0.000000,0.000000,0.002436,-0.001871,0.000013,0.000000,0.000000,0.000000,0.000000,819,819,819,819
8740,0,1.900000,1.450000,0.000000,-0.00,-0.00,0.000953,0.004000,0.000000,0.000000,0.000000,0.000000,0.000000,0.000000,0.002436,-0.001867,0.000010,0.000000,0.000000,0.000000,0.000000,819,819,819,819
8750,0,1.900000,1.450000,0.000000,-0.00,-0.00,0.001070,0.004000,0.000000,0.000000,0.000000,0.000000,0.000000,0.000000,0.002435,-0.001869,0.000008,0.000000,0.000000,0.000000,0.000000,819,819,819,819
8759,0,1.900000,1.450000,0.000000,-0.00,-0.00,0.000657,0.004000,0.000000,0.000000,0.000000,0.000000,0.000000,0.000000,0.002436,-0.001873,0.000012,0.000000,0.000000,0.000000,0.000000,819,819,819,819
8769,0,1.900000,1.450000,0.000000,-0.00,-0.00,0.000699,0.004000,0.000000,0.000000,0.000000,0.000000,0.000000,0.000000,0.002434,-0.001874,0.000011,0.000000,0.000000,0.000000,0.000000,819,819,819,819
8779,0,1.900000,1.450000,0.000000,-0.00,-0.00,0.000736,0.004000,0.000000,0.000000,0.000000,0.000000,0.000000,0.000000,0.002433,-0.001875,0.000011,0.000000,0.000000,0.000000,0.000000,819,819,819,819
8789,0,1.900000,1.450000,0.000000,-0.00,-0.00,0.000562,0.004000,0.000000,0.000000,0.000000,0.000000,0.000000,0.000000,0.002432,-0.001873,0.000012,0.000000,0.000000,0.000000,0.000000,819,819,819,819
8799,0,1.900000,1.450000,0.000000,-0.00,-0.00,0.000820,0.004000,0.000000,0.000000,0.000000,0.000000,0.000000,0.000000,0.002432,-0.001872,0.000009,0.000000,0.000000,0.000000,0.000000,819,819,819,819
8809,0,1.900000,1.450000,0.000000,-0.00,-0.00,0.000846,0.004000,0.000000,0.000000,0.000000,0.000000,0.000000,0.000000,0.002433,-0.001870,0.000008,0.000000,0.000000,0.000000,0.000000,819,819,819,819
8819,0,1.900000,1.450000,0.000000,-0.00,-0.00,0.001387,0.004000,0.000000,0.000000,0.000000,0.000000,0.000000,0.000000,0.002434,-0.001868,0.000002,0.000000,0.000000,0.000000,0.000000,819,819,819,819
8829,0,1.900000,1.450000,0.000000,-0.00,-0.00,0.001566,0.004000,0.000000,0.000000,0.000000,0.000000,0.000000,0.000000,0.002433,-0.001871,-0.000000,0.000000,0.000000,0.000000,0.000000,819,819,819,819
8839,0,1.900000,1.450000,0.000000,-0.00,-0.00,0.001625,0.004000,0.000000,0.000000,0.000000,0.000000,0.000000,0.000000,0.002431,-0.001874,-0.000002,0.000000,0.000000,0.000000,0.000000,819,819,819,819
8849,0,1.900000,1.450000,0.000000,-0.00,0.00,0.001367,0.004000,0.000000,0.000000,0.000000,0.000000,0.000000,0.000000,0.002429,-0.001877,0.000000,0.000000,0.000000,0.000000,0.000000,819,819,819,819
8859,0,1.900000,1.450000,0.000000,-0.00,0.00,0.000615,0.004000,0.000000,0.000000,0.000000,0.000000,0.000000,0.000000,0.002428,-0.001878,0.000008,0.000000,0.000000,0.000000,0.000000,819,819,819,819
8876,0,1.900000,1.450000,0.000000,-0.00,0.00,0.000246,0.004000,0.000000,0.000000,0.000000,0.000000,0.000000,0.000000,0.002429,-0.001877,0.000012,0.000000,0.000000,0.000000,0.000000,819,819,819,819
8888,0,1.900000,1.450000,0.000000,-0.00,-0.00,0.000015,0.004000,0.000000,0.000000,0.000000,0.000000,0.000000,0.000000,0.002429,-0.001874,0.000014,0.000000,0.000000,0.000000,0.000000,819,819,819,819
8899,0,1.900000,1.450000,0.000000,-0.00,-0.00,0.000428,0.004000,0.000000,0.000000,0.000000,0.000000,0.000000,0.000000,0.002430,-0.001873,0.000010,0.000000,0.000000,0.000000,0.000000,819,819,819,819
8909,0,1.900000,1.450000,0.000000,-0.00,0.00,0.000698,0.004000,0.000000,0.000000,0.000000,0.000000,0.000000,0.000000,0.002429,-0.001877,0.000006,0.000000,0.000000,0.000000,0.000000,819,819,819,819
8919,0,1.900000,1.450000,0.000000,-0.00,0.00,0.000736,0.004000,0.000000,0.000000,0.000000,0.000000,0.000000,0.000000,0.002429,-0.001877,0.000006,0.000000,0.000000,0.000000,0.000000,819,819,819,819
8929,0,1.900000,1.450000,0.000000,-0.00,0.00,0.000666,0.004000,0.000000,0.000000,0.000000,0.000000,0.000000,0.000000,0.002429,-0.001882,0.000006,0.000000,0.000000,0.000000,0.000000,819,819,819,819
8940,0,1.900000,1.450000,0.000000,-0.00,0.00,0.000084,0.004000,0.000000,0.000000,0.000000,0.000000,0.000000,0.000000,0.002428,-0.001879,0.000012,0.000000,0.000000,0.000000,0.000000,819,819,819,819
8949,0,1.900000,1.450000,0.000000,-0.00,0.00,-0.000338,0.004000,0.000000,0.000000,0.000000,0.000000,0.000000,0.000000,0.002427,-0.001879,0.000017,0.000000,0.000000,0.000000,0.000000,819,819,819,819
8959,0,1.900000,1.450000,0.000000,-0.00,-0.00,-0.000617,0.004000,0.000000,0.000000,0.000000,0.000000,0.000000,0.000000,0.002427,-0.001874,0.000020,0.000000,0.000000,0.000000,0.000000,819,819,819,819
8969,0,1.900000,1.450000,0.000000,-0.00,-0.00,-0.000247,0.004000,0.000000,0.000000,0.000000,0.000000,0.000000,0.000000,0.002428,-0.001868,0.000016,0.000000,0.000000,0.000000,0.000000,819,819,819,819
8979,0,1.900000,1.450000,0.000000,-0.00,-0.00,-0.000017,0.004000,0.000000,0.000000,0.000000,0.000000,0.000000,0.000000,0.002427,-0.001868,0.000014,0.000000,0.000000,0.000000,0.000000,819,819,819,819
8990,0,1.900000,1.450000,0.000000,-0.00,-0.00,0.000503,0.004000,0.000000,0.000000,0.000000,0.000000,0.000000,0.000000,0.002429,-0.001869,0.000008,0.000000,0.000000,0.000000,0.000000,819,819,819,819
9000,0,1.900000,1.450000,0.000000,-0.00,-0.00,0.000663,0.004000,0.000000,0.000000,0.000000,0.000000,0.000000,0.000000,0.002428,-0.001871,0.000006,0.000000,0.000000,0.000000,0.000000,819,819,819,819
9010,0,1.900000,1.450000,0.000000,-0.00,-0.00,0.000600,0.004000,0.000000,0.000000,0.000000,0.000000,0.000000,0.000000,0.002427,-0.001873,0.000007,0.000000,0.000000,0.000000,0.000000,819,819,819,819
9019,0,1.900000,1.450000,0.000000,-0.00,-0.00,-0.000286,0.004000,0.000000,0.000000,0.000000,0.000000,0.000000,0.000000,0.002425,-0.001874,0.000016,0.000000,0.000000,0.000000,0.000000,819,819,819,819
9030,0,1.900000,1.450000,0.000000,-0.00,-0.00,-0.000570,0.004000,0.000000,0.000000,0.000000,0.000000,0.000000,0.000000,0.002424,-0.001872,0.000019,0.000000,0.000000,0.000000,0.000000,819,819,819,819
9040,0,1.900000,1.450000,0.000000,-0.00,-0.00,-0.000620,0.004000,0.000000,0.000000,0.000000,0.000000,0.000000,0.000000,0.002423,-0.001864,0.000020,0.000000,0.000000,0.000000,0.000000,819,819,819,819
9050,0,1.900000,1.450000,0.000000,-0.00,-0.00,-0.000457,0.004000,0.000000,0.000000,0.000000,0.000000,0.000000,0.000000,0.002423,-0.001857,0.000018,0.000000,0.000000,0.000000,0.000000,819,819,819,819
9060,0,1.900000,1.450000,0.000000,-0.00,-0.00,-0.000103,0.004000,0.000000,0.000000,0.000000,0.000000,0.000000,0.000000,0.002424,-0.001859,0.000015,0.000000,0.000000,0.000000,0.000000,819,819,819,819
9070,0,1.900000,1.450000,0.000000,-0.00,-0.00,0.000218,0.004000,0.000000,0.000000,0.000000,0.000000,0.000000,0.000000,0.002424,-0.001864,0.000011,0.000000,0.000000,0.000000,0.000000,819,819,819,819
9080,0,1.900000,1.450000,0.000000,-0.00,-0.00,0.000404,0.004000,0.000000,0.000000,0.000000,0.000000,0.000000,0.000000,0.002425,-0.001871,0.000009,0.000000,0.000000,0.000000,0.000000,819,819,819,819
9090,0,1.900000,1.450000,0.000000,-0.00,0.00,0.000159,0.004000,0.000000,0.000000,0.000000,0.000000,0.000000,0.000000,0.002423,-0.001874,0.000012,0.000000,0.000000,0.000000,0.000000,819,819,819,819
9100,0,1.900000,1.450000,0.000000,-0.00,-0.00,-0.000271,0.004000,0.000000,0.000000,0.000000,0.000000,0.000000,0.000000,0.002424,-0.001873,0.000016,0.000000,0.000000,0.000000,0.000000,819,819,819,819
9110,0,1.900000,1.450000,0.000000,-0.00,-0.00,-0.000763,0.004000,0.000000,0.000000,0.000000,0.000000,0.000000,0.000000,0.002425,-0.001870,0.000022,0.000000,0.000000,0.000000,0.000000,819,819,819,819
9120,0,1.900000,1.450000,0.000000,-0.00,-0.00,-0.000691,0.004000,0.000000,0.000000,0.000000,0.000000,0.000000,0.000000,0.002426,-0.001867,0.000021,0.000000,0.000000,0.000000,0.000000,819,819,819,819
9130,0,1.900000,1.450000,0.000000,-0.00,-0.00,-0.000418,0.004000,0.000000,0.000000,0.000000,0.000000,0.000000,0.000000,0.002426,-0.001864,0.000018,0.000000,0.000000,0.000000,0.000000,819,819,819,819
9140,0,1.900000,1.450000,0.000000,-0.00,-0.00,0.000036,0.004000,0.000000,0.000000,0.000000,0.000000,0.000000,0.000000,0.002427,-0.001865,0.000014,0.000000,0.000000,0.000000,0.000000,819,819,819,819
9150,0,1.900000,1.450000,0.000000,-0.00,-0.00,0.000447,0.004000,0.000000,0.000000,0.000000,0.000000,0.000000,0.000000,0.002426,-0.001868,0.000009,0.000000,0.000000,0.000000,0.000000,819,819,819,819
9160,0,1.900000,1.450000,0.000000,-0.00,0.00,0.000301,0.004000,0.000000,0.000000,0.000000,0.000000,0.000000,0.000000,0.002426,-0.001872,0.000011,0.000000,0.000000,0.000000,0.000000,819,819,819,819
9170,0,1.900000,1.450000,0.000000,-0.00,0.00,-0.000349,0.004000,0.000000,0.000000,0.000000,0.000000,0.000000,0.000000,0.002426,-0.001873,0.000018,0.000000,0.000000,0.000000,0.000000,819,819,819,819
9180,0,1.900000,1.450000,0.000000,-0.00,0.00,-0.001041,0.004000,0.000000,0.000000,0.000000,0.000000,0.000000,0.000000,0.002427,-0.001874,0.000025,0.000000,0.000000,0.000000,0.000000,819,819,819,819
9195,0,1.900000,1.450000,0.000000,-0.00,0.00,-0.001253,0.004000,0.000000,0.000000,0.000000,0.000000,0.000000,0.000000,0.002426,-0.001874,0.000028,0.000000,0.000000,0.000000,0.000000,819,819,819,819
9207,0,1.900000,1.450000,0.000000,-0.00,-0.00,-0.001134,0.004000,0.000000,0.000000,0.000000,0.000000,0.000000,0.000000,0.002425,-0.001871,0.000027,0.000000,0.000000,0.000000,0.000000,819,819,819,819
9219,0,1.900000,1.450000,0.000000,-0.00,0.00,-0.000716,0.004000,0.000000,0.000000,0.000000,0.000000,0.000000,0.000000,0.002424,-0.001873,0.000023,0.000000,0.000000,0.000000,0.000000,819,819,819,819
9231,0,1.900000,1.450000,0.000000,-0.00,-0.00,-0.000129,0.004000,0.000000,0.000000,0.000000,0.000000,0.000000,0.000000,0.002425,-0.001870,0.000017,0.000000,0.000000,0.000000,0.000000,819,819,819,819
9241,0,1.900000,1.450000,0.000000,-0.00,-0.00,-0.000117,0.004000,0.000000,0.000000,0.000000,0.000000,0.000000,0.000000,0.002423,-0.001868,0.000017,0.000000,0.000000,0.000000,0.000000,819,819,819,819
9251,0,1.900000,1.450000,0.000000,-0.00,-0.00,-0.000313,0.004000,0.000000,0.000000,0.000000,0.000000,0.000000,0.000000,0.002422,-0.001862,0.000019,0.000000,0.000000,0.000000,0.000000,819,819,819,819
9261,0,1.900000,1.450000,0.000000,-0.00,-0.00,-0.000698,0.004000,0.000000,0.000000,0.000000,0.000000,0.000000,0.000000,0.002423,-0.001863,0.000024,0.000000,0.000000,0.000000,0.000000,819,819,819,819
9270,0,1.900000,1.450000,0.000000,-0.00,-0.00,-0.001150,0.004000,0.000000,0.000000,0.000000,0.000000,0.000000,0.000000,0.002423,-0.001865,0.000029,0.000000,0.000000,0.000000,0.000000,819,819,819,819
9280,0,1.900000,1.450000,0.000000,-0.00,-0.00,-0.001455,0.004000,0.000000,0.000000,0.000000,0.000000,0.000000,0.000000,0.002422,-0.001869,0.000033,0.000000,0.000000,0.000000,0.000000,819,819,819,819
9291,0,1.900000,1.450000,0.000000,-0.00,-0.00,-0.001317,0.004000,0.000000,0.000000,0.000000,0.000000,0.000000,0.000000,0.002421,-0.001867,0.000032,0.000000,0.000000,0.000000,0.000000,819,819,819,819
9300,0,1.900000,1.450000,0.000000,-0.00,-0.00,-0.000881,0.004000,0.000000,0.000000,0.000000,0.000000,0.000000,0.000000,0.002421,-0.001866,0.000028,0.000000,0.000000,0.000000,0.000000,819,819,819,819
9310,0,1.900000,1.450000,0.000000,-0.00,-0.00,-0.000694,0.004000,0.000000,0.000000,0.000000,0.000000,0.000000,0.000000,0.002421,-0.001868,0.000026,0.000000,0.000000,0.000000,0.000000,819,819,819,819
9320,0,1.900000,1.450000,0.000000,-0.00,-0.00,-0.000420,0.004000,0.000000,0.000000,0.000000,0.000000,0.000000,0.000000,0.002421,-0.001869,0.000024,0.000000,0.000000,0.000000,0.000000,819,819,819,819
9330,0,1.900000,1.450000,0.000000,-0.00,0.00,-0.000277,0.004000,0.000000,0.000000,0.000000,0.000000,0.000000,0.000000,0.002422,-0.001870,0.000022,0.000000,0.000000,0.000000,0.000000,819,819,819,819
9340,0,1.900000,1.450000,0.000000,-0.00,0.00,-0.000251,0.004000,0.000000,0.000000,0.000000,0.000000,0.000000,0.000000,0.002422,-0.001870,0.000022,0.000000,0.000000,0.000000,0.000000,819,819,819,819
9350,0,1.900000,1.450000,0.000000,-0.00,0.00,-0.000434,0.004000,0.000000,0.000000,0.000000,0.000000,0.000000,0.000000,0.002420,-0.001872,0.000024,0.000000,0.000000,0.000000,0.000000,819,819,819,819
9361,0,1.900000,1.450000,0.000000,-0.00,0.00,-0.000911,0.004000,0.000000,0.000000,0.000000,0.000000,0.000000,0.000000,0.002419,-0.001873,0.000029,0.000000,0.000000,0.000000,0.000000,819,819,819,819
9370,0,1.900000,1.450000,0.000000,-0.00,0.00,-0.001239,0.004000,0.000000,0.000000,0.000000,0.000000,0.000000,0.000000,0.002419,-0.001872,0.000033,0.000000,0.000000,0.000000,0.000000,819,819,819,819
9380,0,1.900000,1.450000,0.000000,-0.00,0.00,-0.001328,0.004000,0.000000,0.000000,0.000000,0.000000,0.000000,0.000000,0.002419,-0.001871,0.000035,0.000000,0.000000,0.000000,0.000000,819,819,819,819
9391,0,1.900000,1.450000,0.000000,-0.00,-0.00,-0.001099,0.004000,0.000000,0.000000,0.000000,0.000000,0.000000,0.000000,0.002417,-0.001869,0.000033,0.000000,0.000000,0.000000,0.000000,819,819,819,819
9401,0,1.900000,1.450000,0.000000,-0.00,-0.00,-0.000891,0.004000,0.000000,0.000000,0.000000,0.000000,0.000000,0.000000,0.002415,-0.001868,0.000031,0.000000,0.000000,0.000000,0.000000,819,819,819,819
9411,0,1.900000,1.450000,0.000000,-0.00,-0.00,-0.000806,0.004000,0.000000,0.000000,0.000000,0.000000,0.000000,0.000000,0.002416,-0.001864,0.000031,0.000000,0.000000,0.000000,0.000000,819,819,819,819
9421,0,1.900000,1.450000,0.000000,-0.00,-0.00,-0.000315,0.004000,0.000000,0.000000,0.000000,0.000000,0.000000,0.000000,0.002415,-0.001862,0.000026,0.000000,0.000000,0.000000,0.000000,819,819,819,819
9431,0,1.900000,1.450000,0.000000,-0.00,-0.00,-0.000078,0.004000,0.000000,0.000000,0.000000,0.000000,0.000000,0.000000,0.002415,-0.001863,0.000024,0.000000,0.000000,0.000000,0.000000,819,819,819,819
9441,0,1.900000,1.450000,0.000000,-0.00,-0.00,-0.000174,0.004000,0.000000,0.000000,0.000000,0.000000,0.000000,0.000000,0.002416,-0.001866,0.000025,0.000000,0.000000,0.000000,0.000000,819,819,819,819
9451,0,1.900000,1.450000,0.000000,-0.00,-0.00,-0.000365,0.004000,0.000000,0.000000,0.000000,0.000000,0.000000,0.000000,0.002415,-0.001865,0.000027,0.000000,0.000000,0.000000,0.000000,819,819,819,819
9461,0,1.900000,1.450000,0.000000,-0.00,-0.00,-0.000537,0.004000,0.000000,0.000000,0.000000,0.000000,0.000000,0.000000,0.002414,-0.001862,0.000029,0.000000,0.000000,0.000000,0.000000,819,819,819,819
9471,0,1.900000,1.450000,0.000000,-0.00,-0.00,-0.000901,0.004000,0.000000,0.000000,0.000000,0.000000,0.000000,0.000000,0.002412,-0.001860,0.000033,0.000000,0.000000,0.000000,0.000000,819,819,819,819
9481,0,1.900000,1.450000,0.000000,-0.00,-0.00,-0.000815,0.004000,0.000000,0.000000,0.000000,0.000000,0.000000,0.000000,0.002413,-0.001862,0.000032,0.000000,0.000000,0.000000,0.000000,819,819,819,819
9491,0,1.900000,1.450000,0.000000,-0.00,-0.00,-0.000738,0.004000,0.000000,0.000000,0.000000,0.000000,0.000000,0.000000,0.002413,-0.001864,0.000032,0.000000,0.000000,0.000000,0.000000,819,819,819,819
9501,0,1.900000,1.450000,0.000000,-0.00,-0.00,-0.000150,0.004000,0.000000,0.000000,0.000000,0.000000,0.000000,0.000000,0.002413,-0.001864,0.000026,0.000000,0.000000,0.000000,0.000000,819,819,819,819
9518,0,1.900000,1.450000,0.000000,-0.00,-0.00,0.000072,0.004000,0.000000,0.000000,0.000000,0.000000,0.000000,0.000000,0.002414,-0.001866,0.000024,0.000000,0.000000,0.000000,0.000000,819,819,819,819
9530,0,1.900000,1.450000,0.000000,-0.00,-0.00,0.000272,0.004000,0.000000,0.000000,0.000000,0.000000,0.000000,0.000000,0.002414,-0.001865,0.000022,0.000000,0.000000,0.000000,0.000000,819,819,819,819
9541,0,1.900000,1.450000,0.000000,-0.00,0.00,-0.000272,0.004000,0.000000,0.000000,0.000000,0.000000,0.000000,0.000000,0.002414,-0.001868,0.000027,0.000000,0.000000,0.000000,0.000000,819,819,819,819
9551,0,1.900000,1.450000,0.000000,-0.00,-0.00,-0.000764,0.004000,0.000000,0.000000,0.000000,0.000000,0.000000,0.000000,0.002416,-0.001866,0.000033,0.000000,0.000000,0.000000,0.000000,819,819,819,819
9561,0,1.900000,1.450000,0.000000,-0.00,-0.00,-0.001002,0.004000,0.000000,0.000000,0.000000,0.000000,0.000000,0.000000,0.002416,-0.001866,0.000036,0.000000,0.000000,0.000000,0.000000,819,819,819,819
9571,0,1.900000,1.450000,0.000000,-0.00,-0.00,-0.001011,0.004000,0.000000,0.000000,0.000000,0.000000,0.000000,0.000000,0.002417,-0.001865,0.000036,0.000000,0.000000,0.000000,0.000000,819,819,819,819
9583,0,1.900000,1.450000,0.000000,-0.00,-0.00,-0.000500,0.004000,0.000000,0.000000,0.000000,0.000000,0.000000,0.000000,0.002417,-0.001863,0.000031,0.000000,0.000000,0.000000,0.000000,819,819,819,819
9592,0,1.900000,1.450000,0.000000,-0.00,-0.00,-0.000142,0.004000,0.000000,0.000000,0.000000,0.000000,0.000000,0.000000,0.002416,-0.001861,0.000028,0.000000,0.000000,0.000000,0.000000,819,819,819,819
9602,0,1.900000,1.450000,0.000000,-0.00,-0.00,0.000183,0.004000,0.000000,0.000000,0.000000,0.000000,0.000000,0.000000,0.002416,-0.001861,0.000024,0.000000,0.000000,0.000000,0.000000,819,819,819,819
9612,0,1.900000,1.450000,0.000000,-0.00,-0.00,0.000372,0.004000,0.000000,0.000000,0.000000,0.000000,0.000000,0.000000,0.002416,-0.001866,0.000022,0.000000,0.000000,0.000000,0.000000,819,819,819,819
9621,0,1.900000,1.450000,0.000000,-0.00,0.00,0.000441,0.004000,0.000000,0.000000,0.000000,0.000000,0.000000,0.000000,0.002413,-0.001867,0.000021,0.000000,0.000000,0.000000,0.000000,819,819,819,819
9631,0,1.900000,1.450000,0.000000,-0.00,-0.00,-0.000016,0.004000,0.000000,0.000000,0.000000,0.000000,0.000000,0.000000,0.002412,-0.001865,0.000026,0.000000,0.000000,0.000000,0.000000,819,819,819,819
9641,0,1.900000,1.450000,0.000000,-0.00,-0.00,-0.000532,0.005000,0.000000,0.000000,0.000000,0.000000,0.000000,0.000000,0.002412,-0.001862,0.000031,0.000000,0.000000,0.000000,0.000000,819,819,819,819
9651,0,1.900000,1.450000,0.000000,-0.00,-0.00,-0.000896,0.005000,0.000000,0.000000,0.000000,0.000000,0.000000,0.000000,0.002409,-0.001861,0.000036,0.000000,0.000000,0.000000,0.000000,819,819,819,819
9661,0,1.900000,1.450000,0.000000,-0.00,-0.00,-0.001018,0.005000,0.000000,0.000000,0.000000,0.000000,0.000000,0.000000,0.002409,-0.001859,0.000037,0.000000,0.000000,0.000000,0.000000,819,819,819,819
9671,0,1.900000,1.450000,0.000000,-0.00,-0.00,-0.000922,0.005000,0.000000,0.000000,0.000000,0.000000,0.000000,0.000000,0.002409,-0.001860,0.000037,0.000000,0.000000,0.000000,0.000000,819,819,819,819
9681,0,1.900000,1.450000,0.000000,-0.00,-0.00,-0.000627,0.005000,0.000000,0.000000,0.000000,0.000000,0.000000,0.000000,0.002408,-0.001861,0.000034,0.000000,0.000000,0.000000,0.000000,819,819,819,819
9691,0,1.900000,1.450000,0.000000,-0.00,-0.00,-0.000464,0.005000,0.000000,0.000000,0.000000,0.000000,0.000000,0.000000,0.002408,-0.001861,0.000033,0.000000,0.000000,0.000000,0.000000,819,819,819,819
9701,0,1.900000,1.450000,0.000000,-0.00,-0.00,-0.000627,0.005000,0.000000,0.000000,0.000000,0.000000,0.000000,0.000000,0.002408,-0.001858,0.000035,0.000000,0.000000,0.000000,0.000000,819,819,819,819
9711,0,1.900000,1.450000,0.000000,-0.00,-0.00,-0.000671,0.005000,0.000000,0.000000,0.000000,0.000000,0.000000,0.000000,0.002410,-0.001857,0.000035,0.000000,0.000000,0.000000,0.000000,819,819,819,819
9721,0,1.900000,1.450000,0.000000,-0.00,-0.00,-0.000918,0.005000,0.000000,0.000000,0.000000,0.000000,0.000000,0.000000,0.002409,-0.001859,0.000038,0.000000,0.000000,0.000000,0.000000,819,819,819,819
9731,0,1.900000,1.450000,0.000000,-0.00,-0.00,-0.001038,0.005000,0.000000,0.000000,0.000000,0.000000,0.000000,0.000000,0.002409,-0.001858,0.000040,0.000000,0.000000,0.000000,0.000000,819,819,819,819
9742,0,1.900000,1.450000,0.000000,-0.00,-0.00,-0.001043,0.006000,0.000000,0.000000,0.000000,0.000000,0.000000,0.000000,0.002410,-0.001860,0.000041,0.000000,0.000000,0.000000,0.000000,819,819,819,819
9751,0,1.900000,1.450000,0.000000,-0.00,-0.00,-0.001255,0.006000,0.000000,0.000000,0.000000,0.000000,0.000000,0.000000,0.002408,-0.001859,0.000043,0.000000,0.000000,0.000000,0.000000,819,819,819,819
9761,0,1.900000,1.450000,0.000000,-0.00,-0.00,-0.001447,0.006000,0.000000,0.000000,0.000000,0.000000,0.000000,0.000000,0.002408,-0.001860,0.000046,0.000000,0.000000,0.000000,0.000000,819,819,819,819
9771,0,1.900000,1.450000,0.000000,-0.00,-0.00,-0.001516,0.006000,0.000000,0.000000,0.000000,0.000000,0.000000,0.000000,0.002407,-0.001860,0.000047,0.000000,0.000000,0.000000,0.000000,819,819,819,819
9781,0,1.900000,1.450000,0.000000,-0.00,-0.00,-0.001476,0.006000,0.000000,0.000000,0.000000,0.000000,0.000000,0.000000,0.002409,-0.001861,0.000048,0.000000,0.000000,0.000000,0.000000,819,819,819,819
9792,0,1.900000,1.450000,0.000000,-0.00,-0.00,-0.001232,0.006000,0.000000,0.000000,0.000000,0.000000,0.000000,0.000000,0.002409,-0.001861,0.000046,0.000000,0.000000,0.000000,0.000000,819,819,819,819
9801,0,1.900000,1.450000,0.000000,-0.00,-0.00,-0.001219,0.006000,0.000000,0.000000,0.000000,0.000000,0.000000,0.000000,0.002410,-0.001861,0.000046,0.000000,0.000000,0.000000,0.000000,819,819,819,819
9811,0,1.900000,1.450000,0.000000,-0.00,-0.00,-0.000999,0.006000,0.000000,0.000000,0.000000,0.000000,0.000000,0.000000,0.002411,-0.001861,0.000045,0.000000,0.000000,0.000000,0.000000,819,819,819,819
9829,0,1.900000,1.450000,0.000000,-0.00,-0.00,-0.001008,0.006000,0.000000,0.000000,0.000000,0.000000,0.000000,0.000000,0.002409,-0.001858,0.000045,0.000000,0.000000,0.000000,0.000000,819,819,819,819
9841,0,1.900000,1.450000,0.000000,-0.00,-0.00,-0.001223,0.006000,0.000000,0.000000,0.000000,0.000000,0.000000,0.000000,0.002410,-0.001857,0.000048,0.000000,0.000000,0.000000,0.000000,819,819,819,819
9851,0,1.900000,1.450000,0.000000,-0.00,-0.00,-0.001211,0.006000,0.000000,0.000000,0.000000,0.000000,0.000000,0.000000,0.002409,-0.001854,0.000048,0.000000,0.000000,0.000000,0.000000,819,819,819,819
9862,0,1.900000,1.450000,0.000000,-0.00,-0.00,-0.000992,0.006000,0.000000,0.000000,0.000000,0.000000,0.000000,0.000000,0.002409,-0.001856,0.000047,0.000000,0.000000,0.000000,0.000000,819,819,819,819
9872,0,1.900000,1.450000,0.000000,0.00,-0.00,-0.000898,0.006000,0.000000,0.000000,0.000000,0.000000,0.000000,0.000000,0.002412,-0.001856,0.000046,0.000000,0.000000,0.000000,0.000000,819,819,819,819
9882,0,1.900000,1.450000,0.000000,0.00,-0.00,-0.000709,0.009000,0.000000,0.000000,0.000000,0.000000,0.000000,0.000000,0.002414,-0.001855,0.000045,0.000000,0.000000,0.000000,0.000000,819,819,819,819
9892,0,1.900000,1.450000,0.000000,0.00,-0.00,-0.000538,0.009000,0.000000,0.000000,0.000000,0.000000,0.000000,0.000000,0.002415,-0.001855,0.000043,0.000000,0.000000,0.000000,0.000000,819,819,819,819
9902,0,1.900000,1.450000,0.000000,0.00,-0.00,-0.000279,0.039000,0.000000,0.000000,0.000000,0.000000,0.000000,0.000000,0.002416,-0.001854,0.000041,0.034771,0.038397,0.039521,0.043310,1000,1000,1000,1000
9912,0,1.900000,1.450000,0.000000,0.00,-0.00,-0.000149,0.039000,0.000000,0.000000,0.000000,0.000000,0.000000,0.000000,0.002417,-0.001852,0.000039,0.034770,0.038395,0.039526,0.043309,1000,1000,1000,1000
9922,0,1.900000,1.450000,0.000000,0.00,-0.00,-0.000031,0.064000,0.000000,0.000000,0.000000,0.000000,0.000000,0.000000,0.002417,-0.001855,0.000038,0.059766,0.063399,0.064524,0.068310,1000,1000,1000,1000
9932,0,1.900000,1.450000,0.000000,0.00,-0.00,0.000075,0.064000,0.000000,0.000000,0.000000,0.000000,0.000000,0.000000,0.002418,-0.001856,0.000037,0.059763,0.063401,0.064525,0.068311,1000,1000,1000,1000
9942,0,1.900000,1.450000,0.000000,0.00,-0.00,0.000068,0.078000,0.000000,0.000000,0.000000,0.000000,0.000000,0.000000,0.002417,-0.001854,0.000037,0.073766,0.077400,0.078526,0.082308,1000,1000,1000,1000
9952,0,1.900000,1.450000,0.000000,0.00,-0.00,0.000062,0.082000,0.000000,0.000000,0.000000,0.000000,0.000000,0.000000,0.002418,-0.001851,0.000037,0.077768,0.081395,0.082530,0.086307,1000,1000,1000,1000
9962,0,1.900000,1.450000,0.000000,0.00,-0.00,0.000263,0.082000,0.000000,0.000000,0.000000,0.000000,0.000000,0.000000,0.002422,-0.001853,0.000035,0.077761,0.081396,0.082534,0.086309,1000,1000,1000,1000
9972,0,1.900000,1.450000,0.000000,0.00,-0.00,0.000860,0.102000,0.000000,0.000000,0.000000,0.000000,0.000000,0.000000,0.002418,-0.001846,0.000028,0.097764,0.101400,0.102543,0.106293,1000,1000,1000,1000
9982,0,1.887500,1.450000,0.000000,-0.00,-0.00,0.004820,0.106000,0.000000,0.000000,0.000000,0.000000,0.000000,0.000000,0.002337,-0.001850,-0.000014,0.101798,0.105527,0.106501,0.110173,1000,1000,1000,1000
9992,0,1.877500,1.450000,0.000000,-0.02,-0.00,0.011719,0.106000,0.000000,0.000000,0.000000,0.000000,0.000000,0.000000,0.002240,-0.001852,-0.000091,0.101818,0.105702,0.106479,0.110001,1000,1000,1000,1000
10002,0,1.857000,1.450000,0.012500,-0.03,-0.00,0.012990,0.106000,0.000000,0.000000,0.000000,0.000000,0.000000,0.000000,0.002112,-0.001842,-0.000110,0.101936,0.105840,0.106380,0.109844,1000,1000,1000,1000
10012,0,1.840600,1.450000,0.022500,-0.04,-0.00,0.011548,0.113000,0.000000,0.000000,0.000000,0.000000,0.000000,0.000000,0.002033,-0.001834,-0.000101,0.109032,0.112902,0.113300,0.116766,1000,1000,1000,1000
10022,0,1.827480,1.450000,0.030500,-0.04,-0.00,0.010451,0.113000,0.000000,0.000000,0.000000,0.000000,0.000000,0.000000,0.001989,-0.001818,-0.000095,0.109098,0.112924,0.113267,0.116712,1000,1000,1000,1000
10032,0,1.816984,1.450000,0.036900,-0.04,-0.00,0.008318,0.113000,0.000000,0.000000,0.000000,0.000000,0.000000,0.000000,0.001964,-0.001816,-0.000078,0.109142,0.112930,0.113225,0.116703,1000,1000,1000,1000
10042,0,1.821087,1.450000,0.054520,-0.04,-0.00,0.005766,0.115000,0.000000,0.000000,0.000000,0.000000,0.000000,0.000000,0.001988,-0.001839,-0.000054,0.111118,0.114906,0.115203,0.118773,1000,1000,1000,1000
10052,0,1.824370,1.450000,0.068616,-0.03,0.00,0.004079,0.115000,0.000000,0.000000,0.000000,0.000000,0.000000,0.000000,0.001997,-0.001854,-0.000039,0.111109,0.114897,0.115182,0.118812,1000,1000,1000,1000
10062,0,1.826996,1.450000,0.079893,-0.03,0.00,0.003691,0.115000,0.000000,0.000000,0.000000,0.000000,0.000000,0.000000,0.002001,-0.001865,-0.000037,0.111097,0.114902,0.115172,0.118829,1000,1000,1000,1000
10072,0,1.816597,1.437500,0.088914,-0.04,-0.00,0.003859,0.115000,0.000000,0.000000,0.000000,0.000000,0.000000,0.000000,0.001929,-0.001801,-0.000041,0.111229,0.114912,0.115169,0.118690,1000,1000,1000,1000
10082,0,1.808277,1.427500,0.108631,-0.05,-0.00,0.004736,0.114000,0.000000,0.000000,0.000000,0.000000,0.000000,0.000000,0.001838,-0.001759,-0.000052,0.110351,0.113973,0.114131,0.117545,1000,1000,1000,1000
10093,0,1.789122,1.419500,0.136905,-0.06,-0.00,0.008949,0.114000,0.000000,0.000000,0.000000,0.000000,0.000000,0.000000,0.001673,-0.001745,-0.000100,0.110482,0.114172,0.114028,0.117318,1000,1000,1000,1000
10102,0,1.773798,1.413100,0.184524,-0.08,-0.01,0.014731,0.114000,0.000000,0.000000,0.000000,0.000000,0.000000,0.000000,0.001493,-0.001734,-0.000166,0.110606,0.114407,0.113925,0.117062,1000,1000,1000,1000
10112,0,1.761538,1.407980,0.235119,-0.09,-0.01,0.017062,0.114000,0.000000,0.000000,0.000000,0.000000,0.000000,0.000000,0.001332,-0.001718,-0.000198,0.110751,0.114585,0.113812,0.116852,1000,1000,1000,1000
