t,is_crashed,roll,pitch,yaw,p,q,r,throttle,p_cmd,q_cmd,r_cmd,roll_cmd,pitch_cmd,yaw_cmd,roll_pid_out,pitch_pid_out,yaw_pid_out,motor_fl,motor_bl,motor_fr,motor_br,pwm_fl,pwm_bl,pwm_fr,pwm_br
6939,0,0.039270,0.032725,0.000000,0.00,-0.00,-0.000033,0.004000,-0.000601,-0.001157,0.000000,0.000000,0.000000,0.000000,0.000007,-0.000027,0.000005,0.000000,0.000000,0.000000,0.000000,0,0,0,0
6951,0,0.000000,0.000000,0.000000,-2.13,-1.77,-0.000035,0.004000,-0.021284,-0.017737,0.000000,0.000000,0.000000,0.000000,-0.025286,0.040669,0.000006,0.000000,0.000000,0.000000,0.000000,819,819,819,819
6960,0,0.000000,0.000000,0.000000,-0.00,-0.00,-0.000049,0.004000,-0.000000,-0.000000,0.000000,0.000000,0.000000,0.000000,-0.005122,0.003048,0.000009,0.000000,0.000000,0.000000,0.000000,819,819,819,819
6970,0,0.000000,0.000000,0.000000,-0.00,-0.00,-0.000039,0.004000,-0.000000,-0.000000,0.000000,0.000000,0.000000,0.000000,-0.005122,0.003048,0.000008,0.000000,0.000000,0.000000,0.000000,819,819,819,819
6980,0,0.000000,0.000000,0.000000,0.00,0.00,-0.000039,0.004000,0.000000,0.000000,0.000000,0.000000,0.000000,0.000000,-0.005122,0.003047,0.000008,0.000000,0.000000,0.000000,0.000000,819,819,819,819
6990,0,0.000000,0.000000,0.000000,-0.00,0.00,-0.000045,0.004000,-0.000000,0.000000,0.000000,0.000000,0.000000,0.000000,-0.005122,0.003048,0.000009,0.000000,0.000000,0.000000,0.000000,819,819,819,819
7000,0,0.000000,0.000000,0.000000,0.00,-0.00,-0.000056,0.004000,0.000000,-0.000000,0.000000,0.000000,0.000000,0.000000,-0.005122,0.003048,0.000012,0.000000,0.000000,0.000000,0.000000,819,819,819,819
7010,0,0.000000,0.000000,0.000000,0.00,0.00,-0.000063,0.004000,0.000000,0.000000,0.000000,0.000000,0.000000,0.000000,-0.005122,0.003048,0.000013,0.000000,0.000000,0.000000,0.000000,819,819,819,819
7020,0,0.000000,0.000000,0.000000,-0.00,0.00,-0.000068,0.004000,-0.000000,0.000000,0.000000,0.000000,0.000000,0.000000,-0.005122,0.003047,0.000015,0.000000,0.000000,0.000000,0.000000,819,819,819,819
7030,0,0.000000,0.000000,0.000000,-0.00,0.00,-0.000084,0.004000,-0.000000,0.000000,0.000000,0.000000,0.000000,0.000000,-0.005122,0.003047,0.000018,0.000000,0.000000,0.000000,0.000000,819,819,819,819
7040,0,0.000000,0.000000,0.000000,-0.00,-0.00,-0.000101,0.004000,-0.000000,-0.000000,0.000000,0.000000,0.000000,0.000000,-0.005122,0.003048,0.000022,0.000000,0.000000,0.000000,0.000000,819,819,819,819
7050,0,0.000000,0.000000,0.000000,-0.00,0.00,-0.000119,0.004000,-0.000000,0.000000,0.000000,0.000000,0.000000,0.000000,-0.005122,0.003047,0.000026,0.000000,0.000000,0.000000,0.000000,819,819,819,819
7060,0,0.000000,0.000000,0.000000,0.00,0.00,-0.000111,0.004000,0.000000,0.000000,0.000000,0.000000,0.000000,0.000000,-0.005122,0.003048,0.000026,0.000000,0.000000,0.000000,0.000000,819,819,819,819
7070,0,0.000000,0.000000,0.000000,0.00,0.00,-0.000072,0.004000,0.000000,0.000000,0.000000,0.000000,0.000000,0.000000,-0.005122,0.003048,0.000021,0.000000,0.000000,0.000000,0.000000,819,819,819,819
7080,0,0.000000,0.000000,0.000000,0.00,0.00,-0.000060,0.004000,0.000000,0.000000,0.000000,0.000000,0.000000,0.000000,-0.005122,0.003047,0.000020,0.000000,0.000000,0.000000,0.000000,819,819,819,819
7090,0,0.000000,0.000000,0.000000,0.00,-0.00,-0.000032,0.004000,0.000000,-0.000000,0.000000,0.000000,0.000000,0.000000,-0.005122,0.003048,0.000016,0.000000,0.000000,0.000000,0.000000,819,819,819,819
7100,0,0.000000,0.000000,0.000000,0.00,-0.00,-0.000008,0.004000,0.000000,-0.000000,0.000000,0.000000,0.000000,0.000000,-0.005122,0.003048,0.000012,0.000000,0.000000,0.000000,0.000000,819,819,819,819
7110,0,0.000000,0.000000,0.000000,-0.00,-0.00,0.000022,0.004000,-0.000000,-0.000000,0.000000,0.000000,0.000000,0.000000,-0.005122,0.003048,0.000007,0.000000,0.000000,0.000000,0.000000,819,819,819,819
7119,0,0.000000,0.000000,0.000000,-0.00,0.00,0.000014,0.004000,-0.000000,0.000000,0.000000,0.000000,0.000000,0.000000,-0.005122,0.003047,0.000008,0.000000,0.000000,0.000000,0.000000,819,819,819,819
7130,0,0.000000,0.000000,0.000000,-0.00,-0.00,-0.000031,0.004000,-0.000000,-0.000000,0.000000,0.000000,0.000000,0.000000,-0.005122,0.003048,0.000015,0.000000,0.000000,0.000000,0.000000,819,819,819,819
7140,0,0.000000,0.000000,0.000000,0.00,0.00,-0.000040,0.004000,0.000000,0.000000,0.000000,0.000000,0.000000,0.000000,-0.005122,0.003047,0.000017,0.000000,0.000000,0.000000,0.000000,819,819,819,819
7150,0,0.000000,0.000000,0.000000,-0.00,0.00,-0.000033,0.004000,-0.000000,0.000000,0.000000,0.000000,0.000000,0.000000,-0.005122,0.003047,0.000016,0.000000,0.000000,0.000000,0.000000,819,819,819,819
7160,0,0.000000,0.000000,0.000000,0.00,0.00,-0.000021,0.004000,0.000000,0.000000,0.000000,0.000000,0.000000,0.000000,-0.005122,0.003048,0.000015,0.000000,0.000000,0.000000,0.000000,819,819,819,819
7169,0,0.000000,0.000000,0.000000,0.00,0.00,-0.000014,0.004000,0.000000,0.000000,0.000000,0.000000,0.000000,0.000000,-0.005122,0.003048,0.000014,0.000000,0.000000,0.000000,0.000000,819,819,819,819
7183,0,0.000000,0.000000,0.000000,0.00,0.00,0.000011,0.004000,0.000000,0.000000,0.000000,0.000000,0.000000,0.000000,-0.005122,0.003048,0.000010,0.000000,0.000000,0.000000,0.000000,819,819,819,819
7195,0,0.000000,0.000000,0.000000,0.00,0.00,0.000007,0.004000,0.000000,0.000000,0.000000,0.000000,0.000000,0.000000,-0.005122,0.003047,0.000010,0.000000,0.000000,0.000000,0.000000,819,819,819,819
7206,0,0.000000,0.000000,0.000000,-0.00,0.00,-0.000002,0.004000,-0.000000,0.000000,0.000000,0.000000,0.000000,0.000000,-0.005122,0.003047,0.000012,0.000000,0.000000,0.000000,0.000000,819,819,819,819
7218,0,0.000000,0.000000,0.000000,0.00,0.00,-0.000001,0.004000,0.000000,0.000000,0.000000,0.000000,0.000000,0.000000,-0.005122,0.003048,0.000012,0.000000,0.000000,0.000000,0.000000,819,819,819,819
7229,0,0.000000,0.000000,0.000000,0.00,0.00,-0.000008,0.004000,0.000000,0.000000,0.000000,0.000000,0.000000,0.000000,-0.005122,0.003048,0.000013,0.000000,0.000000,0.000000,0.000000,819,819,819,819
7240,0,0.000000,0.000000,0.000000,0.00,-0.00,-0.000005,0.004000,0.000000,-0.000000,0.000000,0.000000,0.000000,0.000000,-0.005122,0.003048,0.000013,0.000000,0.000000,0.000000,0.000000,819,819,819,819
7250,0,0.000000,0.000000,0.000000,-0.00,0.00,-0.000010,0.004000,-0.000000,0.000000,0.000000,0.000000,0.000000,0.000000,-0.005122,0.003047,0.000013,0.000000,0.000000,0.000000,0.000000,819,819,819,819
7260,0,0.000000,0.000000,0.000000,0.00,0.00,-0.000026,0.004000,0.000000,0.000000,0.000000,0.000000,0.000000,0.000000,-0.005122,0.003047,0.000016,0.000000,0.000000,0.000000,0.000000,819,819,819,819
7270,0,0.000000,0.000000,0.000000,0.00,-0.00,-0.000010,0.004000,0.000000,-0.000000,0.000000,0.000000,0.000000,0.000000,-0.005122,0.003048,0.000014,0.000000,0.000000,0.000000,0.000000,819,819,819,819
7280,0,0.000000,0.000000,0.000000,-0.00,-0.00,-0.000013,0.004000,-0.000000,-0.000000,0.000000,0.000000,0.000000,0.000000,-0.005122,0.003048,0.000014,0.000000,0.000000,0.000000,0.000000,819,819,819,819
7290,0,0.000000,0.000000,0.000000,0.00,0.00,0.000025,0.004000,0.000000,0.000000,0.000000,0.000000,0.000000,0.000000,-0.005122,0.003048,0.000008,0.000000,0.000000,0.000000,0.000000,819,819,819,819
7300,0,0.000000,0.000000,0.000000,-0.00,0.00,0.000023,0.004000,-0.000000,0.000000,0.000000,0.000000,0.000000,0.000000,-0.005122,0.003047,0.000008,0.000000,0.000000,0.000000,0.000000,819,819,819,819
7310,0,0.000000,0.000000,0.000000,0.00,0.00,0.000021,0.004000,0.000000,0.000000,0.000000,0.000000,0.000000,0.000000,-0.005122,0.003048,0.000008,0.000000,0.000000,0.000000,0.000000,819,819,819,819
7320,0,0.000000,0.000000,0.000000,-0.00,0.00,0.000000,0.004000,-0.000000,0.000000,0.000000,0.000000,0.000000,0.000000,-0.005122,0.003047,0.000012,0.000000,0.000000,0.000000,0.000000,819,819,819,819
7330,0,0.000000,0.000000,0.000000,0.00,-0.00,-0.000013,0.004000,0.000000,-0.000000,0.000000,0.000000,0.000000,0.000000,-0.005122,0.003048,0.000014,0.000000,0.000000,0.000000,0.000000,819,819,819,819
7340,0,0.000000,0.000000,0.000000,-0.00,-0.00,-0.000015,0.004000,-0.000000,-0.000000,0.000000,0.000000,0.000000,0.000000,-0.005122,0.003048,0.000014,0.000000,0.000000,0.000000,0.000000,819,819,819,819
7350,0,0.000000,0.000000,0.000000,-0.00,-0.00,0.000030,0.004000,-0.000000,-0.000000,0.000000,0.000000,0.000000,0.000000,-0.005123,0.003048,0.000007,0.000000,0.000000,0.000000,0.000000,819,819,819,819
7360,0,0.000000,0.000000,0.000000,-0.00,-0.00,0.000053,0.004000,-0.000000,-0.000000,0.000000,0.000000,0.000000,0.000000,-0.005123,0.003048,0.000003,0.000000,0.000000,0.000000,0.000000,819,819,819,819
7370,0,0.000000,0.000000,0.000000,-0.00,-0.00,0.000088,0.004000,-0.000000,-0.000000,0.000000,0.000000,0.000000,0.000000,-0.005123,0.003048,-0.000003,0.000000,0.000000,0.000000,0.000000,819,819,819,819
7380,0,0.000000,0.000000,0.000000,-0.00,0.00,0.000077,0.004000,-0.000000,0.000000,0.000000,0.000000,0.000000,0.000000,-0.005122,0.003048,-0.000003,0.000000,0.000000,0.000000,0.000000,819,819,819,819
7390,0,0.000000,0.000000,0.000000,-0.00,-0.00,0.000070,0.004000,-0.000000,-0.000000,0.000000,0.000000,0.000000,0.000000,-0.005123,0.003048,-0.000002,0.000000,0.000000,0.000000,0.000000,819,819,819,819
7400,0,0.000000,0.000000,0.000000,0.00,0.00,0.000019,0.004000,0.000000,0.000000,0.000000,0.000000,0.000000,0.000000,-0.005122,0.003047,0.000005,0.000000,0.000000,0.000000,0.000000,819,819,819,819
7410,0,0.000000,0.000000,0.000000,0.00,0.00,-0.000054,0.004000,0.000000,0.000000,0.000000,0.000000,0.000000,0.000000,-0.005122,0.003047,0.000017,0.000000,0.000000,0.000000,0.000000,819,819,819,819
7420,0,0.000000,0.000000,0.000000,0.00,-0.00,-0.000075,0.004000,0.000000,-0.000000,0.000000,0.000000,0.000000,0.000000,-0.005122,0.003048,0.000021,0.000000,0.000000,0.000000,0.000000,819,819,819,819
7430,0,0.000000,0.000000,0.000000,0.00,-0.00,-0.000062,0.004000,0.000000,-0.000000,0.000000,0.000000,0.000000,0.000000,-0.005122,0.003048,0.000020,0.000000,0.000000,0.000000,0.000000,819,819,819,819
7440,0,0.000000,0.000000,0.000000,0.00,-0.00,-0.000047,0.004000,0.000000,-0.000000,0.000000,0.000000,0.000000,0.000000,-0.005122,0.003048,0.000018,0.000000,0.000000,0.000000,0.000000,819,819,819,819
7450,0,0.000000,0.000000,0.000000,0.00,-0.00,-0.000024,0.004000,0.000000,-0.000000,0.000000,0.000000,0.000000,0.000000,-0.005122,0.003048,0.000015,0.000000,0.000000,0.000000,0.000000,819,819,819,819
7460,0,0.000000,0.000000,0.000000,0.00,0.00,-0.000002,0.004000,0.000000,0.000000,0.000000,0.000000,0.000000,0.000000,-0.005122,0.003048,0.000012,0.000000,0.000000,0.000000,0.000000,819,819,819,819
7470,0,0.000000,0.000000,0.000000,-0.00,0.00,0.000012,0.004000,-0.000000,0.000000,0.000000,0.000000,0.000000,0.000000,-0.005122,0.003047,0.000009,0.000000,0.000000,0.000000,0.000000,819,819,819,819
7480,0,0.000000,0.000000,0.000000,-0.00,0.00,0.000021,0.004000,-0.000000,0.000000,0.000000,0.000000,0.000000,0.000000,-0.005122,0.003048,0.000008,0.000000,0.000000,0.000000,0.000000,819,819,819,819
7490,0,0.000000,0.000000,0.000000,0.00,-0.00,0.000040,0.004000,0.000000,-0.000000,0.000000,0.000000,0.000000,0.000000,-0.005122,0.003048,0.000004,0.000000,0.000000,0.000000,0.000000,819,819,819,819
7504,0,0.000000,0.000000,0.000000,0.00,-0.00,0.000073,0.004000,0.000000,-0.000000,0.000000,0.000000,0.000000,0.000000,-0.005122,0.003048,-0.000002,0.000000,0.000000,0.000000,0.000000,819,819,819,819
7517,0,0.000000,0.000000,0.000000,-0.00,-0.00,0.000081,0.004000,-0.000000,-0.000000,0.000000,0.000000,0.000000,0.000000,-0.005123,0.003048,-0.000004,0.000000,0.000000,0.000000,0.000000,819,819,819,819
7529,0,0.000000,0.000000,0.000000,0.00,0.00,0.000059,0.004000,0.000000,0.000000,0.000000,0.000000,0.000000,0.000000,-0.005122,0.003047,-0.000001,0.000000,0.000000,0.000000,0.000000,819,819,819,819
7539,0,0.000000,0.000000,0.000000,-0.00,0.00,0.000058,0.004000,-0.000000,0.000000,0.000000,0.000000,0.000000,0.000000,-0.005123,0.003048,-0.000002,0.000000,0.000000,0.000000,0.000000,819,819,819,819
7550,0,0.000000,0.000000,0.000000,0.00,0.00,0.000051,0.004000,0.000000,0.000000,0.000000,0.000000,0.000000,0.000000,-0.005122,0.003047,-0.000001,0.000000,0.000000,0.000000,0.000000,819,819,819,819
7560,0,0.000000,0.000000,0.000000,0.00,0.00,0.000047,0.004000,0.000000,0.000000,0.000000,0.000000,0.000000,0.000000,-0.005122,0.003048,-0.000001,0.000000,0.000000,0.000000,0.000000,819,819,819,819
7570,0,0.000000,0.000000,0.000000,0.00,0.00,0.000044,0.004000,0.000000,0.000000,0.000000,0.000000,0.000000,0.000000,-0.005122,0.003047,-0.000001,0.000000,0.000000,0.000000,0.000000,819,819,819,819
7581,0,0.000000,0.000000,0.000000,0.00,0.00,0.000062,0.004000,0.000000,0.000000,0.000000,0.000000,0.000000,0.000000,-0.005122,0.003047,-0.000004,0.000000,0.000000,0.000000,0.000000,819,819,819,819
7590,0,0.000000,0.000000,0.000000,0.00,0.00,0.000067,0.004000,0.000000,0.000000,0.000000,0.000000,0.000000,0.000000,-0.005122,0.003047,-0.000006,0.000000,0.000000,0.000000,0.000000,819,819,819,819
7600,0,0.000000,0.000000,0.000000,0.00,0.00,0.000037,0.004000,0.000000,0.000000,0.000000,0.000000,0.000000,0.000000,-0.005122,0.003048,-0.000002,0.000000,0.000000,0.000000,0.000000,819,819,819,819
7610,0,0.000000,0.000000,0.000000,0.00,0.00,0.000011,0.004000,0.000000,0.000000,0.000000,0.000000,0.000000,0.000000,-0.005122,0.003047,0.000002,0.000000,0.000000,0.000000,0.000000,819,819,819,819
7620,0,0.000000,0.000000,0.000000,0.00,0.00,0.000000,0.004000,0.000000,0.000000,0.000000,0.000000,0.000000,0.000000,-0.005122,0.003048,0.000004,0.000000,0.000000,0.000000,0.000000,819,819,819,819
7631,0,0.000000,0.000000,0.000000,-0.00,0.00,-0.000020,0.004000,-0.000000,0.000000,0.000000,0.000000,0.000000,0.000000,-0.005123,0.003047,0.000007,0.000000,0.000000,0.000000,0.000000,819,819,819,819
7641,0,0.000000,0.000000,0.000000,-0.00,0.00,-0.000026,0.004000,-0.000000,0.000000,0.000000,0.000000,0.000000,0.000000,-0.005123,0.003047,0.000008,0.000000,0.000000,0.000000,0.000000,819,819,819,819
7651,0,0.000000,0.000000,0.000000,0.00,-0.00,-0.000037,0.004000,0.000000,-0.000000,0.000000,0.000000,0.000000,0.000000,-0.005123,0.003048,0.000010,0.000000,0.000000,0.000000,0.000000,819,819,819,819
7661,0,0.000000,0.000000,0.000000,0.00,0.00,-0.000051,0.004000,0.000000,0.000000,0.000000,0.000000,0.000000,0.000000,-0.005122,0.003048,0.000013,0.000000,0.000000,0.000000,0.000000,819,819,819,819
7671,0,0.000000,0.000000,0.000000,-0.00,-0.00,-0.000020,0.004000,-0.000000,-0.000000,0.000000,0.000000,0.000000,0.000000,-0.005123,0.003048,0.000009,0.000000,0.000000,0.000000,0.000000,819,819,819,819
7681,0,0.000000,0.000000,0.000000,0.00,-0.00,-0.000019,0.004000,0.000000,-0.000000,0.000000,0.000000,0.000000,0.000000,-0.005123,0.003048,0.000009,0.000000,0.000000,0.000000,0.000000,819,819,819,819
7691,0,0.000000,0.000000,0.000000,-0.00,-0.00,-0.000013,0.004000,-0.000000,-0.000000,0.000000,0.000000,0.000000,0.000000,-0.005123,0.003048,0.000008,0.000000,0.000000,0.000000,0.000000,819,819,819,819
7701,0,0.000000,0.000000,0.000000,-0.00,-0.00,0.000005,0.003000,-0.000000,-0.000000,0.000000,0.000000,0.000000,0.000000,-0.005123,0.003048,0.000005,0.000000,0.000000,0.000000,0.000000,819,819,819,819
7711,0,0.000000,0.000000,0.000000,0.00,0.00,-0.000003,0.004000,0.000000,0.000000,0.000000,0.000000,0.000000,0.000000,-0.005123,0.003048,0.000006,0.000000,0.000000,0.000000,0.000000,819,819,819,819
7721,0,0.000000,0.000000,0.000000,-0.00,0.00,-0.000002,0.004000,-0.000000,0.000000,0.000000,0.000000,0.000000,0.000000,-0.005123,0.003047,0.000006,0.000000,0.000000,0.000000,0.000000,819,819,819,819
7731,0,0.000000,0.000000,0.000000,0.00,-0.00,0.000012,0.004000,0.000000,-0.000000,0.000000,0.000000,0.000000,0.000000,-0.005123,0.003048,0.000004,0.000000,0.000000,0.000000,0.000000,819,819,819,819
7741,0,0.000000,0.000000,0.000000,0.00,-0.00,0.000034,0.004000,0.000000,-0.000000,0.000000,0.000000,0.000000,0.000000,-0.005123,0.003048,0.000000,0.000000,0.000000,0.000000,0.000000,819,819,819,819
7751,0,0.000000,0.000000,0.000000,-0.00,0.00,0.000069,0.004000,-0.000000,0.000000,0.000000,0.000000,0.000000,0.000000,-0.005123,0.003048,-0.000006,0.000000,0.000000,0.000000,0.000000,819,819,819,819
7761,0,0.000000,0.000000,0.000000,0.00,0.00,0.000098,0.004000,0.000000,0.000000,0.000000,0.000000,0.000000,0.000000,-0.005123,0.003047,-0.000012,0.000000,0.000000,0.000000,0.000000,819,819,819,819
7771,0,0.000000,0.000000,0.000000,-0.00,-0.00,0.000124,0.004000,-0.000000,-0.000000,0.000000,0.000000,0.000000,0.000000,-0.005123,0.003048,-0.000017,0.000000,0.000000,0.000000,0.000000,819,819,819,819
7783,0,0.000000,0.000000,0.000000,0.00,-0.00,0.000154,0.004000,0.000000,-0.000000,0.000000,0.000000,0.000000,0.000000,-0.005123,0.003048,-0.000024,0.000000,0.000000,0.000000,0.000000,819,819,819,819
7792,0,-0.001091,0.000000,0.000000,-0.08,-0.00,0.000173,0.004000,-0.000771,-0.000000,0.000000,0.000000,0.000000,0.000000,-0.006078,0.003048,-0.000029,0.000000,0.000000,0.000000,0.000000,819,819,819,819
7801,0,-0.001091,0.000000,0.000000,0.00,-0.00,0.000153,0.004000,0.000017,-0.000000,0.000000,0.000000,0.000000,0.000000,-0.005335,0.003048,-0.000027,0.000000,0.000000,0.000000,0.000000,819,819,819,819
7816,0,-0.001091,0.000000,0.000000,-0.00,0.00,0.000113,0.004000,0.000017,0.000000,0.000000,0.000000,0.000000,0.000000,-0.005336,0.003047,-0.000022,0.000000,0.000000,0.000000,0.000000,819,819,819,819
7831,0,-0.001091,0.000000,0.000000,0.00,0.00,0.000020,0.004000,0.000017,0.000000,0.000000,0.000000,0.000000,0.000000,-0.005336,0.003047,-0.000008,0.000000,0.000000,0.000000,0.000000,819,819,819,819
7841,0,-0.001091,0.000000,0.000000,0.00,-0.00,-0.000027,0.004000,0.000017,-0.000000,0.000000,0.000000,0.000000,0.000000,-0.005336,0.003048,-0.000000,0.000000,0.000000,0.000000,0.000000,819,819,819,819
7851,0,-0.001091,0.000000,0.000000,0.00,0.00,-0.000038,0.004000,0.000017,0.000000,0.000000,0.000000,0.000000,0.000000,-0.005336,0.003048,0.000001,0.000000,0.000000,0.000000,0.000000,819,819,819,819
7861,0,-0.001091,0.000000,0.000000,0.00,-0.00,0.000009,0.004000,0.000017,-0.000000,0.000000,0.000000,0.000000,0.000000,-0.005336,0.003048,-0.000006,0.000000,0.000000,0.000000,0.000000,819,819,819,819
7871,0,-0.001091,0.000000,0.000000,0.00,0.00,0.000066,0.004000,0.000017,0.000000,0.000000,0.000000,0.000000,0.000000,-0.005336,0.003048,-0.000015,0.000000,0.000000,0.000000,0.000000,819,819,819,819
7881,0,-0.001091,0.000000,0.000000,0.00,0.00,0.000109,0.004000,0.000017,0.000000,0.000000,0.000000,0.000000,0.000000,-0.005336,0.003047,-0.000023,0.000000,0.000000,0.000000,0.000000,819,819,819,819
7891,0,-0.001091,0.000000,0.000000,0.00,0.00,0.000111,0.004000,0.000017,0.000000,0.000000,0.000000,0.000000,0.000000,-0.005336,0.003048,-0.000025,0.000000,0.000000,0.000000,0.000000,819,819,819,819
7901,0,-0.001091,0.000000,0.000000,-0.00,-0.00,0.000119,0.004000,0.000017,-0.000000,0.000000,0.000000,0.000000,0.000000,-0.005336,0.003048,-0.000028,0.000000,0.000000,0.000000,0.000000,819,819,819,819
7911,0,-0.001091,0.000000,0.000000,0.00,-0.00,0.000091,0.004000,0.000017,-0.000000,0.000000,0.000000,0.000000,0.000000,-0.005336,0.003048,-0.000024,0.000000,0.000000,0.000000,0.000000,819,819,819,819
7921,0,-0.001091,0.000000,0.000000,-0.00,0.00,0.000092,0.004000,0.000017,0.000000,0.000000,0.000000,0.000000,0.000000,-0.005336,0.003048,-0.000026,0.000000,0.000000,0.000000,0.000000,819,819,819,819
7931,0,-0.001091,0.000000,0.000000,-0.00,-0.00,0.000107,0.004000,0.000017,-0.000000,0.000000,0.000000,0.000000,0.000000,-0.005336,0.003048,-0.000029,0.000000,0.000000,0.000000,0.000000,819,819,819,819
7941,0,-0.001091,0.000000,0.000000,0.00,-0.00,0.000136,0.004000,0.000017,-0.000000,0.000000,0.000000,0.000000,0.000000,-0.005336,0.003048,-0.000035,0.000000,0.000000,0.000000,0.000000,819,819,819,819
7951,0,-0.001091,0.000000,0.000000,-0.00,0.00,0.000142,0.004000,0.000017,0.000000,0.000000,0.000000,0.000000,0.000000,-0.005336,0.003048,-0.000038,0.000000,0.000000,0.000000,0.000000,819,819,819,819
7961,0,-0.001091,0.000000,0.000000,0.00,0.00,0.000119,0.004000,0.000017,0.000000,0.000000,0.000000,0.000000,0.000000,-0.005336,0.003048,-0.000036,0.000000,0.000000,0.000000,0.000000,819,819,819,819
7971,0,-0.001091,0.000000,0.000000,-0.00,0.00,0.000084,0.004000,0.000017,0.000000,0.000000,0.000000,0.000000,0.000000,-0.005337,0.003048,-0.000031,0.000000,0.000000,0.000000,0.000000,819,819,819,819
7981,0,-0.001091,0.000000,0.000000,-0.00,0.00,0.000021,0.004000,0.000017,0.000000,0.000000,0.000000,0.000000,0.000000,-0.005337,0.003047,-0.000022,0.000000,0.000000,0.000000,0.000000,819,819,819,819
7991,0,-0.001091,0.000000,0.000000,-0.00,0.00,0.000007,0.004000,0.000017,0.000000,0.000000,0.000000,0.000000,0.000000,-0.005337,0.003048,-0.000020,0.000000,0.000000,0.000000,0.000000,819,819,819,819
8001,0,-0.001091,0.000000,0.000000,-0.00,0.00,0.000018,0.004000,0.000017,0.000000,0.000000,0.000000,0.000000,0.000000,-0.005337,0.003048,-0.000022,0.000000,0.000000,0.000000,0.000000,819,819,819,819
8011,0,-0.001091,0.000000,0.000000,-0.00,-0.00,0.000018,0.004000,0.000017,-0.000000,0.000000,0.000000,0.000000,0.000000,-0.005337,0.003048,-0.000022,0.000000,0.000000,0.000000,0.000000,819,819,819,819
8021,0,-0.001091,0.000000,0.000000,-0.00,-0.00,0.000019,0.004000,0.000017,-0.000000,0.000000,0.000000,0.000000,0.000000,-0.005337,0.003048,-0.000022,0.000000,0.000000,0.000000,0.000000,819,819,819,819
8031,0,-0.001091,0.000000,0.000000,-0.00,0.00,-0.000001,0.004000,0.000017,0.000000,0.000000,0.000000,0.000000,0.000000,-0.005337,0.003048,-0.000019,0.000000,0.000000,0.000000,0.000000,819,819,819,819
8041,0,-0.001091,0.000000,0.000000,-0.00,-0.00,-0.000034,0.004000,0.000017,-0.000000,0.000000,0.000000,0.000000,0.000000,-0.005337,0.003048,-0.000014,0.000000,0.000000,0.000000,0.000000,819,819,819,819
8051,0,-0.001091,0.000000,0.000000,0.00,-0.00,-0.000082,0.004000,0.000017,-0.000000,0.000000,0.000000,0.000000,0.000000,-0.005337,0.003048,-0.000005,0.000000,0.000000,0.000000,0.000000,819,819,819,819
8061,0,-0.001091,0.000000,0.000000,-0.00,0.00,-0.000093,0.004000,0.000017,0.000000,0.000000,0.000000,0.000000,0.000000,-0.005337,0.003047,-0.000003,0.000000,0.000000,0.000000,0.000000,819,819,819,819
8072,0,-0.001091,0.000000,0.000000,0.00,0.00,-0.000107,0.004000,0.000017,0.000000,0.000000,0.000000,0.000000,0.000000,-0.005337,0.003047,0.000000,0.000000,0.000000,0.000000,0.000000,819,819,819,819
8082,0,-0.001091,0.000000,0.000000,-0.00,-0.00,-0.000090,0.004000,0.000017,-0.000000,0.000000,0.000000,0.000000,0.000000,-0.005337,0.003048,-0.000000,0.000000,0.000000,0.000000,0.000000,819,819,819,819
8092,0,-0.001091,0.000000,0.000000,-0.00,0.00,-0.000072,0.004000,0.000017,0.000000,0.000000,0.000000,0.000000,0.000000,-0.005337,0.003048,-0.000003,0.000000,0.000000,0.000000,0.000000,819,819,819,819
8101,0,-0.001091,0.000000,0.000000,0.00,-0.00,-0.000047,0.004000,0.000017,-0.000000,0.000000,0.000000,0.000000,0.000000,-0.005337,0.003048,-0.000006,0.000000,0.000000,0.000000,0.000000,819,819,819,819
8112,0,-0.001091,0.000000,0.000000,-0.00,-0.00,-0.000024,0.004000,0.000017,-0.000000,0.000000,0.000000,0.000000,0.000000,-0.005337,0.003048,-0.000009,0.000000,0.000000,0.000000,0.000000,819,819,819,819
8122,0,-0.001091,0.000000,0.000000,-0.00,-0.00,0.000011,0.004000,0.000017,-0.000000,0.000000,0.000000,0.000000,0.000000,-0.005338,0.003048,-0.000015,0.000000,0.000000,0.000000,0.000000,819,819,819,819
8135,0,-0.001091,0.000000,0.000000,-0.00,0.00,0.000034,0.004000,0.000017,0.000000,0.000000,0.000000,0.000000,0.000000,-0.005338,0.003048,-0.000019,0.000000,0.000000,0.000000,0.000000,819,819,819,819
8148,0,-0.001091,0.000000,0.000000,-0.00,0.00,0.000042,0.004000,0.000017,0.000000,0.000000,0.000000,0.000000,0.000000,-0.005338,0.003048,-0.000020,0.000000,0.000000,0.000000,0.000000,819,819,819,819
8160,0,-0.001091,0.000000,0.000000,0.00,0.00,0.000054,0.004000,0.000017,0.000000,0.000000,0.000000,0.000000,0.000000,-0.005338,0.003048,-0.000023,0.000000,0.000000,0.000000,0.000000,819,819,819,819
8171,0,-0.001091,0.000000,0.000000,0.00,0.00,0.000042,0.004000,0.000017,0.000000,0.000000,0.000000,0.000000,0.000000,-0.005338,0.003048,-0.000022,0.000000,0.000000,0.000000,0.000000,819,819,819,819
8181,0,-0.001091,0.000000,0.000000,0.00,-0.00,0.000000,0.004000,0.000017,-0.000000,0.000000,0.000000,0.000000,0.000000,-0.005338,0.003048,-0.000015,0.000000,0.000000,0.000000,0.000000,819,819,819,819
8191,0,-0.001091,0.000000,0.000000,-0.00,-0.00,-0.000013,0.004000,0.000017,-0.000000,0.000000,0.000000,0.000000,0.000000,-0.005338,0.003048,-0.000013,0.000000,0.000000,0.000000,0.000000,819,819,819,819
8202,0,-0.001091,0.000000,0.000000,0.00,0.00,-0.000028,0.004000,0.000017,0.000000,0.000000,0.000000,0.000000,0.000000,-0.005338,0.003048,-0.000010,0.000000,0.000000,0.000000,0.000000,819,819,819,819
8212,0,-0.001091,0.000000,0.000000,0.00,-0.00,-0.000045,0.004000,0.000017,-0.000000,0.000000,0.000000,0.000000,0.000000,-0.005338,0.003048,-0.000007,0.000000,0.000000,0.000000,0.000000,819,819,819,819
8254,0,-0.001091,0.000000,0.000000,0.00,0.00,-0.000023,0.004000,0.000017,0.000000,0.000000,0.000000,0.000000,0.000000,-0.005338,0.003048,-0.000010,0.000000,0.000000,0.000000,0.000000,819,819,819,819
8311,0,-0.001091,0.000000,0.000000,0.00,-0.00,-0.000001,0.004000,0.000017,-0.000000,0.000000,0.000000,0.000000,0.000000,-0.005338,0.003048,-0.000014,0.000000,0.000000,0.000000,0.000000,819,819,819,819
8322,0,-0.001091,0.000000,0.000000,0.00,0.00,-0.000000,0.004000,0.000017,0.000000,0.000000,0.000000,0.000000,0.000000,-0.005338,0.003048,-0.000014,0.000000,0.000000,0.000000,0.000000,819,819,819,819
8332,0,-0.001091,0.000000,0.000000,-0.00,0.00,-0.000014,0.004000,0.000017,0.000000,0.000000,0.000000,0.000000,0.000000,-0.005338,0.003048,-0.000011,0.000000,0.000000,0.000000,0.000000,819,819,819,819
8342,0,-0.001091,0.000000,0.000000,0.00,0.00,-0.000022,0.004000,0.000017,0.000000,0.000000,0.000000,0.000000,0.000000,-0.005338,0.003048,-0.000010,0.000000,0.000000,0.000000,0.000000,819,819,819,819
8352,0,-0.001091,0.000000,0.000000,0.00,-0.00,-0.000028,0.004000,0.000017,-0.000000,0.000000,0.000000,0.000000,0.000000,-0.005338,0.003048,-0.000009,0.000000,0.000000,0.000000,0.000000,819,819,819,819
8362,0,-0.001091,0.000000,0.000000,-0.00,0.00,-0.000051,0.004000,0.000017,0.000000,0.000000,0.000000,0.000000,0.000000,-0.005338,0.003048,-0.000004,0.000000,0.000000,0.000000,0.000000,819,819,819,819
8372,0,-0.001091,0.000000,0.000000,-0.00,0.00,-0.000060,0.004000,0.000017,0.000000,0.000000,0.000000,0.000000,0.000000,-0.005338,0.003048,-0.000002,0.000000,0.000000,0.000000,0.000000,819,819,819,819
8382,0,-0.001091,0.000000,0.000000,0.00,0.00,-0.000086,0.004000,0.000017,0.000000,0.000000,0.000000,0.000000,0.000000,-0.005338,0.003048,0.000003,0.000000,0.000000,0.000000,0.000000,819,819,819,819
8392,0,-0.001091,0.000000,0.000000,-0.00,-0.00,-0.000082,0.004000,0.000017,-0.000000,0.000000,0.000000,0.000000,0.000000,-0.005338,0.003048,0.000003,0.000000,0.000000,0.000000,0.000000,819,819,819,819
8402,0,-0.001091,0.000000,0.000000,0.00,0.00,-0.000060,0.004000,0.000017,0.000000,0.000000,0.000000,0.000000,0.000000,-0.005338,0.003048,0.000000,0.000000,0.000000,0.000000,0.000000,819,819,819,819
8412,0,-0.001091,0.000000,0.000000,0.00,-0.00,-0.000012,0.004000,0.000017,-0.000000,0.000000,0.000000,0.000000,0.000000,-0.005338,0.003048,-0.000007,0.000000,0.000000,0.000000,0.000000,819,819,819,819
8422,0,-0.001091,0.000000,0.000000,-0.00,0.00,0.000032,0.004000,0.000017,0.000000,0.000000,0.000000,0.000000,0.000000,-0.005339,0.003048,-0.000014,0.000000,0.000000,0.000000,0.000000,819,819,819,819
8432,0,-0.001091,0.000000,0.000000,0.00,-0.00,0.000074,0.004000,0.000017,-0.000000,0.000000,0.000000,0.000000,0.000000,-0.005339,0.003048,-0.000021,0.000000,0.000000,0.000000,0.000000,819,819,819,819
8442,0,-0.001091,0.000000,0.000000,-0.00,-0.00,0.000088,0.004000,0.000017,-0.000000,0.000000,0.000000,0.000000,0.000000,-0.005339,0.003048,-0.000024,0.000000,0.000000,0.000000,0.000000,819,819,819,819
8452,0,-0.001091,0.000000,0.000000,0.00,0.00,0.000071,0.004000,0.000017,0.000000,0.000000,0.000000,0.000000,0.000000,-0.005339,0.003048,-0.000023,0.000000,0.000000,0.000000,0.000000,819,819,819,819
8462,0,-0.001091,0.000000,0.000000,0.00,-0.00,0.000039,0.004000,0.000017,-0.000000,0.000000,0.000000,0.000000,0.000000,-0.005339,0.003048,-0.000018,0.000000,0.000000,0.000000,0.000000,819,819,819,819
8472,0,-0.001091,0.000000,0.000000,-0.00,0.00,0.000012,0.004000,0.000017,0.000000,0.000000,0.000000,0.000000,0.000000,-0.005339,0.003048,-0.000014,0.000000,0.000000,0.000000,0.000000,819,819,819,819
8482,0,-0.001091,0.000000,0.000000,-0.00,0.00,0.000001,0.004000,0.000017,0.000000,0.000000,0.000000,0.000000,0.000000,-0.005339,0.003047,-0.000013,0.000000,0.000000,0.000000,0.000000,819,819,819,819
8492,0,-0.001091,0.000000,0.000000,0.00,-0.00,0.000000,0.004000,0.000017,-0.000000,0.000000,0.000000,0.000000,0.000000,-0.005339,0.003048,-0.000013,0.000000,0.000000,0.000000,0.000000,819,819,819,819
8502,0,-0.001091,0.000000,0.000000,0.00,0.00,0.000021,0.004000,0.000017,0.000000,0.000000,0.000000,0.000000,0.000000,-0.005339,0.003048,-0.000016,0.000000,0.000000,0.000000,0.000000,819,819,819,819
8512,0,-0.001091,0.000000,0.000000,-0.00,-0.00,0.000053,0.004000,0.000017,-0.000000,0.000000,0.000000,0.000000,0.000000,-0.005339,0.003049,-0.000022,0.000000,0.000000,0.000000,0.000000,819,819,819,819
8522,0,-0.001091,0.000000,0.000000,0.00,-0.00,0.000081,0.004000,0.000017,-0.000000,0.000000,0.000000,0.000000,0.000000,-0.005339,0.003049,-0.000027,0.000000,0.000000,0.000000,0.000000,819,819,819,819
8532,0,-0.001091,0.000000,0.000000,0.00,-0.00,0.000099,0.004000,0.000017,-0.000000,0.000000,0.000000,0.000000,0.000000,-0.005339,0.003049,-0.000031,0.000000,0.000000,0.000000,0.000000,819,819,819,819
8542,0,-0.001091,0.000000,0.000000,-0.00,-0.00,0.000091,0.004000,0.000017,-0.000000,0.000000,0.000000,0.000000,0.000000,-0.005339,0.003048,-0.000031,0.000000,0.000000,0.000000,0.000000,819,819,819,819
8552,0,-0.001091,0.000000,0.000000,0.00,0.00,0.000066,0.004000,0.000017,0.000000,0.000000,0.000000,0.000000,0.000000,-0.005339,0.003048,-0.000028,0.000000,0.000000,0.000000,0.000000,819,819,819,819
8562,0,-0.001091,0.000000,0.000000,0.00,0.00,0.000016,0.004000,0.000017,0.000000,0.000000,0.000000,0.000000,0.000000,-0.005339,0.003047,-0.000021,0.000000,0.000000,0.000000,0.000000,819,819,819,819
8572,0,-0.001091,0.000000,0.000000,0.00,0.00,-0.000029,0.004000,0.000017,0.000000,0.000000,0.000000,0.000000,0.000000,-0.005339,0.003047,-0.000013,0.000000,0.000000,0.000000,0.000000,819,819,819,819
8583,0,-0.001091,0.000000,0.000000,-0.00,0.00,-0.000066,0.004000,0.000017,0.000000,0.000000,0.000000,0.000000,0.000000,-0.005339,0.003048,-0.000007,0.000000,0.000000,0.000000,0.000000,819,819,819,819
8593,0,-0.001091,0.000000,0.000000,0.00,-0.00,-0.000083,0.004000,0.000017,-0.000000,0.000000,0.000000,0.000000,0.000000,-0.005339,0.003048,-0.000003,0.000000,0.000000,0.000000,0.000000,819,819,819,819
8602,0,-0.001091,0.000000,0.000000,-0.00,-0.00,-0.000054,0.004000,0.000017,-0.000000,0.000000,0.000000,0.000000,0.000000,-0.005340,0.003048,-0.000007,0.000000,0.000000,0.000000,0.000000,819,819,819,819
8612,0,-0.001091,0.000000,0.000000,0.00,0.00,-0.000015,0.004000,0.000017,0.000000,0.000000,0.000000,0.000000,0.000000,-0.005340,0.003048,-0.000013,0.000000,0.000000,0.000000,0.000000,819,819,819,819
8629,0,-0.001091,0.000000,0.000000,-0.00,0.00,0.000037,0.004000,0.000017,0.000000,0.000000,0.000000,0.000000,0.000000,-0.005340,0.003048,-0.000021,0.000000,0.000000,0.000000,0.000000,819,819,819,819
8642,0,-0.001091,0.000000,0.000000,-0.00,-0.00,0.000064,0.004000,0.000017,-0.000000,0.000000,0.000000,0.000000,0.000000,-0.005340,0.003049,-0.000026,0.000000,0.000000,0.000000,0.000000,819,819,819,819
8652,0,-0.001091,0.000000,0.000000,0.00,0.00,0.000068,0.004000,0.000017,0.000000,0.000000,0.000000,0.000000,0.000000,-0.005340,0.003048,-0.000028,0.000000,0.000000,0.000000,0.000000,819,819,819,819
8662,0,-0.001091,0.000000,0.000000,0.00,0.00,0.000044,0.004000,0.000017,0.000000,0.000000,0.000000,0.000000,0.000000,-0.005340,0.003047,-0.000024,0.000000,0.000000,0.000000,0.000000,819,819,819,819
8673,0,-0.001091,0.000000,0.000000,0.00,0.00,0.000002,0.004000,0.000017,0.000000,0.000000,0.000000,0.000000,0.000000,-0.005340,0.003048,-0.000018,0.000000,0.000000,0.000000,0.000000,819,819,819,819
8683,0,-0.001091,0.000000,0.000000,0.00,0.00,-0.000052,0.005000,0.000017,0.000000,0.000000,0.000000,0.000000,0.000000,-0.005340,0.003048,-0.000009,0.000000,0.000000,0.000000,0.000000,819,819,819,819
8693,0,-0.001091,0.000000,0.000000,-0.00,-0.00,-0.000087,0.005000,0.000017,-0.000000,0.000000,0.000000,0.000000,0.000000,-0.005340,0.003048,-0.000002,0.000000,0.000000,0.000000,0.000000,819,819,819,819
8705,0,-0.001091,0.000000,0.000000,0.00,-0.00,-0.000110,0.034000,0.000017,-0.000000,0.000000,0.000000,0.000000,0.000000,-0.005340,0.003048,0.000002,0.042391,0.036289,0.031706,0.025614,853,889,861,881
8714,0,-0.001091,0.000000,0.000000,-0.00,-0.00,-0.000111,0.034000,0.000017,-0.000000,0.000000,0.000000,0.000000,0.000000,-0.005340,0.003048,0.000004,0.042392,0.036288,0.031704,0.025616,853,889,861,881
8723,0,-0.001091,0.000000,0.000000,0.00,0.00,-0.000079,0.053000,0.000018,0.000000,0.000000,0.000000,0.000000,0.000000,-0.005340,0.003048,0.000000,0.061388,0.055292,0.050708,0.044612,869,905,877,896
8733,0,-0.001091,0.000000,0.000000,0.00,-0.00,-0.000025,0.057000,0.000018,-0.000000,0.000000,0.000000,0.000000,0.000000,-0.005340,0.003048,-0.000008,0.065381,0.059300,0.054716,0.048604,872,908,880,899
8743,0,-0.001091,0.000000,0.000000,0.00,-0.00,0.000004,0.062000,0.000019,-0.000000,0.000000,0.000000,0.000000,0.000000,-0.005340,0.003049,-0.000012,0.070376,0.064304,0.059721,0.053599,876,912,884,904
8753,0,-0.001091,0.000000,0.000000,0.00,-0.00,0.000009,0.062000,0.000019,-0.000000,0.000000,0.000000,0.000000,0.000000,-0.005340,0.003048,-0.000013,0.070376,0.064305,0.059721,0.053598,876,912,884,904
8763,0,-0.001091,0.000000,0.000000,-0.00,0.00,-0.000007,0.081000,0.000019,0.000000,0.000000,0.000000,0.000000,0.000000,-0.005340,0.003048,-0.000011,0.089378,0.083303,0.078718,0.072601,892,928,900,919
8773,0,-0.001091,0.000000,0.000000,0.00,0.00,-0.000005,0.086000,0.000020,0.000000,0.000000,0.000000,0.000000,0.000000,-0.005340,0.003047,-0.000011,0.094377,0.088304,0.083717,0.077602,896,932,904,923
8783,0,-0.001091,0.000000,0.000000,-0.00,-0.00,0.000077,0.086000,0.000020,-0.000000,0.000000,0.000000,0.000000,0.000000,-0.005341,0.003049,-0.000024,0.094365,0.088316,0.083732,0.077586,896,932,904,923
8793,0,-0.001091,0.000000,0.000000,-0.00,-0.00,0.000123,0.086000,0.000020,-0.000000,0.000000,0.000000,0.000000,0.000000,-0.005341,0.003049,-0.000033,0.094357,0.088325,0.083742,0.077577,896,932,904,923
8803,0,-0.001091,0.000000,0.000000,-0.00,-0.00,0.000033,0.092000,0.000021,-0.000000,0.000000,0.000000,0.000000,0.000000,-0.005341,0.003048,-0.000020,0.100370,0.094313,0.089727,0.083591,901,937,909,928
8813,0,-0.001091,0.000000,0.000000,-0.00,0.00,0.000042,0.093000,0.000021,0.000000,0.000000,0.000000,0.000000,0.000000,-0.005341,0.003048,-0.000022,0.101368,0.095315,0.090728,0.084589,902,938,909,929
8823,0,-0.001091,0.000000,0.000000,-0.00,0.00,0.000154,0.093000,0.000022,0.000000,0.000000,0.000000,0.000000,0.000000,-0.005341,0.003048,-0.000041,0.101349,0.095334,0.090748,0.084570,902,938,909,929
8833,0,-0.001091,0.000000,0.000000,0.00,0.00,0.000073,0.093000,0.000023,0.000001,0.000000,0.000000,0.000000,0.000000,-0.005341,0.003046,-0.000029,0.101357,0.095325,0.090734,0.084584,902,938,909,929
8843,0,-0.001091,-0.001091,0.000000,0.00,-0.07,0.000061,0.093000,0.000023,-0.000670,0.000000,0.000000,0.000000,0.000000,-0.005341,0.004687,-0.000028,0.103000,0.093683,0.092374,0.082944,903,936,911,928
8853,0,-0.001091,-0.001091,0.000000,-0.00,0.00,0.000013,0.093000,0.000023,0.000040,0.000000,0.000000,0.000000,0.000000,-0.005342,0.003203,-0.000021,0.101523,0.095160,0.090882,0.084434,902,938,909,929
8863,0,-0.001091,-0.001091,0.000000,0.00,-0.00,-0.000105,0.093000,0.000024,0.000039,0.000000,0.000000,0.000000,0.000000,-0.005341,0.003204,-0.000002,0.101544,0.095139,0.090865,0.084453,902,938,909,929
8873,0,-0.001091,-0.001091,0.000000,0.00,0.00,-0.000221,0.094000,0.000025,0.000040,0.000000,0.000000,0.000000,0.000000,-0.005341,0.003204,0.000019,0.102564,0.096118,0.091844,0.085474,903,938,910,930
8883,0,-0.001091,-0.001091,0.000000,0.00,0.00,-0.000237,0.094000,0.000025,0.000041,0.000000,0.000000,0.000000,0.000000,-0.005341,0.003203,0.000025,0.102569,0.096113,0.091837,0.085480,903,938,910,930
8893,0,-0.001091,-0.001091,0.000000,0.00,0.00,-0.000267,0.094000,0.000025,0.000041,0.000000,0.000000,0.000000,0.000000,-0.005341,0.003204,0.000033,0.102578,0.096105,0.091830,0.085488,903,938,910,930
8903,0,0.000000,-0.001091,0.000000,0.07,0.00,-0.000260,0.093000,0.000718,0.000042,0.000000,0.000000,0.000000,0.000000,-0.004459,0.003204,0.000035,0.100698,0.094220,0.091709,0.085372,901,937,910,930
8913,0,0.000000,-0.001091,0.000000,-0.00,0.00,-0.000249,0.093000,0.000009,0.000042,0.000000,0.000000,0.000000,0.000000,-0.005123,0.003204,0.000037,0.101364,0.094882,0.091044,0.084710,902,937,910,929
8923,0,0.000000,-0.001091,0.000000,-0.00,0.00,-0.000235,0.093000,0.000008,0.000043,0.000000,0.000000,0.000000,0.000000,-0.005123,0.003204,0.000038,0.101365,0.094881,0.091044,0.084711,902,937,910,929
8938,0,0.000000,-0.001091,0.000000,-0.00,0.00,-0.000246,0.093000,0.000008,0.000043,0.000000,0.000000,0.000000,0.000000,-0.005123,0.003204,0.000043,0.101370,0.094877,0.091038,0.084716,902,937,910,929
8948,0,0.000000,-0.001091,0.000000,-0.00,0.00,-0.000327,0.093000,0.000008,0.000044,0.000000,0.000000,0.000000,0.000000,-0.005124,0.003204,0.000060,0.101388,0.094861,0.091020,0.084732,902,937,910,929
8959,0,0.001091,-0.001091,0.001091,0.06,0.00,-0.000679,0.093000,0.000635,0.000045,0.000000,0.000000,0.000000,0.000000,-0.004322,0.003203,0.000123,0.100648,0.093997,0.091758,0.085597,901,937,910,930
8970,0,0.002182,-0.001091,0.001091,0.06,0.00,-0.001161,0.093000,0.000616,0.000045,0.000000,0.000000,0.000000,0.000000,-0.004124,0.003203,0.000212,0.100539,0.093708,0.091868,0.085885,901,936,910,930
8982,0,0.003272,-0.001091,0.001091,0.06,0.00,-0.001201,0.093000,0.000545,0.000046,0.000000,0.000000,0.000000,0.000000,-0.003990,0.003203,0.000235,0.100428,0.093552,0.091979,0.086041,901,936,910,930
8991,0,0.002182,-0.001091,0.002182,-0.08,0.00,-0.000634,0.093000,-0.000817,0.000046,0.000000,0.000000,0.000000,0.000000,-0.005524,0.003203,0.000156,0.101883,0.095165,0.090523,0.084429,902,938,909,929
9001,0,0.002182,-0.001091,0.002182,-0.00,0.00,-0.000046,0.093000,-0.000029,0.000046,0.000000,0.000000,0.000000,0.000000,-0.004786,0.003204,0.000067,0.101057,0.094516,0.091351,0.085076,901,937,910,929
9012,0,0.002182,-0.001091,0.002182,-0.00,-0.00,0.000264,0.093000,-0.000030,0.000046,0.000000,0.000000,0.000000,0.000000,-0.004787,0.003206,0.000016,0.101008,0.094565,0.091404,0.085023,901,937,910,929
9024,0,0.002182,-0.001091,0.002182,0.00,-0.00,-0.000002,0.093000,-0.000030,0.000047,0.000000,0.000000,0.000000,0.000000,-0.004786,0.003205,0.000056,0.101047,0.094525,0.091363,0.085065,901,937,910,929
9034,0,0.002182,-0.001091,0.002182,-0.00,0.00,-0.000155,0.093000,-0.000032,0.000048,0.000000,0.000000,0.000000,0.000000,-0.004787,0.003203,0.000082,0.101072,0.094501,0.091335,0.085092,901,937,910,929
9044,0,0.002182,-0.001091,0.002182,-0.00,0.00,-0.000087,0.093000,-0.000033,0.000048,0.000000,0.000000,0.000000,0.000000,-0.004787,0.003204,0.000073,0.101064,0.094510,0.091344,0.085082,901,937,910,929
9054,0,0.002182,-0.001091,0.002182,-0.00,0.00,0.000057,0.093000,-0.000035,0.000049,0.000000,0.000000,0.000000,0.000000,-0.004788,0.003203,0.000050,0.101042,0.094535,0.091365,0.085058,901,937,910,929
9064,0,0.002182,-0.001091,0.002182,-0.00,0.00,0.000150,0.093000,-0.000036,0.000049,0.000000,0.000000,0.000000,0.000000,-0.004789,0.003205,0.000034,0.101028,0.094551,0.091382,0.085039,901,937,910,929
9074,0,0.002182,-0.001091,0.002182,-0.00,-0.00,0.000104,0.093000,-0.000038,0.000049,0.000000,0.000000,0.000000,0.000000,-0.004791,0.003206,0.000039,0.101035,0.094546,0.091376,0.085043,901,937,910,929
9084,0,0.002182,-0.001091,0.003272,-0.00,0.00,0.000141,0.093000,-0.000038,0.000050,0.000000,0.000000,0.000000,0.000000,-0.004791,0.003205,0.000032,0.101027,0.094554,0.091383,0.085036,901,937,910,929
9093,0,0.001091,-0.001091,0.003272,-0.08,-0.00,0.000092,0.093000,-0.000810,0.000050,0.000000,0.000000,0.000000,0.000000,-0.005776,0.003206,0.000038,0.102020,0.095532,0.090392,0.084055,902,938,909,928
9104,0,0.001091,-0.001091,0.003272,-0.00,0.00,0.000113,0.093000,-0.000022,0.000051,0.000000,0.000000,0.000000,0.000000,-0.005040,0.003205,0.000033,0.101278,0.094801,0.091132,0.084788,902,937,910,929
9114,0,0.001091,-0.001091,0.004363,-0.00,0.00,0.000080,0.093000,-0.000023,0.000051,0.000000,0.000000,0.000000,0.000000,-0.005041,0.003206,0.000037,0.101283,0.094798,0.091128,0.084791,902,937,910,929
9124,0,0.001091,-0.001091,0.004363,-0.00,0.00,0.000159,0.093000,-0.000023,0.000052,0.000000,0.000000,0.000000,0.000000,-0.005041,0.003206,0.000023,0.101269,0.094812,0.091142,0.084776,902,937,910,929
9134,0,0.001091,-0.001091,0.004363,-0.00,0.00,0.000136,0.093000,-0.000024,0.000053,0.000000,0.000000,0.000000,0.000000,-0.005042,0.003205,0.000024,0.101271,0.094813,0.091138,0.084778,902,937,910,929
9143,0,0.001091,-0.001091,0.004363,-0.00,0.00,0.000202,0.093000,-0.000024,0.000053,0.000000,0.000000,0.000000,0.000000,-0.005042,0.003205,0.000012,0.101258,0.094826,0.091151,0.084765,902,937,910,929
9153,0,0.001091,-0.001091,0.005454,-0.00,0.00,0.000058,0.093000,-0.000024,0.000053,0.000000,0.000000,0.000000,0.000000,-0.005042,0.003206,0.000033,0.101281,0.094804,0.091131,0.084785,902,937,910,929
9164,0,0.001091,-0.001091,0.005454,-0.00,-0.00,0.000151,0.093000,-0.000024,0.000053,0.000000,0.000000,0.000000,0.000000,-0.005042,0.003207,0.000016,0.101265,0.094819,0.091148,0.084767,902,937,910,929
9174,0,0.001091,-0.001091,0.005454,-0.00,-0.00,0.000065,0.093000,-0.000025,0.000054,0.000000,0.000000,0.000000,0.000000,-0.005043,0.003208,0.000029,0.101280,0.094806,0.091137,0.084778,902,937,910,929
9184,0,0.001091,-0.001091,0.005454,-0.00,-0.00,0.000082,0.093000,-0.000025,0.000054,0.000000,0.000000,0.000000,0.000000,-0.005042,0.003208,0.000025,0.101275,0.094810,0.091140,0.084775,902,937,910,929
9194,0,0.001091,-0.001091,0.005454,-0.00,0.00,0.000127,0.093000,-0.000026,0.000056,0.000000,0.000000,0.000000,0.000000,-0.005044,0.003206,0.000016,0.101266,0.094822,0.091145,0.084767,902,937,910,929
9204,0,0.001091,-0.001091,0.006545,-0.00,0.00,0.000149,0.093000,-0.000026,0.000056,0.000000,0.000000,0.000000,0.000000,-0.005043,0.003206,0.000011,0.101261,0.094826,0.091152,0.084761,902,937,910,929
9214,0,0.001091,-0.001091,0.006545,-0.00,0.00,0.000223,0.093000,-0.000026,0.000057,0.000000,0.000000,0.000000,0.000000,-0.005043,0.003205,-0.000004,0.101245,0.094842,0.091165,0.084748,902,937,910,929
9224,0,0.001091,-0.001091,0.006545,-0.00,-0.00,0.000219,0.093000,-0.000027,0.000057,0.000000,0.000000,0.000000,0.000000,-0.005044,0.003207,-0.000006,0.101245,0.094843,0.091169,0.084743,902,937,910,929
9234,0,0.001091,-0.001091,0.006545,-0.00,-0.00,0.000209,0.093000,-0.000027,0.000057,0.000000,0.000000,0.000000,0.000000,-0.005044,0.003207,-0.000007,0.101244,0.094844,0.091171,0.084742,902,937,910,929
9244,0,0.001091,-0.001091,0.006545,-0.00,-0.00,0.000096,0.093000,-0.000028,0.000058,0.000000,0.000000,0.000000,0.000000,-0.005044,0.003208,0.000009,0.101261,0.094828,0.091155,0.084756,902,937,910,929
9261,0,0.001091,-0.001091,0.007636,-0.00,-0.00,0.000089,0.093000,-0.000028,0.000058,0.000000,0.000000,0.000000,0.000000,-0.005045,0.003208,0.000009,0.101261,0.094829,0.091154,0.084756,902,937,910,929
9273,0,0.001091,-0.001091,0.007636,-0.00,0.00,-0.000009,0.093000,-0.000028,0.000059,0.000000,0.000000,0.000000,0.000000,-0.005045,0.003207,0.000024,0.101276,0.094814,0.091139,0.084772,902,937,910,929
9284,0,0.001091,-0.001091,0.007636,-0.00,-0.00,-0.000039,0.093000,-0.000029,0.000059,0.000000,0.000000,0.000000,0.000000,-0.005045,0.003209,0.000029,0.101283,0.094807,0.091135,0.084775,902,937,910,929
9294,0,0.001091,-0.001091,0.007636,-0.00,-0.00,0.000048,0.093000,-0.000029,0.000060,0.000000,0.000000,0.000000,0.000000,-0.005045,0.003208,0.000015,0.101268,0.094821,0.091149,0.084762,902,937,910,929
9304,0,0.001091,-0.001091,0.007636,-0.00,-0.00,-0.000155,0.093000,-0.000030,0.000060,0.000000,0.000000,0.000000,0.000000,-0.005046,0.003209,0.000048,0.101302,0.094789,0.091115,0.084794,902,937,910,929
9314,0,0.001091,-0.001091,0.007636,-0.00,0.00,-0.000121,0.093000,-0.000030,0.000061,0.000000,0.000000,0.000000,0.000000,-0.005045,0.003207,0.000045,0.101297,0.094793,0.091118,0.084792,902,937,910,929
9324,0,0.001091,-0.001091,0.007636,-0.00,0.00,-0.000072,0.093000,-0.000030,0.000062,0.000000,0.000000,0.000000,0.000000,-0.005045,0.003208,0.000038,0.101291,0.094799,0.091125,0.084785,902,937,910,929
9334,0,0.001091,-0.001091,0.007636,-0.00,0.00,0.000007,0.093000,-0.000031,0.000062,0.000000,0.000000,0.000000,0.000000,-0.005045,0.003209,0.000026,0.101280,0.094811,0.091137,0.084772,902,937,910,929
9344,0,0.001091,-0.001091,0.007636,-0.00,0.00,0.000044,0.093000,-0.000031,0.000063,0.000000,0.000000,0.000000,0.000000,-0.005046,0.003209,0.000020,0.101274,0.094817,0.091143,0.084765,902,937,910,929
9354,0,0.001091,-0.001091,0.007636,-0.00,0.00,0.000195,0.093000,-0.000031,0.000063,0.000000,0.000000,0.000000,0.000000,-0.005045,0.003209,-0.000006,0.101247,0.094842,0.091170,0.084740,902,937,910,929
9364,0,0.001091,-0.001091,0.007636,-0.00,-0.00,0.000294,0.093000,-0.000033,0.000063,0.000000,0.000000,0.000000,0.000000,-0.005046,0.003209,-0.000025,0.101230,0.094862,0.091189,0.084719,902,937,910,929
9374,0,0.000000,-0.001091,0.008727,-0.07,-0.00,0.000277,0.093000,-0.000725,0.000063,0.000000,0.000000,0.000000,0.000000,-0.005938,0.003210,-0.000027,0.102122,0.095755,0.090299,0.083824,902,938,909,928
9384,0,0.000000,-0.001091,0.008727,-0.00,-0.00,0.000180,0.093000,-0.000016,0.000064,0.000000,0.000000,0.000000,0.000000,-0.005277,0.003210,-0.000015,0.101472,0.095081,0.090948,0.084499,902,937,910,929
9394,0,0.000000,-0.001091,0.008727,-0.00,0.00,0.000037,0.093000,-0.000015,0.000065,0.000000,0.000000,0.000000,0.000000,-0.005276,0.003209,0.000007,0.101492,0.095060,0.090926,0.084522,902,937,910,929
9404,0,0.000000,-0.001091,0.008727,0.00,0.00,-0.000002,0.093000,-0.000015,0.000066,0.000000,0.000000,0.000000,0.000000,-0.005276,0.003208,0.000013,0.101497,0.095055,0.090919,0.084529,902,937,910,929
9414,0,0.000000,-0.001091,0.008727,-0.00,0.00,0.000098,0.093000,-0.000016,0.000067,0.000000,0.000000,0.000000,0.000000,-0.005277,0.003208,-0.000004,0.101481,0.095072,0.090935,0.084511,902,937,910,929
9424,0,0.000000,-0.001091,0.008727,-0.00,0.00,0.000324,0.093000,-0.000016,0.000067,0.000000,0.000000,0.000000,0.000000,-0.005277,0.003210,-0.000043,0.101444,0.095110,0.090976,0.084470,902,938,910,929
9435,0,0.000000,-0.001091,0.008727,-0.00,-0.00,0.000337,0.093000,-0.000016,0.000067,0.000000,0.000000,0.000000,0.000000,-0.005277,0.003210,-0.000050,0.101438,0.095117,0.090983,0.084463,902,938,910,929
9444,0,0.000000,-0.001091,0.008727,-0.00,-0.00,0.000259,0.094000,-0.000015,0.000068,0.000000,0.000000,0.000000,0.000000,-0.005277,0.003210,-0.000041,0.102446,0.096108,0.091975,0.085471,903,938,910,930
9454,0,0.000000,-0.001091,0.008727,-0.00,-0.00,0.000048,0.094000,-0.000016,0.000068,0.000000,0.000000,0.000000,0.000000,-0.005278,0.003211,-0.000010,0.102478,0.096077,0.091943,0.085502,903,938,910,930
9464,0,0.000000,-0.001091,0.008727,-0.00,0.00,-0.000148,0.094000,-0.000016,0.000069,0.000000,0.000000,0.000000,0.000000,-0.005277,0.003210,0.000022,0.102510,0.096044,0.091911,0.085535,903,938,910,930
9475,0,0.000000,-0.001091,0.008727,-0.00,0.00,-0.000190,0.094000,-0.000016,0.000070,0.000000,0.000000,0.000000,0.000000,-0.005278,0.003209,0.000031,0.102518,0.096037,0.091900,0.085545,903,938,910,930
9485,0,0.000000,-0.001091,0.008727,-0.00,0.00,-0.000237,0.094000,-0.000016,0.000071,0.000000,0.000000,0.000000,0.000000,-0.005278,0.003209,0.000042,0.102529,0.096027,0.091889,0.085555,903,938,910,930
9494,0,0.000000,-0.002182,0.008727,-0.00,-0.08,-0.000214,0.094000,-0.000015,-0.000679,0.000000,0.000000,0.000000,0.000000,-0.005278,0.005038,0.000041,0.104357,0.094198,0.093719,0.083726,904,937,912,928
9504,0,0.000000,-0.002182,0.008727,-0.00,-0.00,-0.000192,0.094000,-0.000015,0.000110,0.000000,0.000000,0.000000,0.000000,-0.005277,0.003397,0.000041,0.102716,0.095839,0.092079,0.085366,903,938,910,930
9514,0,0.000000,-0.002182,0.008727,0.00,-0.00,-0.000092,0.094000,-0.000015,0.000110,0.000000,0.000000,0.000000,0.000000,-0.005277,0.003399,0.000027,0.102703,0.095852,0.092095,0.085351,903,938,910,930
9524,0,0.000000,-0.002182,0.008727,-0.00,-0.00,-0.000040,0.094000,-0.000015,0.000111,0.000000,0.000000,0.000000,0.000000,-0.005277,0.003400,0.000019,0.102697,0.095858,0.092103,0.085342,903,938,910,930
9535,0,0.000000,-0.001091,0.008727,0.00,0.06,0.000048,0.094000,-0.000015,0.000719,0.000000,0.000000,0.000000,0.000000,-0.005277,0.001903,0.000005,0.101184,0.097369,0.090621,0.086826,902,939,909,931
9547,0,0.000000,-0.002182,0.009817,-0.00,-0.06,0.000231,0.094000,-0.000016,-0.000477,0.000000,0.000000,0.000000,0.000000,-0.005278,0.004615,-0.000026,0.103867,0.094689,0.093363,0.084081,904,937,912,928
9556,0,0.000000,-0.002182,0.009817,-0.00,0.00,0.000477,0.095000,-0.000016,0.000115,0.000000,0.000000,0.000000,0.000000,-0.005278,0.003385,-0.000070,0.103592,0.096963,0.093178,0.086267,904,939,911,930
9573,0,-0.001091,-0.002182,0.009817,-0.04,0.00,0.000476,0.095000,-0.000416,0.000116,0.000000,0.000000,0.000000,0.000000,-0.005805,0.003385,-0.000077,0.104113,0.097497,0.092657,0.085732,904,939,911,930
9584,0,-0.001091,-0.002182,0.009817,0.00,-0.00,0.000316,0.096000,0.000002,0.000116,0.000000,0.000000,0.000000,0.000000,-0.005416,0.003388,-0.000057,0.104746,0.098085,0.094029,0.087139,904,940,912,931
9594,0,-0.001091,-0.002182,0.009817,-0.00,-0.00,0.000266,0.096000,0.000002,0.000117,0.000000,0.000000,0.000000,0.000000,-0.005416,0.003389,-0.000053,0.104752,0.098081,0.094026,0.087142,904,940,912,931
9605,0,-0.001091,-0.001091,0.009817,-0.00,0.06,0.000106,0.105000,0.000003,0.000725,0.000000,0.000000,0.000000,0.000000,-0.005416,0.001890,-0.000030,0.112276,0.108557,0.101504,0.097663,911,949,918,940
9615,0,-0.001091,-0.001091,0.009817,-0.00,0.00,-0.000238,0.105000,0.000003,0.000082,0.000000,0.000000,0.000000,0.000000,-0.005417,0.003231,0.000026,0.113674,0.107160,0.102789,0.096378,912,947,919,939
9625,0,0.000000,-0.002182,0.009817,0.07,-0.07,-0.000454,0.105000,0.000696,-0.000588,0.000000,0.000000,0.000000,0.000000,-0.004518,0.004876,0.000065,0.114460,0.104577,0.105293,0.095670,912,945,921,938
9635,0,0.000000,-0.002182,0.008727,-0.00,0.00,-0.000595,0.109000,-0.000013,0.000122,0.000000,0.000000,0.000000,0.000000,-0.005180,0.003401,0.000095,0.117677,0.110683,0.107126,0.100514,915,950,923,942
9645,0,0.001091,-0.002182,0.008727,0.07,-0.00,-0.000493,0.109000,0.000679,0.000122,0.000000,0.000000,0.000000,0.000000,-0.004282,0.003404,0.000087,0.116772,0.109791,0.108035,0.101402,914,950,924,943
9655,0,0.001091,-0.002182,0.008727,-0.00,-0.00,-0.000287,0.109000,-0.000030,0.000123,0.000000,0.000000,0.000000,0.000000,-0.004943,0.003404,0.000060,0.117407,0.110479,0.107402,0.100712,915,950,923,942
9665,0,0.001091,-0.002182,0.008727,-0.00,-0.00,-0.000047,0.109000,-0.000031,0.000124,0.000000,0.000000,0.000000,0.000000,-0.004943,0.003405,0.000024,0.117371,0.110515,0.107438,0.100676,915,950,923,942
9675,0,0.001091,-0.002182,0.008727,0.00,-0.00,0.000196,0.109000,-0.000031,0.000125,0.000000,0.000000,0.000000,0.000000,-0.004942,0.003405,-0.000017,0.117330,0.110554,0.107479,0.100637,915,950,923,942
9685,0,0.000000,-0.002182,0.008727,-0.07,-0.00,0.000294,0.109000,-0.000724,0.000126,0.000000,0.000000,0.000000,0.000000,-0.005841,0.003405,-0.000036,0.118211,0.111472,0.106600,0.099718,915,951,922,941
9696,0,0.000000,-0.002182,0.009817,0.00,-0.00,0.000324,0.109000,-0.000015,0.000127,0.000000,0.000000,0.000000,0.000000,-0.005180,0.003407,-0.000045,0.117542,0.110819,0.107271,0.100368,915,950,923,942
9706,0,0.000000,-0.002182,0.009817,-0.00,0.00,0.000138,0.109000,-0.000016,0.000129,0.000000,0.000000,0.000000,0.000000,-0.005182,0.003405,-0.000019,0.117568,0.110795,0.107242,0.100395,915,950,923,942
9715,0,0.000000,-0.002182,0.009817,-0.00,0.00,0.000156,0.109000,-0.000015,0.000129,0.000000,0.000000,0.000000,0.000000,-0.005181,0.003406,-0.000024,0.117564,0.110799,0.107248,0.100389,915,950,923,942
9725,0,0.000000,-0.002182,0.009817,-0.00,0.00,0.000241,0.109000,-0.000015,0.000130,0.000000,0.000000,0.000000,0.000000,-0.005182,0.003406,-0.000040,0.117548,0.110816,0.107265,0.100372,915,950,923,942
9735,0,0.000000,-0.002182,0.009817,0.00,-0.00,-0.000016,0.109000,-0.000014,0.000131,0.000000,0.000000,0.000000,0.000000,-0.005180,0.003407,-0.000000,0.117587,0.110774,0.107227,0.100412,915,950,923,942
9746,0,0.000000,-0.002182,0.009817,0.00,0.00,-0.000171,0.109000,-0.000015,0.000133,0.000000,0.000000,0.000000,0.000000,-0.005181,0.003406,0.000026,0.117613,0.110749,0.107200,0.100438,915,950,923,942
9756,0,0.000000,-0.002182,0.009817,-0.00,0.00,-0.000151,0.110000,-0.000015,0.000135,0.000000,0.000000,0.000000,0.000000,-0.005182,0.003404,0.000025,0.118611,0.111752,0.108198,0.101439,916,951,924,943
9765,0,0.000000,-0.002182,0.009817,-0.00,0.00,-0.000098,0.110000,-0.000015,0.000135,0.000000,0.000000,0.000000,0.000000,-0.005181,0.003406,0.000018,0.118606,0.111757,0.108207,0.101431,916,951,924,943
9775,0,0.000000,-0.002182,0.009817,0.00,0.00,-0.000010,0.110000,-0.000014,0.000136,0.000000,0.000000,0.000000,0.000000,-0.005181,0.003407,0.000005,0.118593,0.111769,0.108222,0.101417,916,951,924,943
9785,0,0.000000,-0.002182,0.009817,0.00,-0.00,0.000286,0.110000,-0.000015,0.000136,0.000000,0.000000,0.000000,0.000000,-0.005181,0.003410,-0.000045,0.118546,0.111815,0.108274,0.101364,916,951,924,943
9797,0,0.000000,-0.002182,0.009817,-0.00,-0.00,0.000386,0.111000,-0.000015,0.000138,0.000000,0.000000,0.000000,0.000000,-0.005181,0.003409,-0.000066,0.119525,0.112838,0.109293,0.102344,917,952,925,943
9806,0,-0.001091,-0.002182,0.009817,-0.08,-0.00,0.000451,0.111000,-0.000786,0.000139,0.000000,0.000000,0.000000,0.000000,-0.006183,0.003409,-0.000082,0.120510,0.113856,0.108308,0.101325,917,953,924,943
9815,0,-0.001091,-0.002182,0.009817,-0.00,0.00,0.000366,0.111000,0.000002,0.000141,0.000000,0.000000,0.000000,0.000000,-0.005450,0.003408,-0.000075,0.119783,0.113117,0.109033,0.102068,917,952,924,943
9825,0,-0.001091,-0.002182,0.009817,0.00,0.00,0.000238,0.124000,0.000003,0.000141,0.000000,0.000000,0.000000,0.000000,-0.005449,0.003409,-0.000059,0.132800,0.126098,0.122019,0.115083,927,963,935,954
9835,0,-0.001091,-0.002182,0.009817,0.00,0.00,0.000048,0.124000,0.000004,0.000142,0.000000,0.000000,0.000000,0.000000,-0.005449,0.003409,-0.000030,0.132828,0.126070,0.121990,0.115111,927,963,935,954
9845,0,-0.001091,-0.002182,0.009817,0.00,-0.00,-0.000042,0.124000,0.000004,0.000143,0.000000,0.000000,0.000000,0.000000,-0.005449,0.003411,-0.000016,0.132845,0.126054,0.121978,0.115124,927,963,935,954
9855,0,-0.001091,-0.002182,0.009817,-0.00,-0.00,-0.000087,0.124000,0.000004,0.000144,0.000000,0.000000,0.000000,0.000000,-0.005450,0.003411,-0.000008,0.132853,0.126047,0.121969,0.115132,927,963,935,954
9865,0,-0.001091,-0.002182,0.009817,-0.00,-0.00,-0.000117,0.127000,0.000005,0.000145,0.000000,0.000000,0.000000,0.000000,-0.005450,0.003411,-0.000001,0.135860,0.129040,0.124963,0.118137,930,965,937,956
9875,0,-0.001091,-0.002182,0.009817,0.00,0.00,-0.000009,0.128000,0.000006,0.000147,0.000000,0.000000,0.000000,0.000000,-0.005450,0.003411,-0.000018,0.136843,0.130056,0.125979,0.119122,931,966,938,957
9890,0,-0.001091,-0.002182,0.009817,-0.00,0.00,-0.000079,0.128000,0.000006,0.000148,0.000000,0.000000,0.000000,0.000000,-0.005450,0.003411,-0.000006,0.136856,0.130044,0.125967,0.119133,931,966,938,957
9900,0,-0.001091,-0.002182,0.009817,-0.00,0.00,0.000175,0.128000,0.000006,0.000150,0.000000,0.000000,0.000000,0.000000,-0.005450,0.003409,-0.000047,0.136812,0.130088,0.126006,0.119093,931,966,938,957
9911,0,-0.001091,-0.002182,0.009817,-0.00,0.00,0.000340,0.128000,0.000007,0.000151,0.000000,0.000000,0.000000,0.000000,-0.005451,0.003409,-0.000078,0.136782,0.130119,0.126037,0.119062,931,966,938,957
9923,0,-0.001091,-0.002182,0.009817,0.00,-0.00,0.000314,0.128000,0.000008,0.000151,0.000000,0.000000,0.000000,0.000000,-0.005450,0.003413,-0.000078,0.136785,0.130115,0.126041,0.119059,931,966,938,957
9934,0,-0.002182,-0.002182,0.009817,-0.06,-0.00,0.000284,0.128000,-0.000620,0.000151,0.000000,0.000000,0.000000,0.000000,-0.006272,0.003415,-0.000078,0.137609,0.130935,0.125221,0.118235,931,967,938,956
9944,0,-0.001091,-0.002182,0.009817,0.07,0.00,-0.000022,0.129000,0.000718,0.000153,0.000000,0.000000,0.000000,0.000000,-0.004768,0.003413,-0.000031,0.137150,0.130386,0.127676,0.120788,931,966,940,959
9955,0,-0.001091,-0.002182,0.009817,-0.00,0.00,-0.000267,0.129000,0.000008,0.000155,0.000000,0.000000,0.000000,0.000000,-0.005429,0.003411,0.000011,0.137851,0.131007,0.126971,0.120170,932,967,939,958
9966,0,-0.001091,-0.002182,0.009817,-0.00,0.00,-0.000027,0.130000,0.000009,0.000155,0.000000,0.000000,0.000000,0.000000,-0.005429,0.003414,-0.000026,0.138817,0.132041,0.128010,0.121132,932,968,940,959
9976,0,-0.001091,-0.002182,0.009817,-0.00,0.00,0.000002,0.130000,0.000010,0.000156,0.000000,0.000000,0.000000,0.000000,-0.005429,0.003414,-0.000030,0.138813,0.132045,0.128015,0.121127,932,968,940,959
9986,0,-0.001091,-0.002182,0.009817,0.00,0.00,-0.000365,0.130000,0.000011,0.000158,0.000000,0.000000,0.000000,0.000000,-0.005428,0.003413,0.000031,0.138873,0.131984,0.127954,0.121190,932,968,940,959
9996,0,0.000000,-0.002182,0.009817,0.07,-0.00,-0.000224,0.133000,0.000704,0.000157,0.000000,0.000000,0.000000,0.000000,-0.004523,0.003418,0.000013,0.140954,0.134092,0.131882,0.125073,934,969,943,962
10006,0,0.000000,-0.002182,0.009817,0.00,-0.00,-0.000032,0.136000,-0.000005,0.000159,0.000000,0.000000,0.000000,0.000000,-0.005183,0.003416,-0.000016,0.144583,0.137782,0.134249,0.127386,937,972,945,964
10015,0,0.000000,-0.002182,0.009817,-0.00,0.00,0.000252,0.136000,-0.000006,0.000161,0.000000,0.000000,0.000000,0.000000,-0.005183,0.003415,-0.000063,0.144535,0.137831,0.134294,0.127339,937,973,945,964
10026,0,-0.001091,-0.002182,0.009817,-0.06,0.00,0.000231,0.140000,-0.000634,0.000163,0.000000,0.000000,0.000000,0.000000,-0.006008,0.003414,-0.000063,0.149358,0.142657,0.137469,0.130516,941,976,948,967
10036,0,-0.001091,-0.002182,0.009817,-0.00,0.00,-0.000117,0.140000,0.000011,0.000163,0.000000,0.000000,0.000000,0.000000,-0.005408,0.003415,-0.000008,0.148815,0.142001,0.138015,0.131168,941,976,948,967
10045,0,0.000000,-0.002182,0.010908,0.08,-0.00,-0.000396,0.143000,0.000783,0.000164,0.000000,0.000000,0.000000,0.000000,-0.004401,0.003417,0.000040,0.150858,0.143943,0.141976,0.135223,942,978,951,970
10055,0,0.000000,-0.002182,0.010908,-0.00,-0.00,-0.000284,0.143000,-0.000005,0.000165,0.000000,0.000000,0.000000,0.000000,-0.005134,0.003418,0.000028,0.151579,0.144688,0.141257,0.134476,943,978,951,970
10066,0,0.000000,-0.002182,0.010908,0.00,-0.00,-0.000065,0.145000,-0.000004,0.000166,0.000000,0.000000,0.000000,0.000000,-0.005133,0.003419,-0.000005,0.153547,0.146720,0.143290,0.136443,944,980,952,971
10076,0,0.000000,-0.002182,0.010908,-0.00,0.00,0.000011,0.146000,-0.000005,0.000168,0.000000,0.000000,0.000000,0.000000,-0.005133,0.003417,-0.000017,0.154533,0.147733,0.144300,0.137433,945,981,953,972
10086,0,0.000000,-0.003272,0.010908,-0.00,-0.07,0.000127,0.146000,-0.000005,-0.000502,0.000000,0.000000,0.000000,0.000000,-0.005134,0.005070,-0.000036,0.156168,0.146100,0.145973,0.135760,947,979,955,971
