t,is_crashed,roll,pitch,yaw,p,q,r,throttle,p_cmd,q_cmd,r_cmd,roll_cmd,pitch_cmd,yaw_cmd,roll_pid_out,pitch_pid_out,yaw_pid_out,motor_fl,motor_bl,motor_fr,motor_br,pwm_fl,pwm_bl,pwm_fr,pwm_br
6944,0,0.013090,-0.007636,0.000000,0.00,-0.00,-0.000015,0.005000,-0.000266,0.000384,0.000000,0.000000,0.000000,0.000000,0.000227,0.000550,0.000002,0.000000,0.000000,0.000000,0.000000,0,0,0,0
6960,0,0.000000,0.000000,0.000000,-0.82,0.48,0.000012,0.005000,-0.001640,0.002866,0.000000,0.000000,0.000000,0.000000,-0.300000,-0.300000,-0.000002,0.000000,0.000000,0.000000,0.000000,819,819,819,819
6975,0,0.000000,0.000000,0.000000,0.00,0.00,-0.000013,0.005000,0.000000,0.000000,0.000000,0.000000,0.000000,0.000000,-0.019885,-0.082481,0.000002,0.000000,0.000000,0.000000,0.000000,819,819,819,819
6987,0,0.000000,0.000000,0.000000,0.00,0.00,-0.000018,0.005000,0.000000,0.000000,0.000000,0.000000,0.000000,0.000000,-0.019885,-0.082481,0.000003,0.000000,0.000000,0.000000,0.000000,819,819,819,819
7001,0,0.000000,0.000000,0.000000,0.00,0.00,-0.000019,0.005000,0.000000,0.000000,0.000000,0.000000,0.000000,0.000000,-0.019885,-0.082481,0.000003,0.000000,0.000000,0.000000,0.000000,819,819,819,819
7014,0,0.000000,0.000000,0.000000,0.00,0.00,-0.000004,0.005000,0.000000,0.000000,0.000000,0.000000,0.000000,0.000000,-0.019885,-0.082481,0.000000,0.000000,0.000000,0.000000,0.000000,819,819,819,819
7030,0,0.000000,0.000000,0.000000,0.00,0.00,-0.000000,0.005000,0.000000,0.000000,0.000000,0.000000,0.000000,0.000000,-0.019885,-0.082481,0.000000,0.000000,0.000000,0.000000,0.000000,819,819,819,819
7045,0,0.000000,0.000000,0.000000,0.00,0.00,0.000015,0.005000,0.000000,0.000000,0.000000,0.000000,0.000000,0.000000,-0.019885,-0.082481,-0.000002,0.000000,0.000000,0.000000,0.000000,819,819,819,819
7057,0,0.000000,0.000000,0.000000,0.00,0.00,0.000003,0.005000,0.000000,0.000000,0.000000,0.000000,0.000000,0.000000,-0.019885,-0.082481,-0.000000,0.000000,0.000000,0.000000,0.000000,819,819,819,819
7074,0,0.000000,0.000000,0.000000,0.00,0.00,-0.000015,0.005000,0.000000,0.000000,0.000000,0.000000,0.000000,0.000000,-0.019885,-0.082481,0.000002,0.000000,0.000000,0.000000,0.000000,819,819,819,819
7088,0,0.000000,0.000000,0.000000,0.00,0.00,0.000028,0.005000,0.000000,0.000000,0.000000,0.000000,0.000000,0.000000,-0.019885,-0.082481,-0.000004,0.000000,0.000000,0.000000,0.000000,819,819,819,819
7100,0,0.000000,0.000000,0.000000,0.00,0.00,0.000006,0.005000,0.000000,0.000000,0.000000,0.000000,0.000000,0.000000,-0.019885,-0.082481,-0.000000,0.000000,0.000000,0.000000,0.000000,819,819,819,819
7115,0,0.000000,0.000000,0.000000,0.00,0.00,0.000016,0.005000,0.000000,0.000000,0.000000,0.000000,0.000000,0.000000,-0.019885,-0.082481,-0.000002,0.000000,0.000000,0.000000,0.000000,819,819,819,819
7131,0,0.000000,0.000000,0.000000,0.00,0.00,0.000003,0.005000,0.000000,0.000000,0.000000,0.000000,0.000000,0.000000,-0.019885,-0.082481,-0.000000,0.000000,0.000000,0.000000,0.000000,819,819,819,819
7146,0,0.000000,0.000000,0.000000,0.00,0.00,0.000016,0.005000,0.000000,0.000000,0.000000,0.000000,0.000000,0.000000,-0.019885,-0.082481,-0.000002,0.000000,0.000000,0.000000,0.000000,819,819,819,819
7158,0,0.000000,0.000000,0.000000,0.00,0.00,0.000049,0.005000,0.000000,0.000000,0.000000,0.000000,0.000000,0.000000,-0.019885,-0.082481,-0.000007,0.000000,0.000000,0.000000,0.000000,819,819,819,819
7174,0,0.000000,0.000000,0.000000,0.00,0.00,0.000025,0.005000,0.000000,0.000000,0.000000,0.000000,0.000000,0.000000,-0.019885,-0.082481,-0.000004,0.000000,0.000000,0.000000,0.000000,819,819,819,819
7188,0,0.000000,0.000000,0.000000,0.00,0.00,0.000020,0.005000,0.000000,0.000000,0.000000,0.000000,0.000000,0.000000,-0.019885,-0.082481,-0.000003,0.000000,0.000000,0.000000,0.000000,819,819,819,819
7200,0,0.000000,0.000000,0.000000,0.00,0.00,0.000004,0.005000,0.000000,0.000000,0.000000,0.000000,0.000000,0.000000,-0.019885,-0.082481,-0.000001,0.000000,0.000000,0.000000,0.000000,819,819,819,819
7215,0,0.000000,0.000000,0.000000,0.00,0.00,0.000000,0.005000,0.000000,0.000000,0.000000,0.000000,0.000000,0.000000,-0.019885,-0.082481,-0.000000,0.000000,0.000000,0.000000,0.000000,819,819,819,819
7227,0,0.000000,0.000000,0.000000,0.00,0.00,-0.000015,0.005000,0.000000,0.000000,0.000000,0.000000,0.000000,0.000000,-0.019885,-0.082481,0.000002,0.000000,0.000000,0.000000,0.000000,819,819,819,819
7241,0,0.000000,0.000000,0.000000,0.00,0.00,-0.000003,0.005000,0.000000,0.000000,0.000000,0.000000,0.000000,0.000000,-0.019885,-0.082481,0.000000,0.000000,0.000000,0.000000,0.000000,819,819,819,819
7256,0,0.000000,0.000000,0.000000,0.00,0.00,-0.000000,0.005000,0.000000,0.000000,0.000000,0.000000,0.000000,0.000000,-0.019885,-0.082481,-0.000000,0.000000,0.000000,0.000000,0.000000,819,819,819,819
7267,0,0.000000,0.000000,0.000000,0.00,0.00,0.000015,0.005000,0.000000,0.000000,0.000000,0.000000,0.000000,0.000000,-0.019885,-0.082481,-0.000003,0.000000,0.000000,0.000000,0.000000,819,819,819,819
7284,0,0.000000,0.000000,0.000000,0.00,0.00,-0.000058,0.005000,0.000000,0.000000,0.000000,0.000000,0.000000,0.000000,-0.019885,-0.082481,0.000008,0.000000,0.000000,0.000000,0.000000,819,819,819,819
7298,0,0.000000,0.000000,0.000000,0.00,0.00,0.000004,0.005000,0.000000,0.000000,0.000000,0.000000,0.000000,0.000000,-0.019885,-0.082481,-0.000000,0.000000,0.000000,0.000000,0.000000,819,819,819,819
7312,0,0.000000,0.000000,0.000000,0.00,0.00,-0.000060,0.005000,0.000000,0.000000,0.000000,0.000000,0.000000,0.000000,-0.019885,-0.082481,0.000009,0.000000,0.000000,0.000000,0.000000,819,819,819,819
7332,0,0.000000,0.000000,0.000000,0.00,0.00,0.000064,0.005000,0.000000,0.000000,0.000000,0.000000,0.000000,0.000000,-0.019885,-0.082481,-0.000009,0.000000,0.000000,0.000000,0.000000,819,819,819,819
7349,0,0.000000,0.000000,0.000000,0.00,0.00,-0.000079,0.005000,0.000000,0.000000,0.000000,0.000000,0.000000,0.000000,-0.019885,-0.082481,0.000011,0.000000,0.000000,0.000000,0.000000,819,819,819,819
7365,0,0.000000,0.000000,0.000000,0.00,0.00,-0.000031,0.005000,0.000000,0.000000,0.000000,0.000000,0.000000,0.000000,-0.019885,-0.082481,0.000005,0.000000,0.000000,0.000000,0.000000,819,819,819,819
7379,0,0.000000,0.000000,0.000000,0.00,0.00,0.000040,0.005000,0.000000,0.000000,0.000000,0.000000,0.000000,0.000000,-0.019885,-0.082481,-0.000006,0.000000,0.000000,0.000000,0.000000,819,819,819,819
7393,0,0.000000,0.000000,0.000000,0.00,0.00,-0.000007,0.005000,0.000000,0.000000,0.000000,0.000000,0.000000,0.000000,-0.019885,-0.082481,0.000001,0.000000,0.000000,0.000000,0.000000,819,819,819,819
7408,0,0.000000,0.000000,0.000000,0.00,0.00,-0.000032,0.005000,0.000000,0.000000,0.000000,0.000000,0.000000,0.000000,-0.019885,-0.082481,0.000005,0.000000,0.000000,0.000000,0.000000,819,819,819,819
7421,0,0.000000,0.000000,0.000000,0.00,0.00,0.000055,0.005000,0.000000,0.000000,0.000000,0.000000,0.000000,0.000000,-0.019885,-0.082481,-0.000008,0.000000,0.000000,0.000000,0.000000,819,819,819,819
7436,0,0.000000,0.000000,0.000000,0.00,0.00,0.000011,0.005000,0.000000,0.000000,0.000000,0.000000,0.000000,0.000000,-0.019885,-0.082481,-0.000002,0.000000,0.000000,0.000000,0.000000,819,819,819,819
7448,0,0.000000,0.000000,0.000000,0.00,0.00,-0.000059,0.005000,0.000000,0.000000,0.000000,0.000000,0.000000,0.000000,-0.019885,-0.082481,0.000008,0.000000,0.000000,0.000000,0.000000,819,819,819,819
7464,0,0.000000,0.000000,0.000000,0.00,0.00,-0.000027,0.005000,0.000000,0.000000,0.000000,0.000000,0.000000,0.000000,-0.019885,-0.082481,0.000004,0.000000,0.000000,0.000000,0.000000,819,819,819,819
7479,0,0.000000,0.000000,0.000000,0.00,0.00,-0.000005,0.005000,0.000000,0.000000,0.000000,0.000000,0.000000,0.000000,-0.019885,-0.082481,0.000001,0.000000,0.000000,0.000000,0.000000,819,819,819,819
7493,0,0.000000,0.000000,0.000000,0.00,0.00,0.000029,0.005000,0.000000,0.000000,0.000000,0.000000,0.000000,0.000000,-0.019885,-0.082481,-0.000004,0.000000,0.000000,0.000000,0.000000,819,819,819,819
7507,0,0.000000,0.000000,0.000000,0.00,0.00,-0.000040,0.005000,0.000000,0.000000,0.000000,0.000000,0.000000,0.000000,-0.019885,-0.082481,0.000006,0.000000,0.000000,0.000000,0.000000,819,819,819,819
7519,0,0.000000,0.000000,0.000000,0.00,0.00,-0.000054,0.005000,0.000000,0.000000,0.000000,0.000000,0.000000,0.000000,-0.019885,-0.082481,0.000008,0.000000,0.000000,0.000000,0.000000,819,819,819,819
7535,0,0.000000,0.000000,0.000000,0.00,0.00,0.000081,0.005000,0.000000,0.000000,0.000000,0.000000,0.000000,0.000000,-0.019885,-0.082481,-0.000011,0.000000,0.000000,0.000000,0.000000,819,819,819,819
7549,0,0.000000,0.000000,0.000000,0.00,0.00,0.000031,0.005000,0.000000,0.000000,0.000000,0.000000,0.000000,0.000000,-0.019885,-0.082481,-0.000004,0.000000,0.000000,0.000000,0.000000,819,819,819,819
7563,0,0.000000,0.000000,0.000000,0.00,0.00,0.000037,0.005000,0.000000,0.000000,0.000000,0.000000,0.000000,0.000000,-0.019885,-0.082481,-0.000005,0.000000,0.000000,0.000000,0.000000,819,819,819,819
7577,0,0.000000,0.000000,0.000000,0.00,0.00,0.000129,0.005000,0.000000,0.000000,0.000000,0.000000,0.000000,0.000000,-0.019885,-0.082481,-0.000019,0.000000,0.000000,0.000000,0.000000,819,819,819,819
7590,0,0.000000,0.000000,0.000000,0.00,0.00,0.000056,0.005000,0.000000,0.000000,0.000000,0.000000,0.000000,0.000000,-0.019885,-0.082481,-0.000009,0.000000,0.000000,0.000000,0.000000,819,819,819,819
7605,0,0.000000,0.000000,0.000000,0.00,0.00,0.000087,0.005000,0.000000,0.000000,0.000000,0.000000,0.000000,0.000000,-0.019885,-0.082481,-0.000013,0.000000,0.000000,0.000000,0.000000,819,819,819,819
7620,0,0.000000,0.000000,0.000000,0.00,0.00,-0.000043,0.005000,0.000000,0.000000,0.000000,0.000000,0.000000,0.000000,-0.019885,-0.082481,0.000005,0.000000,0.000000,0.000000,0.000000,819,819,819,819
7634,0,0.000000,0.000000,0.000000,0.00,0.00,-0.000009,0.005000,0.000000,0.000000,0.000000,0.000000,0.000000,0.000000,-0.019885,-0.082481,0.000000,0.000000,0.000000,0.000000,0.000000,819,819,819,819
7648,0,0.000000,0.000000,0.000000,0.00,0.00,-0.000032,0.005000,0.000000,0.000000,0.000000,0.000000,0.000000,0.000000,-0.019885,-0.082481,0.000004,0.000000,0.000000,0.000000,0.000000,819,819,819,819
7662,0,0.000000,0.000000,0.000000,0.00,0.00,0.000009,0.005000,0.000000,0.000000,0.000000,0.000000,0.000000,0.000000,-0.019885,-0.082481,-0.000002,0.000000,0.000000,0.000000,0.000000,819,819,819,819
7677,0,0.000000,0.000000,0.000000,0.00,0.00,-0.000029,0.005000,0.000000,0.000000,0.000000,0.000000,0.000000,0.000000,-0.019885,-0.082481,0.000003,0.000000,0.000000,0.000000,0.000000,819,819,819,819
7689,0,0.000000,0.000000,0.000000,0.00,0.00,-0.000036,0.005000,0.000000,0.000000,0.000000,0.000000,0.000000,0.000000,-0.019885,-0.082481,0.000004,0.000000,0.000000,0.000000,0.000000,819,819,819,819
7704,0,0.000000,0.000000,0.000000,0.00,0.00,-0.000007,0.005000,0.000000,0.000000,0.000000,0.000000,0.000000,0.000000,-0.019885,-0.082481,0.000000,0.000000,0.000000,0.000000,0.000000,819,819,819,819
7716,0,0.000000,0.000000,0.000000,0.00,0.00,0.000059,0.005000,0.000000,0.000000,0.000000,0.000000,0.000000,0.000000,-0.019885,-0.082481,-0.000009,0.000000,0.000000,0.000000,0.000000,819,819,819,819
7732,0,0.000000,0.000000,0.000000,0.00,0.00,0.000027,0.005000,0.000000,0.000000,0.000000,0.000000,0.000000,0.000000,-0.019885,-0.082481,-0.000005,0.000000,0.000000,0.000000,0.000000,819,819,819,819
7747,0,0.000000,0.000000,0.000000,0.00,0.00,-0.000025,0.005000,0.000000,0.000000,0.000000,0.000000,0.000000,0.000000,-0.019885,-0.082481,0.000003,0.000000,0.000000,0.000000,0.000000,819,819,819,819
7759,0,0.000000,0.000000,0.000000,0.00,0.00,-0.000035,0.005000,0.000000,0.000000,0.000000,0.000000,0.000000,0.000000,-0.019885,-0.082481,0.000004,0.000000,0.000000,0.000000,0.000000,819,819,819,819
7778,0,0.000000,0.000000,0.000000,0.00,0.00,0.000039,0.005000,0.000000,0.000000,0.000000,0.000000,0.000000,0.000000,-0.019885,-0.082481,-0.000006,0.000000,0.000000,0.000000,0.000000,819,819,819,819
7793,0,0.000000,0.000000,0.000000,0.00,0.00,0.000008,0.005000,0.000000,0.000000,0.000000,0.000000,0.000000,0.000000,-0.019885,-0.082481,-0.000002,0.000000,0.000000,0.000000,0.000000,819,819,819,819
7807,0,0.000000,0.000000,0.000000,0.00,0.00,0.000047,0.005000,0.000000,0.000000,0.000000,0.000000,0.000000,0.000000,-0.019885,-0.082481,-0.000008,0.000000,0.000000,0.000000,0.000000,819,819,819,819
7820,0,0.000000,0.000000,0.000000,0.00,0.00,0.000055,0.005000,0.000000,0.000000,0.000000,0.000000,0.000000,0.000000,-0.019885,-0.082481,-0.000009,0.000000,0.000000,0.000000,0.000000,819,819,819,819
7836,0,0.000000,0.000000,0.000000,0.00,0.00,-0.000004,0.005000,0.000000,0.000000,0.000000,0.000000,0.000000,0.000000,-0.019885,-0.082481,-0.000000,0.000000,0.000000,0.000000,0.000000,819,819,819,819
7850,0,0.000000,0.000000,0.000000,0.00,0.00,0.000014,0.005000,0.000000,0.000000,0.000000,0.000000,0.000000,0.000000,-0.019885,-0.082481,-0.000003,0.000000,0.000000,0.000000,0.000000,819,819,819,819
7864,0,0.000000,0.000000,0.000000,0.00,0.00,0.000003,0.005000,0.000000,0.000000,0.000000,0.000000,0.000000,0.000000,-0.019885,-0.082481,-0.000002,0.000000,0.000000,0.000000,0.000000,819,819,819,819
7878,0,0.000000,0.000000,0.000000,0.00,0.00,0.000016,0.005000,0.000000,0.000000,0.000000,0.000000,0.000000,0.000000,-0.019885,-0.082481,-0.000003,0.000000,0.000000,0.000000,0.000000,819,819,819,819
7890,0,0.000000,0.000000,0.000000,0.00,0.00,0.000034,0.005000,0.000000,0.000000,0.000000,0.000000,0.000000,0.000000,-0.019885,-0.082481,-0.000006,0.000000,0.000000,0.000000,0.000000,819,819,819,819
7906,0,0.000000,0.000000,0.000000,0.00,0.00,0.000022,0.005000,0.000000,0.000000,0.000000,0.000000,0.000000,0.000000,-0.019885,-0.082481,-0.000005,0.000000,0.000000,0.000000,0.000000,819,819,819,819
7921,0,0.000000,0.000000,0.000000,0.00,0.00,-0.000026,0.005000,0.000000,0.000000,0.000000,0.000000,0.000000,0.000000,-0.019885,-0.082481,0.000002,0.000000,0.000000,0.000000,0.000000,819,819,819,819
7935,0,0.000000,0.000000,0.000000,0.00,0.00,0.000025,0.005000,0.000000,0.000000,0.000000,0.000000,0.000000,0.000000,-0.019885,-0.082481,-0.000005,0.000000,0.000000,0.000000,0.000000,819,819,819,819
7949,0,0.000000,0.000000,0.000000,0.00,0.00,0.000005,0.005000,0.000000,0.000000,0.000000,0.000000,0.000000,0.000000,-0.019885,-0.082481,-0.000002,0.000000,0.000000,0.000000,0.000000,819,819,819,819
7964,0,0.000000,0.000000,0.000000,0.00,0.00,0.000001,0.005000,0.000000,0.000000,0.000000,0.000000,0.000000,0.000000,-0.019885,-0.082481,-0.000002,0.000000,0.000000,0.000000,0.000000,819,819,819,819
7978,0,0.000000,0.000000,0.000000,0.00,0.00,0.000031,0.005000,0.000000,0.000000,0.000000,0.000000,0.000000,0.000000,-0.019885,-0.082481,-0.000006,0.000000,0.000000,0.000000,0.000000,819,819,819,819
7990,0,0.000000,0.000000,0.000000,0.00,0.00,-0.000024,0.005000,0.000000,0.000000,0.000000,0.000000,0.000000,0.000000,-0.019885,-0.082481,0.000002,0.000000,0.000000,0.000000,0.000000,819,819,819,819
8005,0,0.000000,0.000000,0.000000,0.00,0.00,-0.000035,0.005000,0.000000,0.000000,0.000000,0.000000,0.000000,0.000000,-0.019885,-0.082481,0.000003,0.000000,0.000000,0.000000,0.000000,819,819,819,819
8018,0,0.000000,0.000000,0.000000,0.00,0.00,-0.000007,0.005000,0.000000,0.000000,0.000000,0.000000,0.000000,0.000000,-0.019885,-0.082481,-0.000000,0.000000,0.000000,0.000000,0.000000,819,819,819,819
8034,0,0.000000,0.000000,0.000000,0.00,0.00,0.000044,0.005000,0.000000,0.000000,0.000000,0.000000,0.000000,0.000000,-0.019885,-0.082481,-0.000008,0.000000,0.000000,0.000000,0.000000,819,819,819,819
8048,0,0.000000,0.000000,0.000000,0.00,0.00,-0.000006,0.005000,0.000000,0.000000,0.000000,0.000000,0.000000,0.000000,-0.019885,-0.082481,-0.000000,0.000000,0.000000,0.000000,0.000000,819,819,819,819
8060,0,0.000000,0.000000,0.000000,0.00,0.00,-0.000032,0.005000,0.000000,0.000000,0.000000,0.000000,0.000000,0.000000,-0.019885,-0.082481,0.000003,0.000000,0.000000,0.000000,0.000000,819,819,819,819
8076,0,0.000000,0.000000,0.000000,0.00,0.00,-0.000022,0.005000,0.000000,0.000000,0.000000,0.000000,0.000000,0.000000,-0.019885,-0.082481,0.000002,0.000000,0.000000,0.000000,0.000000,819,819,819,819
8091,0,0.000000,0.000000,0.000000,0.00,0.00,0.000041,0.005000,0.000000,0.000000,0.000000,0.000000,0.000000,0.000000,-0.019885,-0.082481,-0.000007,0.000000,0.000000,0.000000,0.000000,819,819,819,819
8103,0,0.000000,0.000000,0.000000,0.00,0.00,0.000039,0.005000,0.000000,0.000000,0.000000,0.000000,0.000000,0.000000,-0.019885,-0.082481,-0.000007,0.000000,0.000000,0.000000,0.000000,819,819,819,819
8120,0,0.000000,0.000000,0.000000,0.00,0.00,0.000038,0.005000,0.000000,0.000000,0.000000,0.000000,0.000000,0.000000,-0.019885,-0.082481,-0.000007,0.000000,0.000000,0.000000,0.000000,819,819,819,819
8136,0,0.000000,0.000000,0.000000,0.00,0.00,0.000023,0.005000,0.000000,0.000000,0.000000,0.000000,0.000000,0.000000,-0.019885,-0.082481,-0.000005,0.000000,0.000000,0.000000,0.000000,819,819,819,819
8150,0,0.000000,0.000000,0.000000,0.00,0.00,0.000020,0.005000,0.000000,0.000000,0.000000,0.000000,0.000000,0.000000,-0.019885,-0.082481,-0.000005,0.000000,0.000000,0.000000,0.000000,819,819,819,819
8164,0,0.000000,0.000000,0.000000,0.00,0.00,0.000050,0.005000,0.000000,0.000000,0.000000,0.000000,0.000000,0.000000,-0.019885,-0.082481,-0.000009,0.000000,0.000000,0.000000,0.000000,819,819,819,819
8178,0,0.000000,0.000000,0.000000,0.00,0.00,-0.000005,0.005000,0.000000,0.000000,0.000000,0.000000,0.000000,0.000000,-0.019885,-0.082481,-0.000001,0.000000,0.000000,0.000000,0.000000,819,819,819,819
8190,0,0.000000,0.000000,0.000000,0.00,0.00,-0.000016,0.005000,0.000000,0.000000,0.000000,0.000000,0.000000,0.000000,-0.019885,-0.082481,0.000000,0.000000,0.000000,0.000000,0.000000,819,819,819,819
8209,0,0.000000,0.000000,0.000000,0.00,0.00,0.000012,0.005000,0.000000,0.000000,0.000000,0.000000,0.000000,0.000000,-0.019885,-0.082481,-0.000004,0.000000,0.000000,0.000000,0.000000,819,819,819,819
8225,0,0.000000,0.000000,0.000000,0.00,0.00,-0.000013,0.005000,0.000000,0.000000,0.000000,0.000000,0.000000,0.000000,-0.019885,-0.082481,-0.000000,0.000000,0.000000,0.000000,0.000000,819,819,819,819
8238,0,0.000000,0.000000,0.000000,0.00,0.00,0.000013,0.005000,0.000000,0.000000,0.000000,0.000000,0.000000,0.000000,-0.019885,-0.082481,-0.000004,0.000000,0.000000,0.000000,0.000000,819,819,819,819
8252,0,0.000000,0.000000,0.000000,0.00,0.00,0.000033,0.005000,0.000000,0.000000,0.000000,0.000000,0.000000,0.000000,-0.019885,-0.082481,-0.000007,0.000000,0.000000,0.000000,0.000000,819,819,819,819
8266,0,0.000000,0.000000,0.000000,0.00,0.00,0.000037,0.005000,0.000000,0.000000,0.000000,0.000000,0.000000,0.000000,-0.019885,-0.082481,-0.000007,0.000000,0.000000,0.000000,0.000000,819,819,819,819
8280,0,0.000000,0.000000,0.000000,0.00,0.00,0.000007,0.005000,0.000000,0.000000,0.000000,0.000000,0.000000,0.000000,-0.019885,-0.082481,-0.000003,0.000000,0.000000,0.000000,0.000000,819,819,819,819
8295,0,0.000000,0.000000,0.000000,0.00,0.00,-0.000014,0.005000,0.000000,0.000000,0.000000,0.000000,0.000000,0.000000,-0.019885,-0.082481,-0.000000,0.000000,0.000000,0.000000,0.000000,819,819,819,819
8309,0,0.000000,0.000000,0.000000,0.00,0.00,-0.000033,0.005000,0.000000,0.000000,0.000000,0.000000,0.000000,0.000000,-0.019885,-0.082481,0.000002,0.000000,0.000000,0.000000,0.000000,819,819,819,819
8321,0,0.000000,0.000000,0.000000,0.00,0.00,-0.000022,0.005000,0.000000,0.000000,0.000000,0.000000,0.000000,0.000000,-0.019885,-0.082481,0.000000,0.000000,0.000000,0.000000,0.000000,819,819,819,819
8337,0,0.000000,0.000000,0.000000,0.00,0.00,-0.000035,0.005000,0.000000,0.000000,0.000000,0.000000,0.000000,0.000000,-0.019885,-0.082481,0.000003,0.000000,0.000000,0.000000,0.000000,819,819,819,819
8351,0,0.000000,0.000000,0.000000,0.00,0.00,0.000069,0.005000,0.000000,0.000000,0.000000,0.000000,0.000000,0.000000,-0.019885,-0.082481,-0.000012,0.000000,0.000000,0.000000,0.000000,819,819,819,819
8365,0,0.000000,0.000000,0.000000,0.00,0.00,0.000075,0.005000,0.000000,0.000000,0.000000,0.000000,0.000000,0.000000,-0.019885,-0.082481,-0.000013,0.000000,0.000000,0.000000,0.000000,819,819,819,819
8379,0,0.000000,0.000000,0.000000,0.00,0.00,-0.000000,0.005000,0.000000,0.000000,0.000000,0.000000,0.000000,0.000000,-0.019885,-0.082481,-0.000003,0.000000,0.000000,0.000000,0.000000,819,819,819,819
8391,0,0.000000,0.000000,0.000000,0.00,0.00,-0.000031,0.005000,0.000000,0.000000,0.000000,0.000000,0.000000,0.000000,-0.019885,-0.082481,0.000002,0.000000,0.000000,0.000000,0.000000,819,819,819,819
8408,0,0.000000,0.000000,0.000000,0.00,0.00,-0.000067,0.005000,0.000000,0.000000,0.000000,0.000000,0.000000,0.000000,-0.019885,-0.082481,0.000007,0.000000,0.000000,0.000000,0.000000,819,819,819,819
8422,0,0.000000,0.000000,0.000000,0.00,0.00,-0.000044,0.005000,0.000000,0.000000,0.000000,0.000000,0.000000,0.000000,-0.019885,-0.082481,0.000004,0.000000,0.000000,0.000000,0.000000,819,819,819,819
8436,0,0.000000,0.000000,0.000000,0.00,0.00,0.000037,0.005000,0.000000,0.000000,0.000000,0.000000,0.000000,0.000000,-0.019885,-0.082481,-0.000007,0.000000,0.000000,0.000000,0.000000,819,819,819,819
8450,0,0.000000,0.000000,0.000000,0.00,0.00,0.000084,0.005000,0.000000,0.000000,0.000000,0.000000,0.000000,0.000000,-0.019885,-0.082481,-0.000014,0.000000,0.000000,0.000000,0.000000,819,819,819,819
8463,0,0.000000,0.000000,0.000000,0.00,0.00,0.000047,0.005000,0.000000,0.000000,0.000000,0.000000,0.000000,0.000000,-0.019885,-0.082481,-0.000009,0.000000,0.000000,0.000000,0.000000,819,819,819,819
8478,0,0.000000,0.000000,0.000000,0.00,0.00,-0.000021,0.005000,0.000000,0.000000,0.000000,0.000000,0.000000,0.000000,-0.019885,-0.082481,0.000000,0.000000,0.000000,0.000000,0.000000,819,819,819,819
8490,0,0.000000,0.000000,0.000000,0.00,0.00,-0.000050,0.005000,0.000000,0.000000,0.000000,0.000000,0.000000,0.000000,-0.019885,-0.082481,0.000004,0.000000,0.000000,0.000000,0.000000,819,819,819,819
8505,0,0.000000,0.000000,0.000000,0.00,0.00,-0.000117,0.005000,0.000000,0.000000,0.000000,0.000000,0.000000,0.000000,-0.019885,-0.082481,0.000014,0.000000,0.000000,0.000000,0.000000,819,819,819,819
8518,0,0.000000,0.000000,0.000000,0.00,0.00,-0.000054,0.005000,0.000000,0.000000,0.000000,0.000000,0.000000,0.000000,-0.019885,-0.082481,0.000006,0.000000,0.000000,0.000000,0.000000,819,819,819,819
8534,0,0.000000,0.000000,0.000000,0.00,0.00,-0.000011,0.005000,0.000000,0.000000,0.000000,0.000000,0.000000,0.000000,-0.019885,-0.082481,-0.000000,0.000000,0.000000,0.000000,0.000000,819,819,819,819
8549,0,0.000000,0.000000,0.000000,0.00,0.00,0.000074,0.005000,0.000000,0.000000,0.000000,0.000000,0.000000,0.000000,-0.019885,-0.082481,-0.000012,0.000000,0.000000,0.000000,0.000000,819,819,819,819
8565,0,0.000000,0.000000,0.000000,0.00,0.00,0.000060,0.005000,0.000000,0.000000,0.000000,0.000000,0.000000,0.000000,-0.019885,-0.082481,-0.000010,0.000000,0.000000,0.000000,0.000000,819,819,819,819
8579,0,0.000000,0.000000,0.000000,0.00,0.00,0.000027,0.005000,0.000000,0.000000,0.000000,0.000000,0.000000,0.000000,-0.019885,-0.082481,-0.000006,0.000000,0.000000,0.000000,0.000000,819,819,819,819
8592,0,0.000000,0.000000,0.000000,0.00,0.00,-0.000040,0.005000,0.000000,0.000000,0.000000,0.000000,0.000000,0.000000,-0.019885,-0.082481,0.000003,0.000000,0.000000,0.000000,0.000000,819,819,819,819
8608,0,0.000000,0.000000,0.000000,0.00,0.00,-0.000115,0.005000,0.000000,0.000000,0.000000,0.000000,0.000000,0.000000,-0.019885,-0.082481,0.000014,0.000000,0.000000,0.000000,0.000000,819,819,819,819
8623,0,0.000000,0.000000,0.000000,0.00,0.00,-0.000099,0.005000,0.000000,0.000000,0.000000,0.000000,0.000000,0.000000,-0.019885,-0.082481,0.000012,0.000000,0.000000,0.000000,0.000000,819,819,819,819
8638,0,0.000000,0.000000,0.000000,0.00,0.00,0.000102,0.005000,0.000000,0.000000,0.000000,0.000000,0.000000,0.000000,-0.019885,-0.082481,-0.000015,0.000000,0.000000,0.000000,0.000000,819,819,819,819
8658,0,0.000000,0.000000,0.000000,0.00,0.00,0.000142,0.005000,0.000000,0.000000,0.000000,0.000000,0.000000,0.000000,-0.019885,-0.082481,-0.000021,0.000000,0.000000,0.000000,0.000000,819,819,819,819
8673,0,0.000000,0.000000,0.000000,0.00,0.00,0.000028,0.005000,0.000000,0.000000,0.000000,0.000000,0.000000,0.000000,-0.019885,-0.082481,-0.000006,0.000000,0.000000,0.000000,0.000000,819,819,819,819
8687,0,0.000000,0.000000,0.000000,0.00,0.00,-0.000070,0.005000,0.000000,0.000000,0.000000,0.000000,0.000000,0.000000,-0.019885,-0.082481,0.000007,0.000000,0.000000,0.000000,0.000000,819,819,819,819
8701,0,0.000000,0.000000,0.000000,0.00,0.00,-0.000105,0.005000,0.000000,0.000000,0.000000,0.000000,0.000000,0.000000,-0.019885,-0.082481,0.000012,0.000000,0.000000,0.000000,0.000000,819,819,819,819
8715,0,0.000000,0.000000,0.000000,0.00,0.00,-0.000097,0.005000,0.000000,0.000000,0.000000,0.000000,0.000000,0.000000,-0.019885,-0.082481,0.000012,0.000000,0.000000,0.000000,0.000000,819,819,819,819
8729,0,0.000000,0.000000,0.000000,0.00,0.00,-0.000004,0.005000,0.000000,0.000000,0.000000,0.000000,0.000000,0.000000,-0.019885,-0.082481,-0.000000,0.000000,0.000000,0.000000,0.000000,819,819,819,819
8741,0,0.000000,0.000000,0.000000,0.00,0.00,0.000075,0.005000,0.000000,0.000000,0.000000,0.000000,0.000000,0.000000,-0.019885,-0.082481,-0.000012,0.000000,0.000000,0.000000,0.000000,819,819,819,819
8756,0,0.000000,0.000000,0.000000,0.00,0.00,0.000122,0.005000,0.000000,0.000000,0.000000,0.000000,0.000000,0.000000,-0.019885,-0.082481,-0.000018,0.000000,0.000000,0.000000,0.000000,819,819,819,819
8769,0,0.000000,0.000000,0.000000,0.00,0.00,0.000009,0.005000,0.000000,0.000000,0.000000,0.000000,0.000000,0.000000,-0.019885,-0.082481,-0.000003,0.000000,0.000000,0.000000,0.000000,819,819,819,819
8785,0,0.000000,0.000000,0.000000,0.00,0.00,-0.000013,0.005000,0.000000,0.000000,0.000000,0.000000,0.000000,0.000000,-0.019885,-0.082481,-0.000000,0.000000,0.000000,0.000000,0.000000,819,819,819,819
8800,0,0.000000,0.000000,0.000000,0.00,0.00,-0.000109,0.005000,0.000000,0.000000,0.000000,0.000000,0.000000,0.000000,-0.019885,-0.082481,0.000013,0.000000,0.000000,0.000000,0.000000,819,819,819,819
8812,0,0.000000,0.000000,0.000000,0.00,0.00,-0.000083,0.005000,0.000000,0.000000,0.000000,0.000000,0.000000,0.000000,-0.019885,-0.082481,0.000010,0.000000,0.000000,0.000000,0.000000,819,819,819,819
8828,0,0.000000,0.000000,0.000000,0.00,0.00,-0.000062,0.005000,0.000000,0.000000,0.000000,0.000000,0.000000,0.000000,-0.019885,-0.082481,0.000007,0.000000,0.000000,0.000000,0.000000,819,819,819,819
8842,0,0.000000,0.000000,0.000000,0.00,0.00,0.000003,0.005000,0.000000,0.000000,0.000000,0.000000,0.000000,0.000000,-0.019885,-0.082481,-0.000001,0.000000,0.000000,0.000000,0.000000,819,819,819,819
8855,0,0.000000,0.000000,0.000000,0.00,0.00,0.000092,0.005000,0.000000,0.000000,0.000000,0.000000,0.000000,0.000000,-0.019885,-0.082481,-0.000014,0.000000,0.000000,0.000000,0.000000,819,819,819,819
8869,0,0.000000,0.000000,0.000000,0.00,0.00,0.000064,0.005000,0.000000,0.000000,0.000000,0.000000,0.000000,0.000000,-0.019885,-0.082481,-0.000010,0.000000,0.000000,0.000000,0.000000,819,819,819,819
8881,0,0.000000,0.000000,0.000000,0.00,0.00,-0.000002,0.005000,0.000000,0.000000,0.000000,0.000000,0.000000,0.000000,-0.019885,-0.082481,-0.000001,0.000000,0.000000,0.000000,0.000000,819,819,819,819
8898,0,0.000000,0.000000,0.000000,0.00,0.00,-0.000061,0.005000,0.000000,0.000000,0.000000,0.000000,0.000000,0.000000,-0.019885,-0.082481,0.000007,0.000000,0.000000,0.000000,0.000000,819,819,819,819
8912,0,0.000000,0.000000,0.000000,0.00,0.00,-0.000073,0.005000,0.000000,0.000000,0.000000,0.000000,0.000000,0.000000,-0.019885,-0.082481,0.000009,0.000000,0.000000,0.000000,0.000000,819,819,819,819
8926,0,0.000000,0.000000,0.000000,0.00,0.00,-0.000015,0.005000,0.000000,0.000000,0.000000,0.000000,0.000000,0.000000,-0.019885,-0.082481,0.000001,0.000000,0.000000,0.000000,0.000000,819,819,819,819
8940,0,0.000000,0.000000,0.000000,0.00,0.00,0.000043,0.005000,0.000000,0.000000,0.000000,0.000000,0.000000,0.000000,-0.019885,-0.082481,-0.000007,0.000000,0.000000,0.000000,0.000000,819,819,819,819
8953,0,0.000000,0.000000,0.000000,0.00,0.00,0.000054,0.005000,0.000000,0.000000,0.000000,0.000000,0.000000,0.000000,-0.019885,-0.082481,-0.000009,0.000000,0.000000,0.000000,0.000000,819,819,819,819
8969,0,0.000000,0.000000,0.000000,0.00,0.00,0.000041,0.005000,0.000000,0.000000,0.000000,0.000000,0.000000,0.000000,-0.019885,-0.082481,-0.000007,0.000000,0.000000,0.000000,0.000000,819,819,819,819
8982,0,0.000000,0.000000,0.000000,0.00,0.00,-0.000068,0.005000,0.000000,0.000000,0.000000,0.000000,0.000000,0.000000,-0.019885,-0.082481,0.000008,0.000000,0.000000,0.000000,0.000000,819,819,819,819
8996,0,0.000000,0.000000,0.000000,0.00,0.00,-0.000090,0.005000,0.000000,0.000000,0.000000,0.000000,0.000000,0.000000,-0.019885,-0.082481,0.000011,0.000000,0.000000,0.000000,0.000000,819,819,819,819
9011,0,0.000000,0.000000,0.000000,0.00,0.00,-0.000018,0.005000,0.000000,0.000000,0.000000,0.000000,0.000000,0.000000,-0.019885,-0.082481,0.000002,0.000000,0.000000,0.000000,0.000000,819,819,819,819
9023,0,0.000000,0.000000,0.000000,0.00,0.00,-0.000019,0.005000,0.000000,0.000000,0.000000,0.000000,0.000000,0.000000,-0.019885,-0.082481,0.000002,0.000000,0.000000,0.000000,0.000000,819,819,819,819
9039,0,0.000000,0.000000,0.000000,0.00,0.00,-0.000019,0.005000,0.000000,0.000000,0.000000,0.000000,0.000000,0.000000,-0.019885,-0.082481,0.000002,0.000000,0.000000,0.000000,0.000000,819,819,819,819
9053,0,0.000000,0.000000,0.000000,0.00,0.00,-0.000019,0.005000,0.000000,0.000000,0.000000,0.000000,0.000000,0.000000,-0.019885,-0.082481,0.000002,0.000000,0.000000,0.000000,0.000000,819,819,819,819
9067,0,0.000000,0.000000,0.000000,0.00,0.00,-0.000004,0.005000,0.000000,0.000000,0.000000,0.000000,0.000000,0.000000,-0.019885,-0.082481,-0.000000,0.000000,0.000000,0.000000,0.000000,819,819,819,819
9081,0,0.000000,0.000000,0.000000,0.00,0.00,0.000014,0.005000,0.000000,0.000000,0.000000,0.000000,0.000000,0.000000,-0.019885,-0.082481,-0.000003,0.000000,0.000000,0.000000,0.000000,819,819,819,819
9100,0,0.000000,0.000000,0.000000,0.00,0.00,-0.000058,0.005000,0.000000,0.000000,0.000000,0.000000,0.000000,0.000000,-0.019885,-0.082481,0.000007,0.000000,0.000000,0.000000,0.000000,819,819,819,819
9117,0,0.000000,0.000000,0.000000,0.00,0.00,-0.000103,0.005000,0.000000,0.000000,0.000000,0.000000,0.000000,0.000000,-0.019885,-0.082481,0.000014,0.000000,0.000000,0.000000,0.000000,819,819,819,819
9132,0,0.000000,0.000000,0.000000,0.00,0.00,-0.000005,0.005000,0.000000,0.000000,0.000000,0.000000,0.000000,0.000000,-0.019885,-0.082481,0.000000,0.000000,0.000000,0.000000,0.000000,819,819,819,819
9145,0,0.000000,0.000000,0.000000,0.00,0.00,0.000060,0.005000,0.000000,0.000000,0.000000,0.000000,0.000000,0.000000,-0.019885,-0.082481,-0.000008,0.000000,0.000000,0.000000,0.000000,819,819,819,819
9160,0,0.000000,0.000000,0.000000,0.00,0.00,0.000027,0.005000,0.000000,0.000000,0.000000,0.000000,0.000000,0.000000,-0.019885,-0.082481,-0.000004,0.000000,0.000000,0.000000,0.000000,819,819,819,819
9172,0,0.000000,0.000000,0.000000,0.00,0.00,-0.000025,0.005000,0.000000,0.000000,0.000000,0.000000,0.000000,0.000000,-0.019885,-0.082481,0.000003,0.000000,0.000000,0.000000,0.000000,819,819,819,819
9188,0,0.000000,0.000000,0.000000,0.00,0.00,-0.000005,0.005000,0.000000,0.000000,0.000000,0.000000,0.000000,0.000000,-0.019885,-0.082481,0.000000,0.000000,0.000000,0.000000,0.000000,819,819,819,819
9203,0,0.000000,0.000000,0.000000,0.00,0.00,-0.000016,0.005000,0.000000,0.000000,0.000000,0.000000,0.000000,0.000000,-0.019885,-0.082481,0.000002,0.000000,0.000000,0.000000,0.000000,819,819,819,819
9217,0,0.000000,0.000000,0.000000,0.00,0.00,-0.000003,0.005000,0.000000,0.000000,0.000000,0.000000,0.000000,0.000000,-0.019885,-0.082481,0.000000,0.000000,0.000000,0.000000,0.000000,819,819,819,819
9231,0,0.000000,0.000000,0.000000,0.00,0.00,-0.000031,0.005000,0.000000,0.000000,0.000000,0.000000,0.000000,0.000000,-0.019885,-0.082481,0.000004,0.000000,0.000000,0.000000,0.000000,819,819,819,819
9243,0,0.000000,0.000000,0.000000,0.00,0.00,-0.000006,0.005000,0.000000,0.000000,0.000000,0.000000,0.000000,0.000000,-0.019885,-0.082481,0.000001,0.000000,0.000000,0.000000,0.000000,819,819,819,819
9259,0,0.000000,0.000000,0.000000,0.00,0.00,0.000029,0.005000,0.000000,0.000000,0.000000,0.000000,0.000000,0.000000,-0.019885,-0.082481,-0.000004,0.000000,0.000000,0.000000,0.000000,819,819,819,819
9274,0,0.000000,0.000000,0.000000,0.00,0.00,0.000036,0.005000,0.000000,0.000000,0.000000,0.000000,0.000000,0.000000,-0.019885,-0.082481,-0.000005,0.000000,0.000000,0.000000,0.000000,819,819,819,819
9288,0,0.000000,0.000000,0.000000,0.00,0.00,0.000007,0.005000,0.000000,0.000000,0.000000,0.000000,0.000000,0.000000,-0.019885,-0.082481,-0.000001,0.000000,0.000000,0.000000,0.000000,819,819,819,819
9305,0,0.000000,0.000000,0.000000,0.00,0.00,-0.000044,0.005000,0.000000,0.000000,0.000000,0.000000,0.000000,0.000000,-0.019885,-0.082481,0.000006,0.000000,0.000000,0.000000,0.000000,819,819,819,819
9320,0,0.000000,0.000000,0.000000,0.00,0.00,-0.000024,0.005000,0.000000,0.000000,0.000000,0.000000,0.000000,0.000000,-0.019885,-0.082481,0.000003,0.000000,0.000000,0.000000,0.000000,819,819,819,819
9336,0,0.000000,0.000000,0.000000,0.00,0.00,0.000026,0.005000,0.000000,0.000000,0.000000,0.000000,0.000000,0.000000,-0.019885,-0.082481,-0.000003,0.000000,0.000000,0.000000,0.000000,819,819,819,819
9351,0,0.000000,0.000000,0.000000,0.00,0.00,0.000051,0.005000,0.000000,0.000000,0.000000,0.000000,0.000000,0.000000,-0.019885,-0.082481,-0.000007,0.000000,0.000000,0.000000,0.000000,819,819,819,819
9367,0,0.000000,0.000000,0.000000,0.00,0.00,0.000041,0.005000,0.000000,0.000000,0.000000,0.000000,0.000000,0.000000,-0.019885,-0.082481,-0.000006,0.000000,0.000000,0.000000,0.000000,819,819,819,819
9381,0,0.000000,0.000000,0.000000,0.00,0.00,-0.000022,0.005000,0.000000,0.000000,0.000000,0.000000,0.000000,0.000000,-0.019885,-0.082481,0.000003,0.000000,0.000000,0.000000,0.000000,819,819,819,819
9393,0,0.000000,0.000000,0.000000,0.00,0.00,-0.000050,0.005000,0.000000,0.000000,0.000000,0.000000,0.000000,0.000000,-0.019885,-0.082481,0.000007,0.000000,0.000000,0.000000,0.000000,819,819,819,819
9408,0,0.000000,0.000000,0.000000,0.00,0.00,-0.000025,0.005000,0.000000,0.000000,0.000000,0.000000,0.000000,0.000000,-0.019885,-0.082481,0.000003,0.000000,0.000000,0.000000,0.000000,819,819,819,819
9423,0,0.000000,0.000000,0.000000,0.00,0.00,-0.000020,0.005000,0.000000,0.000000,0.000000,0.000000,0.000000,0.000000,-0.019885,-0.082481,0.000003,0.000000,0.000000,0.000000,0.000000,819,819,819,819
9436,0,0.000000,0.000000,0.000000,0.00,0.00,0.000057,0.005000,0.000000,0.000000,0.000000,0.000000,0.000000,0.000000,-0.019885,-0.082481,-0.000008,0.000000,0.000000,0.000000,0.000000,819,819,819,819
9451,0,0.000000,0.000000,0.000000,0.00,0.00,0.000042,0.005000,0.000000,0.000000,0.000000,0.000000,0.000000,0.000000,-0.019885,-0.082481,-0.000006,0.000000,0.000000,0.000000,0.000000,819,819,819,819
9467,0,0.000000,0.000000,0.000000,0.00,0.00,0.000039,0.005000,0.000000,0.000000,0.000000,0.000000,0.000000,0.000000,-0.019885,-0.082481,-0.000006,0.000000,0.000000,0.000000,0.000000,819,819,819,819
9482,0,0.000000,0.000000,0.000000,0.00,0.00,-0.000007,0.005000,0.000000,0.000000,0.000000,0.000000,0.000000,0.000000,-0.019885,-0.082481,0.000000,0.000000,0.000000,0.000000,0.000000,819,819,819,819
9494,0,0.000000,0.000000,0.000000,0.00,0.00,-0.000047,0.005000,0.000000,0.000000,0.000000,0.000000,0.000000,0.000000,-0.019885,-0.082481,0.000006,0.000000,0.000000,0.000000,0.000000,819,819,819,819
9509,0,0.000000,0.000000,0.000000,0.00,0.00,-0.000055,0.005000,0.000000,0.000000,0.000000,0.000000,0.000000,0.000000,-0.019885,-0.082481,0.000007,0.000000,0.000000,0.000000,0.000000,819,819,819,819
9523,0,0.000000,0.000000,0.000000,0.00,0.00,-0.000026,0.005000,0.000000,0.000000,0.000000,0.000000,0.000000,0.000000,-0.019885,-0.082481,0.000004,0.000000,0.000000,0.000000,0.000000,819,819,819,819
9541,0,0.000000,0.000000,0.000000,0.00,0.00,0.000025,0.005000,0.000000,0.000000,0.000000,0.000000,0.000000,0.000000,-0.019885,-0.082481,-0.000003,0.000000,0.000000,0.000000,0.000000,819,819,819,819
9557,0,0.000000,0.000000,0.000000,0.00,0.00,-0.000010,0.005000,0.000000,0.000000,0.000000,0.000000,0.000000,0.000000,-0.019885,-0.082481,0.000001,0.000000,0.000000,0.000000,0.000000,819,819,819,819
9571,0,0.000000,0.000000,0.000000,0.00,0.00,-0.000002,0.005000,0.000000,0.000000,0.000000,0.000000,0.000000,0.000000,-0.019885,-0.082481,0.000000,0.000000,0.000000,0.000000,0.000000,819,819,819,819
9583,0,0.000000,0.000000,0.000000,0.00,0.00,-0.000000,0.005000,0.000000,0.000000,0.000000,0.000000,0.000000,0.000000,-0.019885,-0.082481,0.000000,0.000000,0.000000,0.000000,0.000000,819,819,819,819
9599,0,0.000000,0.000000,0.000000,0.00,0.00,-0.000031,0.005000,0.000000,0.000000,0.000000,0.000000,0.000000,0.000000,-0.019885,-0.082481,0.000004,0.000000,0.000000,0.000000,0.000000,819,819,819,819
9613,0,0.000000,0.000000,0.000000,0.00,0.00,-0.000037,0.005000,0.000000,0.000000,0.000000,0.000000,0.000000,0.000000,-0.019885,-0.082481,0.000005,0.000000,0.000000,0.000000,0.000000,819,819,819,819
9627,0,0.000000,0.000000,0.000000,0.00,0.00,0.000008,0.005000,0.000000,0.000000,0.000000,0.000000,0.000000,0.000000,-0.019885,-0.082481,-0.000000,0.000000,0.000000,0.000000,0.000000,819,819,819,819
9641,0,0.000000,0.000000,0.000000,0.00,0.00,0.000002,0.005000,0.000000,0.000000,0.000000,0.000000,0.000000,0.000000,-0.019885,-0.082481,0.000000,0.000000,0.000000,0.000000,0.000000,819,819,819,819
9654,0,0.000000,0.000000,0.000000,0.00,0.00,0.000016,0.005000,0.000000,0.000000,0.000000,0.000000,0.000000,0.000000,-0.019885,-0.082481,-0.000002,0.000000,0.000000,0.000000,0.000000,819,819,819,819
9670,0,0.000000,0.000000,0.000000,0.00,0.00,-0.000027,0.005000,0.000000,0.000000,0.000000,0.000000,0.000000,0.000000,-0.019885,-0.082481,0.000004,0.000000,0.000000,0.000000,0.000000,819,819,819,819
9684,0,0.000000,0.000000,0.000000,0.00,0.00,-0.000021,0.005000,0.000000,0.000000,0.000000,0.000000,0.000000,0.000000,-0.019885,-0.082481,0.000003,0.000000,0.000000,0.000000,0.000000,819,819,819,819
9698,0,0.000000,0.000000,0.000000,0.00,0.00,-0.000126,0.005000,0.000000,0.000000,0.000000,0.000000,0.000000,0.000000,-0.019885,-0.082481,0.000018,0.000000,0.000000,0.000000,0.000000,819,819,819,819
9712,0,0.001091,0.000000,0.000000,0.08,0.00,-0.000680,0.005000,0.000134,0.000000,0.000000,0.000000,0.000000,0.000000,0.046587,-0.082481,0.000093,0.000000,0.000000,0.000000,0.000000,819,819,819,819
9725,0,0.001091,0.001091,0.000000,0.00,0.08,-0.000821,0.005000,-0.000022,0.000448,0.000000,0.000000,0.000000,0.000000,-0.017222,-0.206361,0.000116,0.000000,0.000000,0.000000,0.000000,819,819,819,819
9741,0,0.002182,0.001091,0.000000,0.07,0.00,-0.000606,0.005000,0.000092,-0.000055,0.000000,0.000000,0.000000,0.000000,0.040948,-0.102856,0.000091,0.000000,0.000000,0.000000,0.000000,819,819,819,819
9755,0,0.002182,0.001091,0.000000,0.00,0.00,-0.000441,0.005000,-0.000045,-0.000055,0.000000,0.000000,0.000000,0.000000,-0.014880,-0.102870,0.000071,0.000000,0.000000,0.000000,0.000000,819,819,819,819
9768,0,0.003272,0.001091,0.000000,0.08,0.00,-0.000408,0.005000,0.000101,-0.000055,0.000000,0.000000,0.000000,0.000000,0.056712,-0.102883,0.000069,0.000000,0.000000,0.000000,0.000000,819,819,819,819
9782,0,0.003272,0.001091,0.000000,0.00,0.00,-0.000341,0.005000,-0.000067,-0.000055,0.000000,0.000000,0.000000,0.000000,-0.011994,-0.102897,0.000062,0.000000,0.000000,0.000000,0.000000,819,819,819,819
9794,0,0.003272,0.001091,0.000000,0.00,0.00,-0.000236,0.005000,-0.000067,-0.000055,0.000000,0.000000,0.000000,0.000000,-0.011992,-0.102910,0.000049,0.000000,0.000000,0.000000,0.000000,819,819,819,819
9810,0,0.003272,0.001091,0.000000,0.00,0.00,-0.000123,0.005000,-0.000067,-0.000055,0.000000,0.000000,0.000000,0.000000,-0.011990,-0.102924,0.000035,0.000000,0.000000,0.000000,0.000000,819,819,819,819
9824,0,0.003272,0.001091,0.000000,0.00,0.00,0.000051,0.005000,-0.000067,-0.000055,0.000000,0.000000,0.000000,0.000000,-0.011988,-0.102937,0.000012,0.000000,0.000000,0.000000,0.000000,819,819,819,819
9839,0,0.003272,0.001091,0.000000,0.00,0.00,0.000224,0.005000,-0.000067,-0.000055,0.000000,0.000000,0.000000,0.000000,-0.011985,-0.102951,-0.000012,0.000000,0.000000,0.000000,0.000000,819,819,819,819
9853,0,0.002182,0.001091,0.000000,-0.08,0.00,0.000456,0.005000,-0.000200,-0.000055,0.000000,0.000000,0.000000,0.000000,-0.078471,-0.102964,-0.000044,0.000000,0.000000,0.000000,0.000000,819,819,819,819
9865,0,0.002182,0.001091,0.000000,0.00,0.00,0.000563,0.005000,-0.000045,-0.000055,0.000000,0.000000,0.000000,0.000000,-0.014682,-0.102978,-0.000061,0.000000,0.000000,0.000000,0.000000,819,819,819,819
9881,0,0.002182,0.000000,0.000000,0.00,-0.07,0.000615,0.005000,-0.000045,-0.000409,0.000000,0.000000,0.000000,0.000000,-0.014681,-0.002103,-0.000071,0.000000,0.000000,0.000000,0.000000,819,819,819,819
9897,0,0.001091,0.000000,0.000000,-0.07,0.00,0.000412,0.005000,-0.000159,0.000000,0.000000,0.000000,0.000000,0.000000,-0.072863,-0.086168,-0.000046,0.000000,0.000000,0.000000,0.000000,819,819,819,819
9912,0,0.001091,0.000000,0.000000,0.00,0.00,0.000082,0.005000,-0.000022,0.000000,0.000000,0.000000,0.000000,0.000000,-0.017054,-0.086168,-0.000004,0.000000,0.000000,0.000000,0.000000,819,819,819,819
9924,0,0.001091,0.000000,0.000000,0.00,0.00,-0.000044,0.005000,-0.000022,0.000000,0.000000,0.000000,0.000000,0.000000,-0.017054,-0.086168,0.000013,0.000000,0.000000,0.000000,0.000000,819,819,819,819
9940,0,0.001091,0.000000,0.000000,0.00,0.00,-0.000039,0.005000,-0.000022,0.000000,0.000000,0.000000,0.000000,0.000000,-0.017053,-0.086168,0.000013,0.000000,0.000000,0.000000,0.000000,819,819,819,819
9954,0,0.001091,0.000000,0.000000,0.00,0.00,0.000053,0.005000,-0.000022,0.000000,0.000000,0.000000,0.000000,0.000000,-0.017052,-0.086168,0.000000,0.000000,0.000000,0.000000,0.000000,819,819,819,819
9969,0,0.001091,0.000000,0.000000,0.00,0.00,0.000102,0.005000,-0.000022,0.000000,0.000000,0.000000,0.000000,0.000000,-0.017051,-0.086168,-0.000007,0.000000,0.000000,0.000000,0.000000,819,819,819,819
9989,0,0.001091,0.000000,0.000000,0.00,0.00,0.000097,0.005000,-0.000022,0.000000,0.000000,0.000000,0.000000,0.000000,-0.017051,-0.086168,-0.000006,0.000000,0.000000,0.000000,0.000000,819,819,819,819
10005,0,0.001091,0.000000,0.000000,0.00,0.00,0.000004,0.005000,-0.000022,0.000000,0.000000,0.000000,0.000000,0.000000,-0.017050,-0.086168,0.000006,0.000000,0.000000,0.000000,0.000000,819,819,819,819
10021,0,0.001091,0.000000,0.000000,0.00,0.00,0.000031,0.005000,-0.000022,0.000000,0.000000,0.000000,0.000000,0.000000,-0.017049,-0.086168,0.000002,0.000000,0.000000,0.000000,0.000000,819,819,819,819
10036,0,0.001091,0.000000,0.000000,0.00,0.00,0.000143,0.005000,-0.000022,0.000000,0.000000,0.000000,0.000000,0.000000,-0.017048,-0.086168,-0.000013,0.000000,0.000000,0.000000,0.000000,819,819,819,819
10050,0,0.001091,0.000000,0.000000,0.00,0.00,0.000196,0.005000,-0.000022,0.000000,0.000000,0.000000,0.000000,0.000000,-0.017047,-0.086168,-0.000021,0.000000,0.000000,0.000000,0.000000,819,819,819,819
10065,0,0.001091,0.000000,0.000000,0.00,0.00,0.000115,0.005000,-0.000022,0.000000,0.000000,0.000000,0.000000,0.000000,-0.017047,-0.086168,-0.000011,0.000000,0.000000,0.000000,0.000000,819,819,819,819
10079,0,0.001091,0.000000,0.000000,0.00,0.00,0.000038,0.005000,-0.000022,0.000000,0.000000,0.000000,0.000000,0.000000,-0.017046,-0.086168,-0.000001,0.000000,0.000000,0.000000,0.000000,819,819,819,819
10093,0,0.001091,0.000000,0.000000,0.00,0.00,-0.000114,0.005000,-0.000022,0.000000,0.000000,0.000000,0.000000,0.000000,-0.017045,-0.086168,0.000019,0.000000,0.000000,0.000000,0.000000,819,819,819,819
10105,0,0.001091,0.000000,0.000000,0.00,0.00,-0.000129,0.005000,-0.000022,0.000000,0.000000,0.000000,0.000000,0.000000,-0.017044,-0.086168,0.000022,0.000000,0.000000,0.000000,0.000000,819,819,819,819
10121,0,0.001091,0.000000,0.000000,0.00,0.00,-0.000087,0.005000,-0.000022,0.000000,0.000000,0.000000,0.000000,0.000000,-0.017043,-0.086168,0.000016,0.000000,0.000000,0.000000,0.000000,819,819,819,819
10136,0,0.001091,0.000000,0.000000,0.00,0.00,-0.000017,0.005000,-0.000022,0.000000,0.000000,0.000000,0.000000,0.000000,-0.017043,-0.086168,0.000008,0.000000,0.000000,0.000000,0.000000,819,819,819,819
10150,0,0.001091,0.000000,0.000000,0.00,0.00,0.000012,0.005000,-0.000022,0.000000,0.000000,0.000000,0.000000,0.000000,-0.017042,-0.086168,0.000004,0.000000,0.000000,0.000000,0.000000,819,819,819,819
10164,0,0.001091,0.000000,0.000000,0.00,0.00,0.000048,0.005000,-0.000022,0.000000,0.000000,0.000000,0.000000,0.000000,-0.017041,-0.086168,-0.000001,0.000000,0.000000,0.000000,0.000000,819,819,819,819
10177,0,0.001091,0.000000,0.000000,0.00,0.00,0.000055,0.005000,-0.000022,0.000000,0.000000,0.000000,0.000000,0.000000,-0.017040,-0.086168,-0.000002,0.000000,0.000000,0.000000,0.000000,819,819,819,819
10192,0,0.001091,0.000000,0.000000,0.00,0.00,0.000087,0.005000,-0.000022,0.000000,0.000000,0.000000,0.000000,0.000000,-0.017040,-0.086168,-0.000007,0.000000,0.000000,0.000000,0.000000,819,819,819,819
10207,0,0.001091,0.000000,0.000000,0.00,0.00,0.000124,0.005000,-0.000022,0.000000,0.000000,0.000000,0.000000,0.000000,-0.017039,-0.086168,-0.000012,0.000000,0.000000,0.000000,0.000000,819,819,819,819
10221,0,0.001091,0.000000,0.000000,0.00,0.00,0.000055,0.005000,-0.000022,0.000000,0.000000,0.000000,0.000000,0.000000,-0.017038,-0.086168,-0.000004,0.000000,0.000000,0.000000,0.000000,819,819,819,819
10235,0,0.001091,0.000000,0.000000,0.00,0.00,-0.000065,0.005000,-0.000022,0.000000,0.000000,0.000000,0.000000,0.000000,-0.017037,-0.086168,0.000012,0.000000,0.000000,0.000000,0.000000,819,819,819,819
10249,0,0.001091,0.000000,0.000000,0.00,0.00,-0.000104,0.005000,-0.000022,0.000000,0.000000,0.000000,0.000000,0.000000,-0.017036,-0.086168,0.000018,0.000000,0.000000,0.000000,0.000000,819,819,819,819
10263,0,0.001091,0.000000,0.000000,0.00,0.00,-0.000036,0.005000,-0.000022,0.000000,0.000000,0.000000,0.000000,0.000000,-0.017036,-0.086168,0.000009,0.000000,0.000000,0.000000,0.000000,819,819,819,819
10276,0,0.001091,0.000000,0.000000,0.00,0.00,0.000023,0.005000,-0.000022,0.000000,0.000000,0.000000,0.000000,0.000000,-0.017035,-0.086168,0.000001,0.000000,0.000000,0.000000,0.000000,819,819,819,819
10292,0,0.001091,0.000000,0.000000,0.00,0.00,0.000020,0.005000,-0.000022,0.000000,0.000000,0.000000,0.000000,0.000000,-0.017034,-0.086168,0.000002,0.000000,0.000000,0.000000,0.000000,819,819,819,819
10306,0,0.001091,0.000000,0.000000,0.00,0.00,0.000004,0.005000,-0.000022,0.000000,0.000000,0.000000,0.000000,0.000000,-0.017033,-0.086168,0.000004,0.000000,0.000000,0.000000,0.000000,819,819,819,819
10321,0,0.001091,0.000000,0.000000,0.00,0.00,-0.000030,0.005000,-0.000022,0.000000,0.000000,0.000000,0.000000,0.000000,-0.017032,-0.086168,0.000008,0.000000,0.000000,0.000000,0.000000,819,819,819,819
10335,0,0.001091,0.000000,0.000000,0.00,0.00,-0.000036,0.005000,-0.000022,0.000000,0.000000,0.000000,0.000000,0.000000,-0.017032,-0.086168,0.000009,0.000000,0.000000,0.000000,0.000000,819,819,819,819
10348,0,0.001091,0.000000,0.000000,0.00,0.00,-0.000007,0.005000,-0.000022,0.000000,0.000000,0.000000,0.000000,0.000000,-0.017031,-0.086168,0.000006,0.000000,0.000000,0.000000,0.000000,819,819,819,819
10363,0,0.001091,0.000000,0.000000,0.00,0.00,-0.000047,0.005000,-0.000022,0.000000,0.000000,0.000000,0.000000,0.000000,-0.017030,-0.086168,0.000011,0.000000,0.000000,0.000000,0.000000,819,819,819,819
10380,0,0.001091,0.000000,0.000000,0.00,0.00,-0.000025,0.005000,-0.000022,0.000000,0.000000,0.000000,0.000000,0.000000,-0.017029,-0.086168,0.000008,0.000000,0.000000,0.000000,0.000000,819,819,819,819
10394,0,0.001091,0.000000,0.000000,0.00,0.00,-0.000051,0.005000,-0.000022,0.000000,0.000000,0.000000,0.000000,0.000000,-0.017028,-0.086168,0.000012,0.000000,0.000000,0.000000,0.000000,819,819,819,819
10406,0,0.001091,0.000000,0.000000,0.00,0.00,-0.000025,0.005000,-0.000022,0.000000,0.000000,0.000000,0.000000,0.000000,-0.017027,-0.086168,0.000009,0.000000,0.000000,0.000000,0.000000,819,819,819,819
10422,0,0.001091,0.000000,0.000000,0.00,0.00,0.000041,0.005000,-0.000022,0.000000,0.000000,0.000000,0.000000,0.000000,-0.017027,-0.086168,-0.000000,0.000000,0.000000,0.000000,0.000000,819,819,819,819
10443,0,0.001091,0.000000,0.000000,0.00,0.00,0.000039,0.005000,-0.000022,0.000000,0.000000,0.000000,0.000000,0.000000,-0.017026,-0.086168,-0.000000,0.000000,0.000000,0.000000,0.000000,819,819,819,819
10459,0,0.001091,0.000000,0.000000,0.00,0.00,0.000008,0.005000,-0.000022,0.000000,0.000000,0.000000,0.000000,0.000000,-0.017025,-0.086168,0.000004,0.000000,0.000000,0.000000,0.000000,819,819,819,819
10473,0,0.001091,0.000000,0.000000,0.00,0.00,0.000078,0.005000,-0.000022,0.000000,0.000000,0.000000,0.000000,0.000000,-0.017024,-0.086168,-0.000006,0.000000,0.000000,0.000000,0.000000,819,819,819,819
10489,0,0.001091,0.000000,0.000000,0.00,0.00,0.000137,0.005000,-0.000022,0.000000,0.000000,0.000000,0.000000,0.000000,-0.017023,-0.086168,-0.000014,0.000000,0.000000,0.000000,0.000000,819,819,819,819
10507,0,0.001091,0.000000,0.000000,0.00,0.00,0.000073,0.005000,-0.000022,0.000000,0.000000,0.000000,0.000000,0.000000,-0.017023,-0.086168,-0.000006,0.000000,0.000000,0.000000,0.000000,819,819,819,819
10523,0,0.001091,0.000000,0.000000,0.00,0.00,-0.000031,0.005000,-0.000022,0.000000,0.000000,0.000000,0.000000,0.000000,-0.017022,-0.086168,0.000008,0.000000,0.000000,0.000000,0.000000,819,819,819,819
10537,0,0.001091,0.000000,0.000000,0.00,0.00,-0.000067,0.005000,-0.000022,0.000000,0.000000,0.000000,0.000000,0.000000,-0.017021,-0.086168,0.000013,0.000000,0.000000,0.000000,0.000000,819,819,819,819
10551,0,0.001091,0.000000,0.000000,0.00,0.00,-0.000029,0.005000,-0.000022,0.000000,0.000000,0.000000,0.000000,0.000000,-0.017020,-0.086168,0.000008,0.000000,0.000000,0.000000,0.000000,819,819,819,819
10565,0,0.001091,0.000000,0.000000,0.00,0.00,0.000025,0.005000,-0.000022,0.000000,0.000000,0.000000,0.000000,0.000000,-0.017019,-0.086168,0.000000,0.000000,0.000000,0.000000,0.000000,819,819,819,819
10579,0,0.001091,0.000000,0.000000,0.00,0.00,0.000035,0.005000,-0.000022,0.000000,0.000000,0.000000,0.000000,0.000000,-0.017018,-0.086168,-0.000000,0.000000,0.000000,0.000000,0.000000,819,819,819,819
10594,0,0.001091,0.000000,0.000000,0.00,0.00,-0.000054,0.005000,-0.000022,0.000000,0.000000,0.000000,0.000000,0.000000,-0.017018,-0.086168,0.000011,0.000000,0.000000,0.000000,0.000000,819,819,819,819
10606,0,0.001091,0.000000,0.000000,0.00,0.00,-0.000072,0.005000,-0.000022,0.000000,0.000000,0.000000,0.000000,0.000000,-0.017017,-0.086168,0.000014,0.000000,0.000000,0.000000,0.000000,819,819,819,819
10623,0,0.001091,0.000000,0.000000,0.00,0.00,-0.000106,0.005000,-0.000022,0.000000,0.000000,0.000000,0.000000,0.000000,-0.017016,-0.086168,0.000018,0.000000,0.000000,0.000000,0.000000,819,819,819,819
10637,0,0.001091,0.000000,0.000000,0.00,0.00,-0.000113,0.005000,-0.000022,0.000000,0.000000,0.000000,0.000000,0.000000,-0.017015,-0.086168,0.000020,0.000000,0.000000,0.000000,0.000000,819,819,819,819
10651,0,0.001091,0.000000,0.000000,0.00,0.00,-0.000114,0.005000,-0.000022,0.000000,0.000000,0.000000,0.000000,0.000000,-0.017014,-0.086168,0.000021,0.000000,0.000000,0.000000,0.000000,819,819,819,819
10666,0,0.001091,0.000000,0.000000,0.00,0.00,-0.000068,0.005000,-0.000022,0.000000,0.000000,0.000000,0.000000,0.000000,-0.017013,-0.086168,0.000015,0.000000,0.000000,0.000000,0.000000,819,819,819,819
10679,0,0.001091,0.000000,0.000000,0.00,0.00,0.000002,0.005000,-0.000022,0.000000,0.000000,0.000000,0.000000,0.000000,-0.017013,-0.086168,0.000006,0.000000,0.000000,0.000000,0.000000,819,819,819,819
10694,0,0.001091,0.000000,0.000000,0.00,0.00,0.000076,0.005000,-0.000022,0.000000,0.000000,0.000000,0.000000,0.000000,-0.017012,-0.086168,-0.000004,0.000000,0.000000,0.000000,0.000000,819,819,819,819
10706,0,0.001091,0.000000,0.000000,0.00,0.00,0.000031,0.005000,-0.000022,0.000000,0.000000,0.000000,0.000000,0.000000,-0.017011,-0.086168,0.000002,0.000000,0.000000,0.000000,0.000000,819,819,819,819
10723,0,0.001091,0.000000,0.000000,0.00,0.00,-0.000009,0.005000,-0.000022,0.000000,0.000000,0.000000,0.000000,0.000000,-0.017010,-0.086168,0.000007,0.000000,0.000000,0.000000,0.000000,819,819,819,819
10737,0,0.001091,0.000000,0.000000,0.00,0.00,-0.000032,0.005000,-0.000022,0.000000,0.000000,0.000000,0.000000,0.000000,-0.017009,-0.086168,0.000010,0.000000,0.000000,0.000000,0.000000,819,819,819,819
10751,0,0.001091,0.000000,0.000000,0.00,0.00,-0.000067,0.006000,-0.000022,0.000000,0.000000,0.000000,0.000000,0.000000,-0.017008,-0.086168,0.000015,0.000000,0.000000,0.000000,0.000000,819,819,819,819
10765,0,0.001091,0.000000,0.000000,0.00,0.00,-0.000074,0.006000,-0.000022,0.000000,0.000000,0.000000,0.000000,0.000000,-0.017008,-0.086168,0.000016,0.000000,0.000000,0.000000,0.000000,819,819,819,819
10777,0,0.001091,0.000000,0.000000,0.00,0.00,-0.000015,0.006000,-0.000022,0.000000,0.000000,0.000000,0.000000,0.000000,-0.017007,-0.086168,0.000009,0.000000,0.000000,0.000000,0.000000,819,819,819,819
10794,0,0.001091,0.000000,0.000000,0.00,0.00,0.000043,0.006000,-0.000022,0.000000,0.000000,0.000000,0.000000,0.000000,-0.017006,-0.086168,0.000001,0.000000,0.000000,0.000000,0.000000,819,819,819,819
10808,0,0.001091,0.000000,0.000000,0.00,0.00,0.000039,0.006000,-0.000022,0.000000,0.000000,0.000000,0.000000,0.000000,-0.017005,-0.086168,0.000002,0.000000,0.000000,0.000000,0.000000,819,819,819,819
10822,0,0.001091,0.000000,0.000000,0.00,0.00,-0.000023,0.006000,-0.000022,0.000000,0.000000,0.000000,0.000000,0.000000,-0.017004,-0.086168,0.000010,0.000000,0.000000,0.000000,0.000000,819,819,819,819
10836,0,0.001091,0.000000,0.000000,0.00,0.00,-0.000081,0.006000,-0.000022,0.000000,0.000000,0.000000,0.000000,0.000000,-0.017003,-0.086168,0.000017,0.000000,0.000000,0.000000,0.000000,819,819,819,819
10849,0,0.001091,0.000000,0.000000,0.00,0.00,-0.000077,0.006000,-0.000022,0.000000,0.000000,0.000000,0.000000,0.000000,-0.017002,-0.086168,0.000017,0.000000,0.000000,0.000000,0.000000,819,819,819,819
10864,0,0.001091,0.000000,0.000000,0.00,0.00,0.000015,0.006000,-0.000022,0.000000,0.000000,0.000000,0.000000,0.000000,-0.017002,-0.086168,0.000006,0.000000,0.000000,0.000000,0.000000,819,819,819,819
10884,0,0.001091,0.000000,0.000000,0.00,0.00,-0.000027,0.006000,-0.000022,0.000000,0.000000,0.000000,0.000000,0.000000,-0.017001,-0.086168,0.000011,0.000000,0.000000,0.000000,0.000000,819,819,819,819
10899,0,0.001091,0.000000,0.000000,0.00,0.00,-0.000112,0.008000,-0.000022,0.000000,0.000000,0.000000,0.000000,0.000000,-0.017000,-0.086168,0.000023,0.000000,0.000000,0.000000,0.000000,819,819,819,819
10912,0,0.001091,0.000000,0.000000,0.00,0.00,-0.000083,0.008000,-0.000022,0.000000,0.000000,0.000000,0.000000,0.000000,-0.016999,-0.086168,0.000019,0.000000,0.000000,0.000000,0.000000,819,819,819,819
10925,0,0.001091,0.000000,0.000000,0.00,0.00,0.000059,0.008000,-0.000022,0.000000,0.000000,0.000000,0.000000,0.000000,-0.016998,-0.086168,0.000000,0.000000,0.000000,0.000000,0.000000,819,819,819,819
10941,0,0.001091,0.000000,0.000000,0.00,0.00,0.000058,0.008000,-0.000022,0.000000,0.000000,0.000000,0.000000,0.000000,-0.016997,-0.086168,0.000000,0.000000,0.000000,0.000000,0.000000,819,819,819,819
10955,0,0.001091,0.000000,0.000000,0.00,0.00,-0.000034,0.008000,-0.000022,0.000000,0.000000,0.000000,0.000000,0.000000,-0.016997,-0.086168,0.000013,0.000000,0.000000,0.000000,0.000000,819,819,819,819
10968,0,0.001091,0.000000,0.000000,0.00,0.00,-0.000068,0.008000,-0.000022,0.000000,0.000000,0.000000,0.000000,0.000000,-0.016996,-0.086168,0.000017,0.000000,0.000000,0.000000,0.000000,819,819,819,819
10984,0,0.001091,0.000000,0.000000,0.00,0.00,-0.000090,0.019000,-0.000022,0.000000,0.000000,0.000000,0.000000,0.000000,-0.016995,-0.086168,0.000020,0.000000,0.000000,0.000000,0.000000,819,819,819,819
10999,0,0.001091,0.000000,0.000000,0.00,0.00,0.000013,0.029000,-0.000022,0.000000,0.000000,0.000000,0.000000,0.000000,-0.016994,-0.086168,0.000007,-0.040167,0.132154,-0.074169,0.098181,835,968,835,940
11014,0,0.001091,0.000000,0.000000,0.00,0.00,0.000048,0.044000,-0.000023,0.000000,0.000000,0.000000,0.000000,0.000000,-0.016993,-0.086168,0.000003,-0.025173,0.147158,-0.059163,0.113178,835,980,835,952
11030,0,0.001091,0.000000,0.000000,0.00,0.00,0.000040,0.044000,-0.000023,0.000000,0.000000,0.000000,0.000000,0.000000,-0.016991,-0.086168,0.000003,-0.025173,0.147156,-0.059163,0.113180,835,980,835,952
11045,0,0.001091,0.000000,0.000000,0.00,0.00,0.000023,0.064000,-0.000024,0.000000,0.000000,0.000000,0.000000,0.000000,-0.016990,-0.086168,0.000005,-0.005173,0.167152,-0.039163,0.133183,835,997,835,969
11057,0,0.001091,0.000000,0.000000,0.00,0.00,-0.000239,0.071000,-0.000025,0.000000,0.000000,0.000000,0.000000,0.000000,-0.016988,-0.086168,0.000040,0.001861,0.174116,-0.032197,0.140220,835,1002,835,974
11074,0,0.001091,0.000000,0.000000,0.00,0.00,-0.000154,0.080000,-0.000025,0.000000,0.000000,0.000000,0.000000,0.000000,-0.016987,-0.086168,0.000030,0.010849,0.183125,-0.023185,0.149211,835,1010,835,982
11089,0,0.001091,0.000000,0.000000,0.00,0.00,0.000121,0.080000,-0.000026,0.000000,0.000000,0.000000,0.000000,0.000000,-0.016986,-0.086168,-0.000006,0.010812,0.183159,-0.023148,0.149177,835,1010,835,982
11103,0,0.001091,0.000000,0.000000,0.00,0.00,0.000359,0.080000,-0.000026,0.000000,0.000000,0.000000,0.000000,0.000000,-0.016984,-0.086168,-0.000038,0.010778,0.183190,-0.023114,0.149146,835,1010,835,982
11116,0,0.001091,0.000000,0.000000,0.00,0.00,0.000224,0.080000,-0.000027,0.000000,0.000000,0.000000,0.000000,0.000000,-0.016983,-0.086168,-0.000022,0.010793,0.183172,-0.023129,0.149163,835,1010,835,982
11132,0,0.001091,0.000000,0.000000,0.00,0.00,0.000197,0.104000,-0.000027,0.000000,0.000000,0.000000,0.000000,0.000000,-0.016981,-0.086168,-0.000019,0.034794,0.207169,0.000870,0.173167,847,1029,836,1001
11146,0,0.000000,0.000000,0.000000,-0.08,0.00,0.000573,0.106000,-0.000161,0.000000,0.000000,0.000000,0.000000,0.000000,-0.083636,-0.086168,-0.000070,0.103398,0.275875,-0.063734,0.108461,903,1086,835,948
11159,0,0.000000,0.000000,0.000000,0.00,0.00,0.000998,0.106000,-0.000005,0.000000,0.000000,0.000000,0.000000,0.000000,-0.020032,-0.086168,-0.000130,0.039735,0.212330,-0.000070,0.172006,851,1034,835,1001
11173,0,-0.001091,0.000000,-0.001091,-0.08,0.00,0.001129,0.107000,-0.000139,0.000000,0.000000,0.000000,0.000000,0.000000,-0.086693,-0.086168,-0.000153,0.107372,0.280013,-0.065708,0.106323,907,1089,835,947
11186,0,-0.002182,-0.001091,-0.002182,-0.08,-0.08,0.000865,0.107000,-0.000128,-0.000448,0.000000,0.000000,0.000000,0.000000,-0.094882,0.040311,-0.000124,0.242069,0.161695,0.052553,-0.028317,1017,992,878,836
11202,0,-0.002182,-0.001091,-0.003272,0.00,0.00,-0.000192,0.107000,0.000041,0.000056,0.000000,0.000000,0.000000,0.000000,-0.026394,-0.062743,0.000011,0.070662,0.196126,0.017852,0.143361,877,1020,850,977
11217,0,0.003272,-0.002182,-0.003272,0.36,-0.07,-0.004395,0.107000,0.000657,-0.000325,0.000000,0.000000,0.000000,0.000000,0.284723,0.046949,0.000568,-0.130206,-0.225240,0.438104,0.345343,835,835,1194,1142
11231,0,0.005454,-0.002182,-0.002182,0.16,0.00,-0.004702,0.107000,0.000195,0.000113,0.000000,0.000000,0.000000,0.000000,0.121289,-0.042339,0.000634,-0.055994,0.027416,0.185317,0.271261,835,882,987,1082
11246,0,0.006545,-0.002182,-0.002182,0.07,0.00,-0.001169,0.107000,0.000004,0.000114,0.000000,0.000000,0.000000,0.000000,0.056337,-0.042305,0.000192,0.008550,0.092775,0.120840,0.205835,835,936,934,1028
11258,0,0.006545,-0.002182,-0.003272,0.00,0.00,0.000071,0.107000,-0.000145,0.000115,0.000000,0.000000,0.000000,0.000000,-0.003006,-0.042271,0.000035,0.067770,0.152242,0.061688,0.146300,874,984,886,979
