t,is_crashed,roll,pitch,yaw,p,q,r,throttle,p_cmd,q_cmd,r_cmd,roll_cmd,pitch_cmd,yaw_cmd,roll_pid_out,pitch_pid_out,yaw_pid_out,motor_fl,motor_bl,motor_fr,motor_br,pwm_fl,pwm_bl,pwm_fr,pwm_br
6944,0,0.037088,0.034907,-0.001091,0.00,-0.00,-0.000032,-1.000000,-0.022025,-0.034907,0.000000,-1.047198,-1.047198,0.000000,0.000299,-0.000808,0.000001,0.000000,0.000000,0.000000,0.000000,0,0,0,0
6955,0,0.000000,0.000000,-0.001091,-0.51,-0.48,-0.000086,0.005000,-0.001350,-0.003232,0.000000,0.000000,0.000000,0.000000,-0.006798,0.010897,0.000004,0.000000,0.000000,0.000000,0.000000,819,819,819,819
6965,0,0.000000,0.000000,-0.001091,0.00,-0.00,-0.000126,0.005000,0.000000,-0.000000,0.000000,0.000000,0.000000,0.000000,-0.001174,0.000762,0.000006,0.000000,0.000000,0.000000,0.000000,819,819,819,819
6975,0,0.000000,0.000000,-0.001091,0.00,-0.00,-0.000100,0.005000,0.000000,-0.000000,0.000000,0.000000,0.000000,0.000000,-0.001174,0.000762,0.000005,0.000000,0.000000,0.000000,0.000000,819,819,819,819
6985,0,0.000000,0.000000,-0.001091,0.00,0.00,-0.000031,0.005000,0.000000,0.000000,0.000000,0.000000,0.000000,0.000000,-0.001174,0.000761,0.000002,0.000000,0.000000,0.000000,0.000000,819,819,819,819
6995,0,0.000000,0.000000,-0.001091,0.00,0.00,0.000012,0.005000,0.000000,0.000000,0.000000,0.000000,0.000000,0.000000,-0.001174,0.000760,-0.000000,0.000000,0.000000,0.000000,0.000000,819,819,819,819
7005,0,0.000000,0.000000,-0.001091,0.00,0.00,0.000002,0.005000,0.000000,0.000000,0.000000,0.000000,0.000000,0.000000,-0.001174,0.000761,0.000000,0.000000,0.000000,0.000000,0.000000,819,819,819,819
7015,0,0.000000,0.000000,-0.001091,-0.00,0.00,0.000065,0.005000,-0.000000,0.000000,0.000000,0.000000,0.000000,0.000000,-0.001175,0.000760,-0.000003,0.000000,0.000000,0.000000,0.000000,819,819,819,819
7025,0,0.000000,0.000000,-0.001091,0.00,0.00,0.000042,0.005000,0.000000,0.000000,0.000000,0.000000,0.000000,0.000000,-0.001174,0.000761,-0.000002,0.000000,0.000000,0.000000,0.000000,819,819,819,819
7035,0,0.000000,0.000000,-0.001091,0.00,-0.00,0.000039,0.005000,0.000000,-0.000000,0.000000,0.000000,0.000000,0.000000,-0.001174,0.000762,-0.000001,0.000000,0.000000,0.000000,0.000000,819,819,819,819
7045,0,0.000000,0.000000,-0.001091,0.00,0.00,0.000022,0.005000,0.000000,0.000000,0.000000,0.000000,0.000000,0.000000,-0.001174,0.000761,-0.000000,0.000000,0.000000,0.000000,0.000000,819,819,819,819
7055,0,0.000000,0.000000,-0.001091,0.00,0.00,-0.000029,0.005000,0.000000,0.000000,0.000000,0.000000,0.000000,0.000000,-0.001174,0.000760,0.000002,0.000000,0.000000,0.000000,0.000000,819,819,819,819
7065,0,0.000000,0.000000,-0.001091,0.00,-0.00,-0.000053,0.005000,0.000000,-0.000000,0.000000,0.000000,0.000000,0.000000,-0.001174,0.000762,0.000003,0.000000,0.000000,0.000000,0.000000,819,819,819,819
7082,0,0.000000,0.000000,-0.001091,0.00,0.00,-0.000024,0.005000,0.000000,0.000000,0.000000,0.000000,0.000000,0.000000,-0.001174,0.000761,0.000001,0.000000,0.000000,0.000000,0.000000,819,819,819,819
7091,0,0.000000,0.000000,-0.001091,-0.00,0.00,-0.000036,0.005000,-0.000000,0.000000,0.000000,0.000000,0.000000,0.000000,-0.001174,0.000761,0.000002,0.000000,0.000000,0.000000,0.000000,819,819,819,819
7103,0,0.000000,0.000000,-0.001091,0.00,-0.00,0.000059,0.005000,0.000000,-0.000000,0.000000,0.000000,0.000000,0.000000,-0.001174,0.000763,-0.000002,0.000000,0.000000,0.000000,0.000000,819,819,819,819
7114,0,0.000000,0.000000,-0.001091,0.00,-0.00,0.000155,0.005000,0.000000,-0.000000,0.000000,0.000000,0.000000,0.000000,-0.001174,0.000764,-0.000007,0.000000,0.000000,0.000000,0.000000,819,819,819,819
7125,0,0.000000,0.000000,-0.001091,0.00,0.00,0.000250,0.005000,0.000000,0.000000,0.000000,0.000000,0.000000,0.000000,-0.001174,0.000762,-0.000011,0.000000,0.000000,0.000000,0.000000,819,819,819,819
7135,0,0.000000,0.000000,-0.001091,-0.00,0.00,0.000135,0.005000,-0.000000,0.000000,0.000000,0.000000,0.000000,0.000000,-0.001174,0.000762,-0.000006,0.000000,0.000000,0.000000,0.000000,819,819,819,819
7145,0,0.000000,0.000000,-0.001091,-0.00,0.00,0.000069,0.005000,-0.000000,0.000000,0.000000,0.000000,0.000000,0.000000,-0.001174,0.000761,-0.000003,0.000000,0.000000,0.000000,0.000000,819,819,819,819
7155,0,0.000000,0.000000,-0.001091,0.00,0.00,-0.000022,0.005000,0.000000,0.000000,0.000000,0.000000,0.000000,0.000000,-0.001174,0.000759,0.000000,0.000000,0.000000,0.000000,0.000000,819,819,819,819
7165,0,0.000000,0.000000,-0.001091,0.00,-0.00,-0.000003,0.005000,0.000000,-0.000000,0.000000,0.000000,0.000000,0.000000,-0.001174,0.000762,-0.000000,0.000000,0.000000,0.000000,0.000000,819,819,819,819
7175,0,0.000000,0.000000,-0.001091,0.00,-0.00,0.000032,0.005000,0.000000,-0.000000,0.000000,0.000000,0.000000,0.000000,-0.001174,0.000762,-0.000002,0.000000,0.000000,0.000000,0.000000,819,819,819,819
7185,0,0.000000,0.000000,-0.001091,-0.00,-0.00,0.000150,0.005000,-0.000000,-0.000000,0.000000,0.000000,0.000000,0.000000,-0.001174,0.000764,-0.000007,0.000000,0.000000,0.000000,0.000000,819,819,819,819
7195,0,0.000000,0.000000,-0.001091,-0.00,-0.00,0.000184,0.005000,-0.000000,-0.000000,0.000000,0.000000,0.000000,0.000000,-0.001174,0.000764,-0.000009,0.000000,0.000000,0.000000,0.000000,819,819,819,819
7205,0,-0.001091,0.000000,-0.001091,-0.02,-0.00,0.000141,0.005000,-0.000011,-0.000000,0.000000,0.000000,0.000000,0.000000,-0.001397,0.000763,-0.000007,0.000000,0.000000,0.000000,0.000000,819,819,819,819
7215,0,-0.001091,0.000000,-0.001091,0.00,0.00,0.000151,0.005000,0.000022,0.000000,0.000000,0.000000,0.000000,0.000000,-0.001215,0.000761,-0.000008,0.000000,0.000000,0.000000,0.000000,819,819,819,819
7225,0,-0.001091,0.000000,-0.001091,-0.00,0.00,0.000136,0.005000,0.000022,0.000000,0.000000,0.000000,0.000000,0.000000,-0.001216,0.000761,-0.000007,0.000000,0.000000,0.000000,0.000000,819,819,819,819
7235,0,-0.001091,0.000000,-0.001091,-0.00,-0.00,0.000117,0.005000,0.000022,-0.000000,0.000000,0.000000,0.000000,0.000000,-0.001216,0.000762,-0.000007,0.000000,0.000000,0.000000,0.000000,819,819,819,819
7245,0,-0.001091,0.000000,-0.001091,-0.00,-0.00,0.000147,0.005000,0.000022,-0.000000,0.000000,0.000000,0.000000,0.000000,-0.001216,0.000764,-0.000008,0.000000,0.000000,0.000000,0.000000,819,819,819,819
7255,0,-0.001091,0.000000,-0.001091,0.00,-0.00,0.000087,0.005000,0.000022,-0.000000,0.000000,0.000000,0.000000,0.000000,-0.001216,0.000763,-0.000005,0.000000,0.000000,0.000000,0.000000,819,819,819,819
7265,0,-0.001091,0.000000,-0.001091,0.00,-0.00,0.000045,0.005000,0.000022,-0.000000,0.000000,0.000000,0.000000,0.000000,-0.001216,0.000762,-0.000004,0.000000,0.000000,0.000000,0.000000,819,819,819,819
7275,0,-0.001091,0.000000,-0.001091,0.00,-0.00,-0.000009,0.005000,0.000022,-0.000000,0.000000,0.000000,0.000000,0.000000,-0.001216,0.000763,-0.000001,0.000000,0.000000,0.000000,0.000000,819,819,819,819
7286,0,-0.001091,0.000000,-0.001091,-0.00,0.00,-0.000082,0.005000,0.000022,0.000000,0.000000,0.000000,0.000000,0.000000,-0.001216,0.000762,0.000002,0.000000,0.000000,0.000000,0.000000,819,819,819,819
7295,0,-0.001091,0.000000,-0.001091,0.00,0.00,-0.000077,0.005000,0.000022,0.000000,0.000000,0.000000,0.000000,0.000000,-0.001216,0.000762,0.000002,0.000000,0.000000,0.000000,0.000000,819,819,819,819
7305,0,-0.001091,0.000000,-0.001091,0.00,0.00,-0.000012,0.005000,0.000022,0.000000,0.000000,0.000000,0.000000,0.000000,-0.001216,0.000761,-0.000000,0.000000,0.000000,0.000000,0.000000,819,819,819,819
7315,0,-0.001091,0.000000,-0.001091,-0.00,-0.00,-0.000002,0.005000,0.000022,-0.000000,0.000000,0.000000,0.000000,0.000000,-0.001217,0.000763,-0.000001,0.000000,0.000000,0.000000,0.000000,819,819,819,819
7325,0,-0.001091,0.000000,-0.001091,0.00,0.00,-0.000081,0.005000,0.000022,0.000000,0.000000,0.000000,0.000000,0.000000,-0.001216,0.000761,0.000002,0.000000,0.000000,0.000000,0.000000,819,819,819,819
7336,0,-0.001091,0.000000,-0.001091,-0.00,0.00,-0.000125,0.005000,0.000022,0.000000,0.000000,0.000000,0.000000,0.000000,-0.001217,0.000761,0.000004,0.000000,0.000000,0.000000,0.000000,819,819,819,819
7346,0,-0.001091,0.000000,-0.001091,-0.00,0.00,-0.000084,0.005000,0.000022,0.000000,0.000000,0.000000,0.000000,0.000000,-0.001217,0.000761,0.000003,0.000000,0.000000,0.000000,0.000000,819,819,819,819
7356,0,-0.001091,0.000000,-0.001091,-0.00,-0.00,-0.000013,0.005000,0.000022,-0.000000,0.000000,0.000000,0.000000,0.000000,-0.001217,0.000763,-0.000000,0.000000,0.000000,0.000000,0.000000,819,819,819,819
7366,0,-0.001091,0.000000,-0.001091,-0.00,0.00,0.000014,0.005000,0.000022,0.000000,0.000000,0.000000,0.000000,0.000000,-0.001217,0.000762,-0.000002,0.000000,0.000000,0.000000,0.000000,819,819,819,819
7375,0,-0.001091,0.000000,-0.001091,0.00,-0.00,-0.000030,0.005000,0.000022,-0.000000,0.000000,0.000000,0.000000,0.000000,-0.001217,0.000763,0.000000,0.000000,0.000000,0.000000,0.000000,819,819,819,819
7386,0,-0.001091,0.000000,-0.001091,0.00,-0.00,-0.000021,0.005000,0.000022,-0.000000,0.000000,0.000000,0.000000,0.000000,-0.001217,0.000763,-0.000000,0.000000,0.000000,0.000000,0.000000,819,819,819,819
7403,0,-0.001091,0.000000,-0.001091,-0.00,0.00,-0.000019,0.005000,0.000022,0.000000,0.000000,0.000000,0.000000,0.000000,-0.001217,0.000762,-0.000000,0.000000,0.000000,0.000000,0.000000,819,819,819,819
7415,0,-0.001091,0.000000,-0.001091,0.00,0.00,-0.000051,0.005000,0.000022,0.000000,0.000000,0.000000,0.000000,0.000000,-0.001217,0.000760,0.000001,0.000000,0.000000,0.000000,0.000000,819,819,819,819
7426,0,-0.001091,0.000000,-0.001091,-0.00,0.00,-0.000040,0.005000,0.000022,0.000000,0.000000,0.000000,0.000000,0.000000,-0.001217,0.000762,0.000000,0.000000,0.000000,0.000000,0.000000,819,819,819,819
7436,0,-0.001091,0.000000,-0.001091,-0.00,-0.00,-0.000022,0.005000,0.000022,-0.000000,0.000000,0.000000,0.000000,0.000000,-0.001218,0.000763,0.000000,0.000000,0.000000,0.000000,0.000000,819,819,819,819
7446,0,-0.001091,0.000000,-0.001091,-0.00,0.00,0.000045,0.005000,0.000022,0.000000,0.000000,0.000000,0.000000,0.000000,-0.001218,0.000762,-0.000003,0.000000,0.000000,0.000000,0.000000,819,819,819,819
7456,0,-0.001091,0.000000,-0.001091,-0.00,-0.00,0.000072,0.005000,0.000022,-0.000000,0.000000,0.000000,0.000000,0.000000,-0.001218,0.000762,-0.000004,0.000000,0.000000,0.000000,0.000000,819,819,819,819
7466,0,-0.001091,0.000000,-0.001091,-0.00,-0.00,0.000173,0.005000,0.000022,-0.000000,0.000000,0.000000,0.000000,0.000000,-0.001218,0.000764,-0.000009,0.000000,0.000000,0.000000,0.000000,819,819,819,819
7476,0,-0.001091,0.000000,-0.001091,-0.00,-0.00,0.000204,0.005000,0.000022,-0.000000,0.000000,0.000000,0.000000,0.000000,-0.001218,0.000764,-0.000010,0.000000,0.000000,0.000000,0.000000,819,819,819,819
7486,0,-0.001091,0.000000,-0.001091,0.00,-0.00,0.000144,0.005000,0.000022,-0.000000,0.000000,0.000000,0.000000,0.000000,-0.001218,0.000763,-0.000008,0.000000,0.000000,0.000000,0.000000,819,819,819,819
7496,0,-0.001091,0.000000,-0.001091,0.00,0.00,0.000086,0.005000,0.000022,0.000000,0.000000,0.000000,0.000000,0.000000,-0.001218,0.000761,-0.000006,0.000000,0.000000,0.000000,0.000000,819,819,819,819
7506,0,-0.001091,0.000000,-0.001091,0.00,0.00,0.000078,0.005000,0.000022,0.000000,0.000000,0.000000,0.000000,0.000000,-0.001218,0.000761,-0.000005,0.000000,0.000000,0.000000,0.000000,819,819,819,819
7516,0,-0.001091,0.000000,-0.001091,0.00,0.00,0.000028,0.005000,0.000022,0.000000,0.000000,0.000000,0.000000,0.000000,-0.001218,0.000762,-0.000003,0.000000,0.000000,0.000000,0.000000,819,819,819,819
7526,0,-0.001091,0.000000,-0.001091,0.00,-0.00,-0.000044,0.005000,0.000022,-0.000000,0.000000,0.000000,0.000000,0.000000,-0.001218,0.000763,0.000000,0.000000,0.000000,0.000000,0.000000,819,819,819,819
7536,0,-0.001091,0.000000,-0.001091,-0.00,-0.00,0.000058,0.005000,0.000022,-0.000000,0.000000,0.000000,0.000000,0.000000,-0.001219,0.000764,-0.000004,0.000000,0.000000,0.000000,0.000000,819,819,819,819
7546,0,-0.001091,0.000000,-0.001091,0.00,-0.00,0.000235,0.005000,0.000022,-0.000000,0.000000,0.000000,0.000000,0.000000,-0.001218,0.000765,-0.000012,0.000000,0.000000,0.000000,0.000000,819,819,819,819
7556,0,-0.001091,0.000000,-0.001091,-0.00,-0.00,0.000246,0.005000,0.000022,-0.000000,0.000000,0.000000,0.000000,0.000000,-0.001219,0.000765,-0.000013,0.000000,0.000000,0.000000,0.000000,819,819,819,819
7566,0,-0.001091,0.000000,0.000000,0.00,-0.00,0.000134,0.005000,0.000022,-0.000000,0.000000,0.000000,0.000000,0.000000,-0.001218,0.000764,-0.000008,0.000000,0.000000,0.000000,0.000000,819,819,819,819
7576,0,-0.001091,0.000000,0.000000,0.00,0.00,0.000069,0.005000,0.000022,0.000000,0.000000,0.000000,0.000000,0.000000,-0.001219,0.000763,-0.000006,0.000000,0.000000,0.000000,0.000000,819,819,819,819
7586,0,-0.001091,0.000000,0.000000,-0.00,0.00,-0.000022,0.005000,0.000022,0.000000,0.000000,0.000000,0.000000,0.000000,-0.001219,0.000761,-0.000002,0.000000,0.000000,0.000000,0.000000,819,819,819,819
7596,0,-0.001091,0.000000,0.000000,0.00,0.00,-0.000003,0.005000,0.000022,0.000000,0.000000,0.000000,0.000000,0.000000,-0.001218,0.000761,-0.000002,0.000000,0.000000,0.000000,0.000000,819,819,819,819
7606,0,-0.001091,0.000000,0.000000,0.00,0.00,-0.000017,0.005000,0.000022,0.000000,0.000000,0.000000,0.000000,0.000000,-0.001219,0.000763,-0.000002,0.000000,0.000000,0.000000,0.000000,819,819,819,819
7616,0,-0.001091,0.000000,0.000000,-0.00,0.00,-0.000051,0.005000,0.000022,0.000000,0.000000,0.000000,0.000000,0.000000,-0.001219,0.000762,-0.000000,0.000000,0.000000,0.000000,0.000000,819,819,819,819
7626,0,-0.001091,0.000000,0.000000,-0.00,-0.00,-0.000056,0.005000,0.000022,-0.000000,0.000000,0.000000,0.000000,0.000000,-0.001219,0.000763,0.000000,0.000000,0.000000,0.000000,0.000000,819,819,819,819
7636,0,-0.001091,0.000000,0.000000,-0.00,-0.00,-0.000041,0.005000,0.000022,-0.000000,0.000000,0.000000,0.000000,0.000000,-0.001219,0.000764,-0.000000,0.000000,0.000000,0.000000,0.000000,819,819,819,819
7646,0,-0.001091,0.000000,0.000000,0.00,0.00,-0.000038,0.005000,0.000022,0.000000,0.000000,0.000000,0.000000,0.000000,-0.001219,0.000763,-0.000000,0.000000,0.000000,0.000000,0.000000,819,819,819,819
7656,0,-0.001091,0.000000,0.000000,-0.00,0.00,0.000027,0.005000,0.000022,0.000000,0.000000,0.000000,0.000000,0.000000,-0.001219,0.000762,-0.000004,0.000000,0.000000,0.000000,0.000000,819,819,819,819
7666,0,-0.001091,0.000000,0.000000,0.00,0.00,0.000020,0.005000,0.000022,0.000000,0.000000,0.000000,0.000000,0.000000,-0.001219,0.000763,-0.000003,0.000000,0.000000,0.000000,0.000000,819,819,819,819
7676,0,-0.001091,0.000000,0.000000,0.00,-0.00,0.000149,0.005000,0.000022,-0.000000,0.000000,0.000000,0.000000,0.000000,-0.001219,0.000764,-0.000009,0.000000,0.000000,0.000000,0.000000,819,819,819,819
7687,0,-0.001091,0.000000,0.000000,-0.00,-0.00,0.000103,0.005000,0.000022,-0.000000,0.000000,0.000000,0.000000,0.000000,-0.001221,0.000764,-0.000007,0.000000,0.000000,0.000000,0.000000,819,819,819,819
7698,0,-0.001091,0.000000,0.000000,0.00,-0.00,-0.000000,0.005000,0.000022,-0.000000,0.000000,0.000000,0.000000,0.000000,-0.001219,0.000766,-0.000003,0.000000,0.000000,0.000000,0.000000,819,819,819,819
7707,0,-0.001091,0.000000,0.000000,0.00,0.00,0.000307,0.005000,0.000022,0.000000,0.000000,0.000000,0.000000,0.000000,-0.001219,0.000763,-0.000017,0.000000,0.000000,0.000000,0.000000,819,819,819,819
7724,0,-0.001091,0.000000,0.000000,-0.00,-0.00,0.000095,0.005000,0.000022,-0.000000,0.000000,0.000000,0.000000,0.000000,-0.001220,0.000764,-0.000007,0.000000,0.000000,0.000000,0.000000,819,819,819,819
7736,0,-0.001091,0.000000,0.000000,-0.00,-0.00,0.000063,0.005000,0.000022,-0.000000,0.000000,0.000000,0.000000,0.000000,-0.001220,0.000765,-0.000006,0.000000,0.000000,0.000000,0.000000,819,819,819,819
7746,0,-0.001091,0.000000,0.000000,-0.00,-0.00,0.000026,0.005000,0.000022,-0.000000,0.000000,0.000000,0.000000,0.000000,-0.001220,0.000764,-0.000004,0.000000,0.000000,0.000000,0.000000,819,819,819,819
7756,0,-0.001091,0.000000,0.000000,-0.00,-0.00,0.000101,0.005000,0.000022,-0.000000,0.000000,0.000000,0.000000,0.000000,-0.001221,0.000764,-0.000008,0.000000,0.000000,0.000000,0.000000,819,819,819,819
7767,0,-0.001091,0.000000,0.000000,-0.00,-0.00,0.000080,0.005000,0.000022,-0.000000,0.000000,0.000000,0.000000,0.000000,-0.001220,0.000764,-0.000007,0.000000,0.000000,0.000000,0.000000,819,819,819,819
7778,0,-0.001091,0.000000,0.000000,0.00,-0.00,0.000093,0.005000,0.000022,-0.000000,0.000000,0.000000,0.000000,0.000000,-0.001220,0.000764,-0.000008,0.000000,0.000000,0.000000,0.000000,819,819,819,819
7790,0,-0.001091,0.000000,0.000000,0.00,-0.00,0.000062,0.005000,0.000022,-0.000000,0.000000,0.000000,0.000000,0.000000,-0.001220,0.000764,-0.000006,0.000000,0.000000,0.000000,0.000000,819,819,819,819
7799,0,-0.001091,0.000000,0.000000,0.00,-0.00,0.000026,0.005000,0.000022,-0.000000,0.000000,0.000000,0.000000,0.000000,-0.001220,0.000764,-0.000005,0.000000,0.000000,0.000000,0.000000,819,819,819,819
7808,0,-0.001091,0.000000,0.000000,-0.00,0.00,-0.000012,0.005000,0.000022,0.000000,0.000000,0.000000,0.000000,0.000000,-0.001221,0.000763,-0.000003,0.000000,0.000000,0.000000,0.000000,819,819,819,819
7817,0,-0.001091,0.000000,0.000000,0.00,-0.00,-0.000050,0.005000,0.000022,-0.000000,0.000000,0.000000,0.000000,0.000000,-0.001220,0.000764,-0.000001,0.000000,0.000000,0.000000,0.000000,819,819,819,819
7827,0,-0.001091,0.000000,0.000000,0.00,0.00,-0.000024,0.005000,0.000022,0.000000,0.000000,0.000000,0.000000,0.000000,-0.001220,0.000764,-0.000003,0.000000,0.000000,0.000000,0.000000,819,819,819,819
7837,0,-0.001091,0.000000,0.000000,-0.00,0.00,-0.000020,0.005000,0.000022,0.000000,0.000000,0.000000,0.000000,0.000000,-0.001221,0.000764,-0.000003,0.000000,0.000000,0.000000,0.000000,819,819,819,819
7847,0,-0.001091,0.000000,0.000000,-0.00,-0.00,-0.000100,0.005000,0.000022,-0.000000,0.000000,0.000000,0.000000,0.000000,-0.001222,0.000765,0.000000,0.000000,0.000000,0.000000,0.000000,819,819,819,819
7857,0,-0.001091,0.000000,0.000000,0.00,0.00,0.000082,0.005000,0.000022,0.000000,0.000000,0.000000,0.000000,0.000000,-0.001220,0.000762,-0.000007,0.000000,0.000000,0.000000,0.000000,819,819,819,819
7867,0,-0.001091,0.000000,0.000000,0.00,0.00,0.000012,0.005000,0.000022,0.000000,0.000000,0.000000,0.000000,0.000000,-0.001221,0.000764,-0.000004,0.000000,0.000000,0.000000,0.000000,819,819,819,819
7877,0,-0.001091,0.000000,0.000000,0.00,0.00,-0.000111,0.005000,0.000022,0.000000,0.000000,0.000000,0.000000,0.000000,-0.001221,0.000763,0.000001,0.000000,0.000000,0.000000,0.000000,819,819,819,819
7887,0,-0.001091,0.000000,0.000000,0.00,0.00,-0.000065,0.005000,0.000022,0.000000,0.000000,0.000000,0.000000,0.000000,-0.001221,0.000764,-0.000000,0.000000,0.000000,0.000000,0.000000,819,819,819,819
7897,0,-0.001091,0.000000,0.000000,-0.00,0.00,-0.000188,0.005000,0.000022,0.000000,0.000000,0.000000,0.000000,0.000000,-0.001221,0.000763,0.000005,0.000000,0.000000,0.000000,0.000000,819,819,819,819
7907,0,-0.001091,0.000000,0.000000,-0.00,0.00,-0.000174,0.005000,0.000022,0.000000,0.000000,0.000000,0.000000,0.000000,-0.001221,0.000763,0.000005,0.000000,0.000000,0.000000,0.000000,819,819,819,819
7917,0,-0.001091,0.000000,0.000000,-0.00,-0.00,-0.000042,0.005000,0.000022,-0.000000,0.000000,0.000000,0.000000,0.000000,-0.001222,0.000764,-0.000001,0.000000,0.000000,0.000000,0.000000,819,819,819,819
7927,0,-0.001091,0.000000,0.000000,-0.00,0.00,0.000010,0.005000,0.000022,0.000000,0.000000,0.000000,0.000000,0.000000,-0.001222,0.000762,-0.000003,0.000000,0.000000,0.000000,0.000000,819,819,819,819
7937,0,-0.001091,0.000000,0.000000,0.00,-0.00,0.000131,0.005000,0.000022,-0.000000,0.000000,0.000000,0.000000,0.000000,-0.001222,0.000764,-0.000009,0.000000,0.000000,0.000000,0.000000,819,819,819,819
7947,0,-0.001091,0.000000,0.000000,-0.00,-0.00,0.000198,0.005000,0.000022,-0.000000,0.000000,0.000000,0.000000,0.000000,-0.001222,0.000765,-0.000012,0.000000,0.000000,0.000000,0.000000,819,819,819,819
7957,0,-0.001091,0.000000,0.000000,0.00,-0.00,0.000224,0.005000,0.000022,-0.000000,0.000000,0.000000,0.000000,0.000000,-0.001222,0.000764,-0.000013,0.000000,0.000000,0.000000,0.000000,819,819,819,819
7967,0,-0.001091,0.000000,0.000000,-0.00,-0.00,0.000293,0.005000,0.000022,-0.000000,0.000000,0.000000,0.000000,0.000000,-0.001222,0.000765,-0.000017,0.000000,0.000000,0.000000,0.000000,819,819,819,819
7977,0,-0.002182,0.000000,0.000000,-0.02,-0.00,0.000303,0.005000,0.000012,-0.000000,0.000000,0.000000,0.000000,0.000000,-0.001448,0.000765,-0.000018,0.000000,0.000000,0.000000,0.000000,819,819,819,819
7987,0,-0.002182,0.000000,0.000000,-0.00,-0.00,0.000223,0.005000,0.000044,-0.000000,0.000000,0.000000,0.000000,0.000000,-0.001268,0.000765,-0.000014,0.000000,0.000000,0.000000,0.000000,819,819,819,819
7997,0,-0.002182,0.000000,0.000000,-0.00,-0.00,0.000098,0.005000,0.000044,-0.000000,0.000000,0.000000,0.000000,0.000000,-0.001268,0.000764,-0.000009,0.000000,0.000000,0.000000,0.000000,819,819,819,819
8007,0,-0.002182,0.000000,0.000000,-0.00,-0.00,0.000015,0.005000,0.000044,-0.000000,0.000000,0.000000,0.000000,0.000000,-0.001269,0.000764,-0.000005,0.000000,0.000000,0.000000,0.000000,819,819,819,819
8017,0,-0.002182,0.000000,0.000000,0.00,-0.00,-0.000046,0.005000,0.000044,-0.000000,0.000000,0.000000,0.000000,0.000000,-0.001269,0.000765,-0.000003,0.000000,0.000000,0.000000,0.000000,819,819,819,819
8099,0,-0.002182,0.000000,0.000000,0.00,0.00,0.000220,0.005000,0.000045,0.000000,0.000000,0.000000,0.000000,0.000000,-0.001268,0.000764,-0.000014,0.000000,0.000000,0.000000,0.000000,819,819,819,819
8112,0,-0.002182,0.000000,0.000000,0.00,0.00,0.000340,0.005000,0.000044,0.000000,0.000000,0.000000,0.000000,0.000000,-0.001268,0.000763,-0.000020,0.000000,0.000000,0.000000,0.000000,819,819,819,819
8122,0,-0.002182,0.000000,0.000000,-0.00,-0.00,-0.000062,0.005000,0.000044,-0.000000,0.000000,0.000000,0.000000,0.000000,-0.001270,0.000765,-0.000002,0.000000,0.000000,0.000000,0.000000,819,819,819,819
8134,0,-0.002182,0.000000,0.000000,0.00,-0.00,0.000072,0.005000,0.000044,-0.000000,0.000000,0.000000,0.000000,0.000000,-0.001269,0.000767,-0.000008,0.000000,0.000000,0.000000,0.000000,819,819,819,819
8143,0,-0.002182,0.000000,0.000000,0.00,0.00,-0.000038,0.005000,0.000044,0.000000,0.000000,0.000000,0.000000,0.000000,-0.001269,0.000763,-0.000004,0.000000,0.000000,0.000000,0.000000,819,819,819,819
8154,0,-0.002182,0.000000,0.000000,-0.00,-0.00,-0.000167,0.005000,0.000044,-0.000000,0.000000,0.000000,0.000000,0.000000,-0.001270,0.000766,0.000002,0.000000,0.000000,0.000000,0.000000,819,819,819,819
8165,0,-0.002182,0.000000,0.000000,0.00,-0.00,-0.000074,0.005000,0.000044,-0.000000,0.000000,0.000000,0.000000,0.000000,-0.001270,0.000766,-0.000002,0.000000,0.000000,0.000000,0.000000,819,819,819,819
8178,0,-0.002182,0.000000,0.000000,-0.00,-0.00,-0.000011,0.005000,0.000044,-0.000000,0.000000,0.000000,0.000000,0.000000,-0.001270,0.000765,-0.000004,0.000000,0.000000,0.000000,0.000000,819,819,819,819
8188,0,-0.002182,0.000000,0.000000,-0.00,-0.00,0.000128,0.005000,0.000044,-0.000000,0.000000,0.000000,0.000000,0.000000,-0.001270,0.000767,-0.000011,0.000000,0.000000,0.000000,0.000000,819,819,819,819
8198,0,-0.002182,0.000000,0.000000,0.00,-0.00,0.000213,0.005000,0.000044,-0.000000,0.000000,0.000000,0.000000,0.000000,-0.001270,0.000766,-0.000015,0.000000,0.000000,0.000000,0.000000,819,819,819,819
8208,0,-0.002182,0.000000,0.000000,-0.00,-0.00,0.000291,0.005000,0.000044,-0.000000,0.000000,0.000000,0.000000,0.000000,-0.001271,0.000766,-0.000018,0.000000,0.000000,0.000000,0.000000,819,819,819,819
8218,0,-0.002182,0.000000,0.000000,0.00,-0.00,0.000270,0.005000,0.000044,-0.000000,0.000000,0.000000,0.000000,0.000000,-0.001270,0.000766,-0.000018,0.000000,0.000000,0.000000,0.000000,819,819,819,819
8228,0,-0.002182,0.000000,0.000000,0.00,0.00,0.000251,0.005000,0.000044,0.000000,0.000000,0.000000,0.000000,0.000000,-0.001271,0.000765,-0.000017,0.000000,0.000000,0.000000,0.000000,819,819,819,819
8238,0,-0.002182,0.000000,0.000000,0.00,-0.00,0.000135,0.005000,0.000044,-0.000000,0.000000,0.000000,0.000000,0.000000,-0.001271,0.000766,-0.000012,0.000000,0.000000,0.000000,0.000000,819,819,819,819
8248,0,-0.002182,0.000000,0.000000,-0.00,0.00,0.000020,0.005000,0.000044,0.000000,0.000000,0.000000,0.000000,0.000000,-0.001271,0.000764,-0.000007,0.000000,0.000000,0.000000,0.000000,819,819,819,819
8258,0,-0.002182,0.000000,0.000000,-0.00,-0.00,-0.000159,0.005000,0.000044,-0.000000,0.000000,0.000000,0.000000,0.000000,-0.001272,0.000768,0.000000,0.000000,0.000000,0.000000,0.000000,819,819,819,819
8268,0,-0.002182,0.000000,0.000000,-0.00,-0.00,-0.000299,0.005000,0.000044,-0.000000,0.000000,0.000000,0.000000,0.000000,-0.001272,0.000768,0.000007,0.000000,0.000000,0.000000,0.000000,819,819,819,819
8278,0,-0.002182,0.000000,0.000000,-0.00,-0.00,-0.000368,0.005000,0.000044,-0.000000,0.000000,0.000000,0.000000,0.000000,-0.001272,0.000767,0.000011,0.000000,0.000000,0.000000,0.000000,819,819,819,819
8288,0,-0.002182,0.000000,0.000000,-0.00,-0.00,-0.000266,0.005000,0.000044,-0.000001,0.000000,0.000000,0.000000,0.000000,-0.001273,0.000770,0.000006,0.000000,0.000000,0.000000,0.000000,819,819,819,819
8298,0,-0.002182,0.000000,0.000000,0.00,0.00,0.000219,0.005000,0.000045,0.000000,0.000000,0.000000,0.000000,0.000000,-0.001270,0.000764,-0.000015,0.000000,0.000000,0.000000,0.000000,819,819,819,819
8308,0,-0.002182,0.000000,0.000000,-0.00,0.00,0.000243,0.005000,0.000044,0.000000,0.000000,0.000000,0.000000,0.000000,-0.001273,0.000766,-0.000016,0.000000,0.000000,0.000000,0.000000,819,819,819,819
8318,0,-0.002182,0.000000,0.000000,0.00,-0.00,0.000036,0.005000,0.000045,-0.000000,0.000000,0.000000,0.000000,0.000000,-0.001272,0.000767,-0.000007,0.000000,0.000000,0.000000,0.000000,819,819,819,819
8328,0,-0.002182,0.000000,0.000000,0.00,0.00,-0.000027,0.005000,0.000045,0.000000,0.000000,0.000000,0.000000,0.000000,-0.001272,0.000764,-0.000005,0.000000,0.000000,0.000000,0.000000,819,819,819,819
8338,0,-0.002182,0.000000,0.000000,-0.00,0.00,0.000028,0.005000,0.000044,0.000001,0.000000,0.000000,0.000000,0.000000,-0.001273,0.000761,-0.000007,0.000000,0.000000,0.000000,0.000000,819,819,819,819
8348,0,-0.002182,0.000000,0.000000,-0.00,-0.00,-0.000125,0.005000,0.000044,-0.000000,0.000000,0.000000,0.000000,0.000000,-0.001273,0.000767,-0.000000,0.000000,0.000000,0.000000,0.000000,819,819,819,819
8358,0,-0.002182,0.000000,0.000000,-0.00,-0.00,-0.000084,0.005000,0.000044,-0.000000,0.000000,0.000000,0.000000,0.000000,-0.001273,0.000767,-0.000002,0.000000,0.000000,0.000000,0.000000,819,819,819,819
8368,0,-0.002182,0.000000,0.000000,-0.00,-0.00,0.000004,0.005000,0.000044,-0.000000,0.000000,0.000000,0.000000,0.000000,-0.001273,0.000766,-0.000006,0.000000,0.000000,0.000000,0.000000,819,819,819,819
8378,0,-0.002182,0.000000,0.000000,0.00,0.00,0.000049,0.005000,0.000044,0.000000,0.000000,0.000000,0.000000,0.000000,-0.001273,0.000766,-0.000008,0.000000,0.000000,0.000000,0.000000,819,819,819,819
8388,0,-0.002182,0.000000,0.000000,0.00,-0.00,0.000088,0.005000,0.000044,-0.000000,0.000000,0.000000,0.000000,0.000000,-0.001273,0.000767,-0.000010,0.000000,0.000000,0.000000,0.000000,819,819,819,819
8398,0,-0.002182,0.000000,0.000000,0.00,0.00,0.000046,0.005000,0.000045,0.000000,0.000000,0.000000,0.000000,0.000000,-0.001273,0.000766,-0.000008,0.000000,0.000000,0.000000,0.000000,819,819,819,819
8408,0,-0.002182,0.000000,0.000000,0.00,0.00,-0.000009,0.005000,0.000044,0.000000,0.000000,0.000000,0.000000,0.000000,-0.001273,0.000765,-0.000005,0.000000,0.000000,0.000000,0.000000,819,819,819,819
8422,0,-0.002182,0.000000,0.000000,0.00,0.00,-0.000082,0.005000,0.000044,0.000000,0.000000,0.000000,0.000000,0.000000,-0.001273,0.000765,-0.000002,0.000000,0.000000,0.000000,0.000000,819,819,819,819
8435,0,-0.002182,0.000000,0.000000,0.00,0.00,-0.000061,0.005000,0.000044,0.000000,0.000000,0.000000,0.000000,0.000000,-0.001274,0.000765,-0.000003,0.000000,0.000000,0.000000,0.000000,819,819,819,819
8448,0,-0.002182,0.000000,0.000000,0.00,-0.00,-0.000155,0.005000,0.000045,-0.000000,0.000000,0.000000,0.000000,0.000000,-0.001273,0.000767,0.000001,0.000000,0.000000,0.000000,0.000000,819,819,819,819
8458,0,-0.002182,0.000000,0.000000,0.00,-0.00,-0.000120,0.005000,0.000044,-0.000000,0.000000,0.000000,0.000000,0.000000,-0.001274,0.000768,-0.000000,0.000000,0.000000,0.000000,0.000000,819,819,819,819
8468,0,-0.002182,0.000000,0.000000,0.00,-0.00,-0.000099,0.005000,0.000044,-0.000001,0.000000,0.000000,0.000000,0.000000,-0.001274,0.000770,-0.000000,0.000000,0.000000,0.000000,0.000000,819,819,819,819
8478,0,-0.002182,0.000000,0.000000,0.00,-0.00,-0.000031,0.005000,0.000044,-0.000000,0.000000,0.000000,0.000000,0.000000,-0.001274,0.000769,-0.000004,0.000000,0.000000,0.000000,0.000000,819,819,819,819
8489,0,-0.002182,0.000000,0.000000,-0.00,0.00,0.000012,0.005000,0.000044,0.000000,0.000000,0.000000,0.000000,0.000000,-0.001274,0.000766,-0.000006,0.000000,0.000000,0.000000,0.000000,819,819,819,819
8498,0,-0.002182,0.000000,0.000000,0.00,0.00,0.000034,0.005000,0.000044,0.000000,0.000000,0.000000,0.000000,0.000000,-0.001274,0.000764,-0.000007,0.000000,0.000000,0.000000,0.000000,819,819,819,819
8508,0,-0.002182,0.000000,0.000000,0.00,0.00,0.000151,0.005000,0.000044,0.000000,0.000000,0.000000,0.000000,0.000000,-0.001274,0.000765,-0.000012,0.000000,0.000000,0.000000,0.000000,819,819,819,819
8518,0,-0.002182,0.000000,0.000000,0.00,-0.00,0.000233,0.005000,0.000045,-0.000000,0.000000,0.000000,0.000000,0.000000,-0.001274,0.000767,-0.000016,0.000000,0.000000,0.000000,0.000000,819,819,819,819
8528,0,-0.002182,0.000000,0.000000,0.00,-0.00,0.000197,0.005000,0.000045,-0.000001,0.000000,0.000000,0.000000,0.000000,-0.001274,0.000770,-0.000014,0.000000,0.000000,0.000000,0.000000,819,819,819,819
8539,0,-0.002182,0.000000,0.000000,-0.00,-0.00,0.000159,0.005000,0.000044,-0.000000,0.000000,0.000000,0.000000,0.000000,-0.001275,0.000768,-0.000013,0.000000,0.000000,0.000000,0.000000,819,819,819,819
8549,0,-0.002182,0.000000,0.000000,-0.00,0.00,0.000153,0.005000,0.000044,0.000000,0.000000,0.000000,0.000000,0.000000,-0.001275,0.000766,-0.000013,0.000000,0.000000,0.000000,0.000000,819,819,819,819
8559,0,-0.002182,0.000000,0.000000,0.00,0.00,0.000104,0.005000,0.000045,0.000000,0.000000,0.000000,0.000000,0.000000,-0.001275,0.000765,-0.000011,0.000000,0.000000,0.000000,0.000000,819,819,819,819
8569,0,-0.002182,0.000000,0.000000,0.00,0.00,0.000113,0.005000,0.000044,0.000000,0.000000,0.000000,0.000000,0.000000,-0.001275,0.000764,-0.000011,0.000000,0.000000,0.000000,0.000000,819,819,819,819
8579,0,-0.002182,0.000000,0.000000,0.00,0.00,0.000114,0.005000,0.000044,0.000000,0.000000,0.000000,0.000000,0.000000,-0.001275,0.000766,-0.000012,0.000000,0.000000,0.000000,0.000000,819,819,819,819
8589,0,-0.002182,0.000000,0.000000,-0.00,-0.00,0.000211,0.005000,0.000044,-0.000000,0.000000,0.000000,0.000000,0.000000,-0.001276,0.000767,-0.000016,0.000000,0.000000,0.000000,0.000000,819,819,819,819
8599,0,-0.002182,0.000000,0.000000,-0.00,-0.00,0.000307,0.005000,0.000044,-0.000000,0.000000,0.000000,0.000000,0.000000,-0.001276,0.000768,-0.000021,0.000000,0.000000,0.000000,0.000000,819,819,819,819
8609,0,-0.002182,0.000000,0.000000,-0.00,0.00,0.000370,0.005000,0.000044,0.000000,0.000000,0.000000,0.000000,0.000000,-0.001276,0.000766,-0.000024,0.000000,0.000000,0.000000,0.000000,819,819,819,819
8619,0,-0.002182,0.000000,0.000000,-0.00,0.00,0.000298,0.005000,0.000044,0.000000,0.000000,0.000000,0.000000,0.000000,-0.001276,0.000766,-0.000021,0.000000,0.000000,0.000000,0.000000,819,819,819,819
8629,0,-0.002182,0.000000,0.000000,-0.00,-0.00,0.000158,0.005000,0.000044,-0.000000,0.000000,0.000000,0.000000,0.000000,-0.001277,0.000768,-0.000015,0.000000,0.000000,0.000000,0.000000,819,819,819,819
8639,0,-0.002182,0.000000,0.000000,0.00,-0.00,0.000024,0.005000,0.000045,-0.000000,0.000000,0.000000,0.000000,0.000000,-0.001276,0.000768,-0.000010,0.000000,0.000000,0.000000,0.000000,819,819,819,819
8649,0,-0.002182,0.000000,0.000000,0.00,0.00,-0.000013,0.005000,0.000044,0.000000,0.000000,0.000000,0.000000,0.000000,-0.001276,0.000765,-0.000008,0.000000,0.000000,0.000000,0.000000,819,819,819,819
8659,0,-0.002182,0.000000,0.000000,0.00,0.00,-0.000067,0.005000,0.000045,0.000000,0.000000,0.000000,0.000000,0.000000,-0.001276,0.000765,-0.000005,0.000000,0.000000,0.000000,0.000000,819,819,819,819
8669,0,-0.002182,0.000000,0.000000,0.00,0.00,0.000039,0.005000,0.000044,0.000000,0.000000,0.000000,0.000000,0.000000,-0.001277,0.000766,-0.000010,0.000000,0.000000,0.000000,0.000000,819,819,819,819
8679,0,-0.002182,0.000000,0.000000,-0.00,-0.00,0.000022,0.005000,0.000044,-0.000000,0.000000,0.000000,0.000000,0.000000,-0.001277,0.000768,-0.000009,0.000000,0.000000,0.000000,0.000000,819,819,819,819
8689,0,-0.002182,0.000000,0.000000,-0.00,-0.00,0.000084,0.005000,0.000044,-0.000001,0.000000,0.000000,0.000000,0.000000,-0.001278,0.000771,-0.000012,0.000000,0.000000,0.000000,0.000000,819,819,819,819
8705,0,-0.002182,0.000000,0.000000,0.00,-0.00,0.000077,0.005000,0.000044,-0.000000,0.000000,0.000000,0.000000,0.000000,-0.001277,0.000769,-0.000012,0.000000,0.000000,0.000000,0.000000,819,819,819,819
8718,0,-0.002182,0.000000,0.000000,-0.00,-0.00,0.000044,0.005000,0.000044,-0.000000,0.000000,0.000000,0.000000,0.000000,-0.001278,0.000768,-0.000011,0.000000,0.000000,0.000000,0.000000,819,819,819,819
8729,0,-0.002182,0.000000,0.000000,-0.00,0.00,-0.000058,0.005000,0.000044,0.000000,0.000000,0.000000,0.000000,0.000000,-0.001278,0.000767,-0.000006,0.000000,0.000000,0.000000,0.000000,819,819,819,819
8742,0,-0.002182,0.000000,0.000000,-0.00,-0.00,-0.000025,0.005000,0.000044,-0.000000,0.000000,0.000000,0.000000,0.000000,-0.001278,0.000770,-0.000008,0.000000,0.000000,0.000000,0.000000,819,819,819,819
8754,0,-0.002182,0.000000,0.000000,-0.00,-0.00,-0.000101,0.005000,0.000044,-0.000000,0.000000,0.000000,0.000000,0.000000,-0.001278,0.000770,-0.000004,0.000000,0.000000,0.000000,0.000000,819,819,819,819
8764,0,-0.002182,0.000000,0.000000,-0.00,-0.00,-0.000096,0.005000,0.000044,-0.000000,0.000000,0.000000,0.000000,0.000000,-0.001279,0.000770,-0.000004,0.000000,0.000000,0.000000,0.000000,819,819,819,819
8775,0,-0.002182,0.000000,0.000000,-0.00,-0.00,-0.000112,0.005000,0.000044,-0.000000,0.000000,0.000000,0.000000,0.000000,-0.001279,0.000770,-0.000003,0.000000,0.000000,0.000000,0.000000,819,819,819,819
8789,0,-0.002182,0.000000,0.000000,0.00,0.00,-0.000162,0.005000,0.000044,0.000000,0.000000,0.000000,0.000000,0.000000,-0.001279,0.000768,-0.000000,0.000000,0.000000,0.000000,0.000000,819,819,819,819
8799,0,-0.002182,0.000000,0.000000,0.00,0.00,-0.000186,0.005000,0.000044,0.000000,0.000000,0.000000,0.000000,0.000000,-0.001279,0.000766,0.000000,0.000000,0.000000,0.000000,0.000000,819,819,819,819
8809,0,-0.002182,0.000000,0.000000,0.00,0.00,-0.000141,0.005000,0.000044,0.000000,0.000000,0.000000,0.000000,0.000000,-0.001279,0.000766,-0.000001,0.000000,0.000000,0.000000,0.000000,819,819,819,819
8819,0,-0.002182,0.000000,0.000000,-0.00,0.00,-0.000086,0.005000,0.000044,0.000000,0.000000,0.000000,0.000000,0.000000,-0.001280,0.000767,-0.000004,0.000000,0.000000,0.000000,0.000000,819,819,819,819
8829,0,-0.002182,0.000000,0.000000,0.00,0.00,-0.000045,0.005000,0.000045,0.000000,0.000000,0.000000,0.000000,0.000000,-0.001279,0.000767,-0.000005,0.000000,0.000000,0.000000,0.000000,819,819,819,819
8840,0,-0.002182,0.000000,0.000000,0.00,-0.00,0.000058,0.005000,0.000045,-0.000000,0.000000,0.000000,0.000000,0.000000,-0.001280,0.000768,-0.000010,0.000000,0.000000,0.000000,0.000000,819,819,819,819
8850,0,-0.002182,0.000000,0.000000,-0.00,-0.00,0.000041,0.005000,0.000044,-0.000000,0.000000,0.000000,0.000000,0.000000,-0.001280,0.000770,-0.000009,0.000000,0.000000,0.000000,0.000000,819,819,819,819
8860,0,-0.002182,0.000000,0.000000,0.00,0.00,0.000022,0.005000,0.000045,0.000000,0.000000,0.000000,0.000000,0.000000,-0.001280,0.000767,-0.000009,0.000000,0.000000,0.000000,0.000000,819,819,819,819
8870,0,-0.002182,0.000000,0.000000,-0.00,0.00,-0.000045,0.005000,0.000044,0.000000,0.000000,0.000000,0.000000,0.000000,-0.001280,0.000767,-0.000006,0.000000,0.000000,0.000000,0.000000,819,819,819,819
8880,0,-0.002182,0.000000,0.000000,0.00,0.00,-0.000039,0.005000,0.000045,0.000000,0.000000,0.000000,0.000000,0.000000,-0.001280,0.000766,-0.000006,0.000000,0.000000,0.000000,0.000000,819,819,819,819
8890,0,-0.002182,0.000000,0.000000,-0.00,0.00,0.000010,0.005000,0.000044,0.000000,0.000000,0.000000,0.000000,0.000000,-0.001281,0.000767,-0.000008,0.000000,0.000000,0.000000,0.000000,819,819,819,819
8900,0,-0.002182,0.000000,0.000000,-0.00,0.00,0.000115,0.005000,0.000044,0.000000,0.000000,0.000000,0.000000,0.000000,-0.001281,0.000767,-0.000013,0.000000,0.000000,0.000000,0.000000,819,819,819,819
8910,0,-0.002182,0.000000,0.000000,-0.00,-0.00,0.000260,0.005000,0.000044,-0.000000,0.000000,0.000000,0.000000,0.000000,-0.001281,0.000769,-0.000019,0.000000,0.000000,0.000000,0.000000,819,819,819,819
8920,0,-0.002182,0.000000,0.000000,-0.00,-0.00,0.000395,0.005000,0.000044,-0.000000,0.000000,0.000000,0.000000,0.000000,-0.001281,0.000770,-0.000026,0.000000,0.000000,0.000000,0.000000,819,819,819,819
8930,0,-0.002182,0.000000,0.000000,-0.00,-0.00,0.000383,0.005000,0.000044,-0.000000,0.000000,0.000000,0.000000,0.000000,-0.001282,0.000770,-0.000026,0.000000,0.000000,0.000000,0.000000,819,819,819,819
8943,0,-0.002182,0.000000,0.000000,-0.00,-0.00,0.000219,0.005000,0.000044,-0.000000,0.000000,0.000000,0.000000,0.000000,-0.001282,0.000771,-0.000019,0.000000,0.000000,0.000000,0.000000,819,819,819,819
8952,0,-0.002182,0.000000,0.000000,-0.00,-0.00,0.000000,0.005000,0.000044,-0.000000,0.000000,0.000000,0.000000,0.000000,-0.001282,0.000770,-0.000009,0.000000,0.000000,0.000000,0.000000,819,819,819,819
8962,0,-0.002182,0.000000,0.000000,-0.00,-0.00,-0.000194,0.005000,0.000044,-0.000000,0.000000,0.000000,0.000000,0.000000,-0.001282,0.000769,-0.000000,0.000000,0.000000,0.000000,0.000000,819,819,819,819
8971,0,-0.002182,0.000000,0.000000,-0.00,-0.00,-0.000304,0.005000,0.000044,-0.000000,0.000000,0.000000,0.000000,0.000000,-0.001282,0.000769,0.000005,0.000000,0.000000,0.000000,0.000000,819,819,819,819
8980,0,-0.002182,0.000000,0.000000,0.00,-0.00,-0.000240,0.005000,0.000045,-0.000000,0.000000,0.000000,0.000000,0.000000,-0.001282,0.000769,0.000002,0.000000,0.000000,0.000000,0.000000,819,819,819,819
8990,0,-0.002182,0.000000,0.000000,0.00,0.00,-0.000101,0.005000,0.000045,0.000000,0.000000,0.000000,0.000000,0.000000,-0.001282,0.000768,-0.000004,0.000000,0.000000,0.000000,0.000000,819,819,819,819
9000,0,-0.002182,0.000000,0.000000,0.00,0.00,0.000033,0.005000,0.000045,0.000000,0.000000,0.000000,0.000000,0.000000,-0.001282,0.000768,-0.000010,0.000000,0.000000,0.000000,0.000000,819,819,819,819
9010,0,-0.002182,-0.001091,0.000000,-0.00,-0.02,0.000037,0.005000,0.000044,-0.000044,0.000000,0.000000,0.000000,0.000000,-0.001283,0.001151,-0.000010,0.000000,0.000000,0.000000,0.000000,819,819,819,819
9020,0,-0.002182,-0.001091,0.000000,-0.00,-0.00,0.000070,0.005000,0.000044,0.000055,0.000000,0.000000,0.000000,0.000000,-0.001283,0.000809,-0.000011,0.000000,0.000000,0.000000,0.000000,819,819,819,819
9030,0,-0.002182,-0.001091,0.000000,0.00,-0.00,0.000043,0.005000,0.000045,0.000055,0.000000,0.000000,0.000000,0.000000,-0.001283,0.000808,-0.000010,0.000000,0.000000,0.000000,0.000000,819,819,819,819
9040,0,-0.002182,-0.001091,0.000000,-0.00,-0.00,0.000055,0.005000,0.000044,0.000055,0.000000,0.000000,0.000000,0.000000,-0.001283,0.000808,-0.000011,0.000000,0.000000,0.000000,0.000000,819,819,819,819
9050,0,-0.002182,-0.001091,0.000000,-0.00,0.00,0.000105,0.005000,0.000044,0.000055,0.000000,0.000000,0.000000,0.000000,-0.001284,0.000807,-0.000013,0.000000,0.000000,0.000000,0.000000,819,819,819,819
9064,0,-0.002182,-0.001091,0.000000,0.00,0.00,0.000097,0.005000,0.000045,0.000056,0.000000,0.000000,0.000000,0.000000,-0.001283,0.000805,-0.000013,0.000000,0.000000,0.000000,0.000000,819,819,819,819
9077,0,-0.002182,-0.001091,0.000000,0.00,-0.00,0.000112,0.005000,0.000045,0.000055,0.000000,0.000000,0.000000,0.000000,-0.001284,0.000808,-0.000014,0.000000,0.000000,0.000000,0.000000,819,819,819,819
9088,0,-0.002182,-0.001091,0.000000,0.00,-0.00,0.000130,0.005000,0.000045,0.000055,0.000000,0.000000,0.000000,0.000000,-0.001284,0.000809,-0.000015,0.000000,0.000000,0.000000,0.000000,819,819,819,819
9098,0,-0.002182,-0.001091,0.000000,-0.00,-0.00,0.000084,0.005000,0.000044,0.000055,0.000000,0.000000,0.000000,0.000000,-0.001284,0.000810,-0.000013,0.000000,0.000000,0.000000,0.000000,819,819,819,819
9109,0,-0.002182,-0.001091,0.000000,0.00,0.00,0.000029,0.005000,0.000045,0.000055,0.000000,0.000000,0.000000,0.000000,-0.001284,0.000808,-0.000010,0.000000,0.000000,0.000000,0.000000,819,819,819,819
9121,0,-0.002182,-0.001091,0.000000,0.00,0.00,-0.000012,0.005000,0.000045,0.000055,0.000000,0.000000,0.000000,0.000000,-0.001284,0.000807,-0.000009,0.000000,0.000000,0.000000,0.000000,819,819,819,819
9130,0,-0.002182,-0.001091,0.000000,0.00,0.00,0.000031,0.005000,0.000045,0.000055,0.000000,0.000000,0.000000,0.000000,-0.001284,0.000808,-0.000011,0.000000,0.000000,0.000000,0.000000,819,819,819,819
9140,0,-0.002182,-0.001091,0.000000,0.00,-0.00,0.000053,0.005000,0.000045,0.000055,0.000000,0.000000,0.000000,0.000000,-0.001284,0.000809,-0.000012,0.000000,0.000000,0.000000,0.000000,819,819,819,819
9150,0,-0.002182,-0.001091,0.000000,-0.00,-0.00,0.000057,0.005000,0.000044,0.000055,0.000000,0.000000,0.000000,0.000000,-0.001285,0.000810,-0.000012,0.000000,0.000000,0.000000,0.000000,819,819,819,819
9160,0,-0.002182,-0.001091,0.000000,-0.00,-0.00,0.000041,0.005000,0.000045,0.000054,0.000000,0.000000,0.000000,0.000000,-0.001285,0.000811,-0.000011,0.000000,0.000000,0.000000,0.000000,819,819,819,819
9170,0,-0.002182,-0.001091,0.000000,-0.00,-0.00,0.000055,0.005000,0.000044,0.000055,0.000000,0.000000,0.000000,0.000000,-0.001285,0.000810,-0.000012,0.000000,0.000000,0.000000,0.000000,819,819,819,819
9180,0,-0.002182,-0.001091,0.000000,0.00,0.00,0.000121,0.005000,0.000045,0.000055,0.000000,0.000000,0.000000,0.000000,-0.001285,0.000809,-0.000015,0.000000,0.000000,0.000000,0.000000,819,819,819,819
9191,0,-0.002182,-0.001091,0.000000,-0.00,0.00,0.000148,0.005000,0.000044,0.000055,0.000000,0.000000,0.000000,0.000000,-0.001286,0.000809,-0.000016,0.000000,0.000000,0.000000,0.000000,819,819,819,819
9201,0,-0.002182,-0.001091,0.000000,-0.00,0.00,0.000152,0.005000,0.000044,0.000055,0.000000,0.000000,0.000000,0.000000,-0.001286,0.000809,-0.000017,0.000000,0.000000,0.000000,0.000000,819,819,819,819
9211,0,-0.002182,-0.001091,0.000000,0.00,0.00,0.000104,0.005000,0.000045,0.000055,0.000000,0.000000,0.000000,0.000000,-0.001286,0.000810,-0.000015,0.000000,0.000000,0.000000,0.000000,819,819,819,819
9221,0,-0.002182,-0.001091,0.000000,-0.00,-0.00,0.000032,0.005000,0.000045,0.000055,0.000000,0.000000,0.000000,0.000000,-0.001286,0.000812,-0.000012,0.000000,0.000000,0.000000,0.000000,819,819,819,819
9231,0,-0.002182,-0.001091,0.000000,-0.00,0.00,-0.000028,0.005000,0.000044,0.000055,0.000000,0.000000,0.000000,0.000000,-0.001287,0.000810,-0.000009,0.000000,0.000000,0.000000,0.000000,819,819,819,819
9241,0,-0.002182,-0.001091,0.000000,-0.00,0.00,-0.000069,0.005000,0.000045,0.000055,0.000000,0.000000,0.000000,0.000000,-0.001287,0.000810,-0.000007,0.000000,0.000000,0.000000,0.000000,819,819,819,819
9251,0,-0.002182,-0.001091,0.000000,0.00,0.00,-0.000075,0.005000,0.000045,0.000055,0.000000,0.000000,0.000000,0.000000,-0.001286,0.000810,-0.000007,0.000000,0.000000,0.000000,0.000000,819,819,819,819
9261,0,-0.002182,-0.001091,0.000000,-0.00,-0.00,-0.000076,0.005000,0.000044,0.000055,0.000000,0.000000,0.000000,0.000000,-0.001287,0.000811,-0.000007,0.000000,0.000000,0.000000,0.000000,819,819,819,819
9271,0,-0.002182,-0.001091,0.000000,0.00,-0.00,-0.000044,0.005000,0.000045,0.000055,0.000000,0.000000,0.000000,0.000000,-0.001287,0.000812,-0.000008,0.000000,0.000000,0.000000,0.000000,819,819,819,819
9281,0,-0.002182,-0.001091,0.000000,0.00,-0.00,0.000010,0.005000,0.000045,0.000055,0.000000,0.000000,0.000000,0.000000,-0.001287,0.000812,-0.000010,0.000000,0.000000,0.000000,0.000000,819,819,819,819
9291,0,-0.002182,-0.001091,0.000000,-0.00,0.00,0.000082,0.005000,0.000045,0.000055,0.000000,0.000000,0.000000,0.000000,-0.001287,0.000811,-0.000014,0.000000,0.000000,0.000000,0.000000,819,819,819,819
9301,0,-0.002182,-0.001091,0.000000,-0.00,0.00,0.000045,0.005000,0.000044,0.000055,0.000000,0.000000,0.000000,0.000000,-0.001288,0.000810,-0.000012,0.000000,0.000000,0.000000,0.000000,819,819,819,819
9311,0,-0.002182,-0.001091,0.000000,0.00,0.00,-0.000026,0.005000,0.000045,0.000055,0.000000,0.000000,0.000000,0.000000,-0.001287,0.000811,-0.000009,0.000000,0.000000,0.000000,0.000000,819,819,819,819
9321,0,-0.002182,-0.001091,0.000000,0.00,-0.00,-0.000036,0.005000,0.000045,0.000055,0.000000,0.000000,0.000000,0.000000,-0.001288,0.000812,-0.000008,0.000000,0.000000,0.000000,0.000000,819,819,819,819
9331,0,-0.002182,-0.001091,0.000000,-0.00,-0.00,-0.000119,0.005000,0.000044,0.000055,0.000000,0.000000,0.000000,0.000000,-0.001288,0.000813,-0.000005,0.000000,0.000000,0.000000,0.000000,819,819,819,819
9341,0,-0.002182,-0.001091,0.000000,-0.00,-0.00,-0.000147,0.005000,0.000045,0.000055,0.000000,0.000000,0.000000,0.000000,-0.001288,0.000813,-0.000003,0.000000,0.000000,0.000000,0.000000,819,819,819,819
9351,0,-0.002182,-0.001091,0.000000,-0.00,-0.00,-0.000184,0.005000,0.000044,0.000055,0.000000,0.000000,0.000000,0.000000,-0.001289,0.000812,-0.000001,0.000000,0.000000,0.000000,0.000000,819,819,819,819
9361,0,-0.002182,-0.001091,0.000000,0.00,-0.00,-0.000222,0.005000,0.000045,0.000055,0.000000,0.000000,0.000000,0.000000,-0.001289,0.000813,0.000000,0.000000,0.000000,0.000000,0.000000,819,819,819,819
9371,0,-0.002182,-0.001091,0.000000,0.00,-0.00,-0.000227,0.005000,0.000045,0.000055,0.000000,0.000000,0.000000,0.000000,-0.001288,0.000814,0.000001,0.000000,0.000000,0.000000,0.000000,819,819,819,819
9385,0,-0.001091,-0.001091,0.000000,0.01,0.00,-0.000244,0.005000,0.000046,0.000055,0.000000,0.000000,0.000000,0.000000,-0.001124,0.000813,0.000002,0.000000,0.000000,0.000000,0.000000,819,819,819,819
9396,0,-0.001091,-0.001091,0.000000,0.00,-0.00,-0.000134,0.006000,0.000022,0.000055,0.000000,0.000000,0.000000,0.000000,-0.001250,0.000813,-0.000002,0.000000,0.000000,0.000000,0.000000,819,819,819,819
9407,0,-0.001091,-0.001091,0.000000,0.00,0.00,0.000045,0.006000,0.000022,0.000055,0.000000,0.000000,0.000000,0.000000,-0.001250,0.000813,-0.000010,0.000000,0.000000,0.000000,0.000000,819,819,819,819
9419,0,-0.001091,-0.001091,0.000000,0.00,-0.00,0.000136,0.006000,0.000022,0.000055,0.000000,0.000000,0.000000,0.000000,-0.001250,0.000813,-0.000014,0.000000,0.000000,0.000000,0.000000,819,819,819,819
9431,0,-0.001091,-0.001091,0.000000,0.00,0.00,0.000118,0.005000,0.000022,0.000055,0.000000,0.000000,0.000000,0.000000,-0.001250,0.000812,-0.000014,0.000000,0.000000,0.000000,0.000000,819,819,819,819
9441,0,-0.001091,-0.001091,0.000000,0.00,-0.00,0.000034,0.005000,0.000022,0.000055,0.000000,0.000000,0.000000,0.000000,-0.001250,0.000814,-0.000010,0.000000,0.000000,0.000000,0.000000,819,819,819,819
9451,0,-0.001091,-0.001091,0.000000,-0.00,0.00,-0.000060,0.005000,0.000022,0.000055,0.000000,0.000000,0.000000,0.000000,-0.001251,0.000813,-0.000006,0.000000,0.000000,0.000000,0.000000,819,819,819,819
9461,0,-0.001091,-0.001091,0.000000,0.00,0.00,-0.000138,0.005000,0.000022,0.000056,0.000000,0.000000,0.000000,0.000000,-0.001250,0.000812,-0.000002,0.000000,0.000000,0.000000,0.000000,819,819,819,819
9471,0,-0.001091,-0.001091,0.000000,0.00,0.00,-0.000150,0.006000,0.000022,0.000055,0.000000,0.000000,0.000000,0.000000,-0.001251,0.000812,-0.000002,0.000000,0.000000,0.000000,0.000000,819,819,819,819
9481,0,-0.001091,-0.001091,0.000000,0.00,0.00,-0.000152,0.006000,0.000022,0.000055,0.000000,0.000000,0.000000,0.000000,-0.001251,0.000813,-0.000001,0.000000,0.000000,0.000000,0.000000,819,819,819,819
9491,0,-0.001091,-0.001091,0.000000,0.00,0.00,-0.000055,0.006000,0.000022,0.000055,0.000000,0.000000,0.000000,0.000000,-0.001251,0.000813,-0.000006,0.000000,0.000000,0.000000,0.000000,819,819,819,819
9501,0,-0.001091,-0.001091,0.000000,-0.00,-0.00,0.000089,0.006000,0.000022,0.000055,0.000000,0.000000,0.000000,0.000000,-0.001251,0.000814,-0.000012,0.000000,0.000000,0.000000,0.000000,819,819,819,819
9511,0,-0.001091,-0.001091,0.000000,-0.00,0.00,0.000208,0.006000,0.000022,0.000055,0.000000,0.000000,0.000000,0.000000,-0.001251,0.000813,-0.000017,0.000000,0.000000,0.000000,0.000000,819,819,819,819
9521,0,-0.002182,-0.001091,0.000000,-0.02,-0.00,0.000177,0.006000,0.000012,0.000055,0.000000,0.000000,0.000000,0.000000,-0.001482,0.000815,-0.000016,0.000000,0.000000,0.000000,0.000000,819,819,819,819
9531,0,-0.002182,-0.001091,0.000000,-0.00,-0.00,0.000043,0.006000,0.000045,0.000055,0.000000,0.000000,0.000000,0.000000,-0.001306,0.000815,-0.000010,0.000000,0.000000,0.000000,0.000000,819,819,819,819
9541,0,-0.002182,-0.001091,0.000000,0.00,-0.00,-0.000091,0.006000,0.000045,0.000055,0.000000,0.000000,0.000000,0.000000,-0.001306,0.000815,-0.000005,0.000000,0.000000,0.000000,0.000000,819,819,819,819
9554,0,-0.002182,-0.001091,0.000000,-0.00,-0.00,-0.000175,0.006000,0.000045,0.000055,0.000000,0.000000,0.000000,0.000000,-0.001307,0.000816,-0.000000,0.000000,0.000000,0.000000,0.000000,819,819,819,819
9563,0,-0.002182,-0.001091,0.000000,-0.00,0.00,-0.000123,0.006000,0.000045,0.000055,0.000000,0.000000,0.000000,0.000000,-0.001307,0.000813,-0.000003,0.000000,0.000000,0.000000,0.000000,819,819,819,819
9572,0,-0.002182,-0.001091,0.000000,0.00,0.00,-0.000132,0.006000,0.000045,0.000055,0.000000,0.000000,0.000000,0.000000,-0.001307,0.000814,-0.000002,0.000000,0.000000,0.000000,0.000000,819,819,819,819
9582,0,-0.002182,-0.001091,0.000000,0.00,0.00,-0.000084,0.006000,0.000045,0.000055,0.000000,0.000000,0.000000,0.000000,-0.001307,0.000815,-0.000004,0.000000,0.000000,0.000000,0.000000,819,819,819,819
9592,0,-0.002182,-0.001091,0.000000,0.00,-0.00,-0.000013,0.006000,0.000045,0.000055,0.000000,0.000000,0.000000,0.000000,-0.001307,0.000817,-0.000007,0.000000,0.000000,0.000000,0.000000,819,819,819,819
9602,0,-0.002182,-0.001091,0.000000,-0.00,-0.00,0.000014,0.006000,0.000045,0.000054,0.000000,0.000000,0.000000,0.000000,-0.001308,0.000818,-0.000008,0.000000,0.000000,0.000000,0.000000,819,819,819,819
9612,0,-0.002182,-0.001091,0.000000,0.00,-0.00,0.000099,0.006000,0.000045,0.000054,0.000000,0.000000,0.000000,0.000000,-0.001307,0.000818,-0.000012,0.000000,0.000000,0.000000,0.000000,819,819,819,819
9622,0,-0.002182,-0.001091,0.000000,0.00,-0.00,0.000161,0.006000,0.000045,0.000055,0.000000,0.000000,0.000000,0.000000,-0.001308,0.000817,-0.000015,0.000000,0.000000,0.000000,0.000000,819,819,819,819
9632,0,-0.002182,-0.001091,0.000000,-0.00,-0.00,0.000186,0.006000,0.000045,0.000055,0.000000,0.000000,0.000000,0.000000,-0.001308,0.000817,-0.000016,0.000000,0.000000,0.000000,0.000000,819,819,819,819
9642,0,-0.002182,-0.001091,0.000000,-0.00,0.00,0.000174,0.006000,0.000045,0.000055,0.000000,0.000000,0.000000,0.000000,-0.001308,0.000816,-0.000016,0.000000,0.000000,0.000000,0.000000,819,819,819,819
9652,0,-0.002182,-0.001091,0.000000,-0.00,0.00,0.000075,0.006000,0.000045,0.000056,0.000000,0.000000,0.000000,0.000000,-0.001308,0.000814,-0.000012,0.000000,0.000000,0.000000,0.000000,819,819,819,819
9662,0,-0.002182,-0.001091,0.000000,0.00,0.00,0.000027,0.006000,0.000045,0.000055,0.000000,0.000000,0.000000,0.000000,-0.001308,0.000816,-0.000010,0.000000,0.000000,0.000000,0.000000,819,819,819,819
9672,0,-0.002182,-0.001091,0.000000,0.00,0.00,-0.000012,0.006000,0.000045,0.000055,0.000000,0.000000,0.000000,0.000000,-0.001308,0.000816,-0.000008,0.000000,0.000000,0.000000,0.000000,819,819,819,819
9682,0,-0.002182,-0.001091,0.000000,0.00,0.00,-0.000018,0.006000,0.000045,0.000055,0.000000,0.000000,0.000000,0.000000,-0.001309,0.000816,-0.000008,0.000000,0.000000,0.000000,0.000000,819,819,819,819
9695,0,-0.002182,-0.001091,0.000000,-0.00,-0.00,-0.000067,0.006000,0.000045,0.000055,0.000000,0.000000,0.000000,0.000000,-0.001309,0.000818,-0.000006,0.000000,0.000000,0.000000,0.000000,819,819,819,819
9708,0,-0.002182,-0.001091,0.000000,-0.00,-0.00,-0.000026,0.006000,0.000045,0.000055,0.000000,0.000000,0.000000,0.000000,-0.001309,0.000818,-0.000008,0.000000,0.000000,0.000000,0.000000,819,819,819,819
9721,0,-0.002182,-0.001091,0.000000,-0.00,-0.00,0.000045,0.006000,0.000045,0.000055,0.000000,0.000000,0.000000,0.000000,-0.001309,0.000818,-0.000011,0.000000,0.000000,0.000000,0.000000,819,819,819,819
9732,0,-0.002182,-0.001091,0.000000,0.00,0.00,0.000039,0.006000,0.000045,0.000055,0.000000,0.000000,0.000000,0.000000,-0.001309,0.000817,-0.000010,0.000000,0.000000,0.000000,0.000000,819,819,819,819
9742,0,-0.002182,-0.001091,0.000000,-0.00,-0.00,-0.000010,0.006000,0.000045,0.000055,0.000000,0.000000,0.000000,0.000000,-0.001310,0.000819,-0.000008,0.000000,0.000000,0.000000,0.000000,819,819,819,819
9752,0,-0.002182,-0.001091,0.000000,0.00,-0.00,-0.000034,0.006000,0.000045,0.000055,0.000000,0.000000,0.000000,0.000000,-0.001309,0.000819,-0.000007,0.000000,0.000000,0.000000,0.000000,819,819,819,819
9764,0,-0.002182,-0.001091,0.000000,0.00,-0.00,-0.000070,0.006000,0.000045,0.000055,0.000000,0.000000,0.000000,0.000000,-0.001310,0.000818,-0.000006,0.000000,0.000000,0.000000,0.000000,819,819,819,819
9773,0,-0.002182,-0.001091,0.000000,-0.00,-0.00,-0.000124,0.006000,0.000045,0.000055,0.000000,0.000000,0.000000,0.000000,-0.001310,0.000819,-0.000003,0.000000,0.000000,0.000000,0.000000,819,819,819,819
9782,0,-0.002182,-0.001091,0.000000,-0.00,0.00,-0.000051,0.006000,0.000045,0.000055,0.000000,0.000000,0.000000,0.000000,-0.001310,0.000818,-0.000006,0.000000,0.000000,0.000000,0.000000,819,819,819,819
9792,0,-0.002182,-0.001091,0.000000,0.00,-0.00,0.000057,0.006000,0.000045,0.000055,0.000000,0.000000,0.000000,0.000000,-0.001310,0.000819,-0.000011,0.000000,0.000000,0.000000,0.000000,819,819,819,819
9802,0,-0.002182,-0.001091,0.000000,-0.00,0.00,0.000122,0.006000,0.000044,0.000055,0.000000,0.000000,0.000000,0.000000,-0.001311,0.000818,-0.000014,0.000000,0.000000,0.000000,0.000000,819,819,819,819
9812,0,-0.002182,-0.001091,0.000000,-0.00,-0.00,0.000212,0.007000,0.000045,0.000055,0.000000,0.000000,0.000000,0.000000,-0.001311,0.000821,-0.000018,0.000000,0.000000,0.000000,0.000000,819,819,819,819
9822,0,-0.002182,-0.001091,0.000000,0.00,-0.00,0.000194,0.007000,0.000045,0.000055,0.000000,0.000000,0.000000,0.000000,-0.001311,0.000821,-0.000018,0.000000,0.000000,0.000000,0.000000,819,819,819,819
9832,0,-0.002182,-0.001091,0.000000,0.00,-0.00,0.000126,0.007000,0.000045,0.000055,0.000000,0.000000,0.000000,0.000000,-0.001311,0.000821,-0.000015,0.000000,0.000000,0.000000,0.000000,819,819,819,819
9842,0,-0.002182,-0.001091,0.000000,-0.00,-0.00,0.000035,0.012000,0.000045,0.000055,0.000000,0.000000,0.000000,0.000000,-0.001311,0.000820,-0.000011,0.000000,0.000000,0.000000,0.000000,819,819,819,819
9852,0,-0.002182,-0.001091,0.000000,-0.00,0.00,-0.000076,0.012000,0.000045,0.000055,0.000000,0.000000,0.000000,0.000000,-0.001312,0.000819,-0.000006,0.000000,0.000000,0.000000,0.000000,819,819,819,819
9862,0,-0.002182,-0.001091,0.000000,-0.00,0.00,-0.000044,0.012000,0.000045,0.000056,0.000000,0.000000,0.000000,0.000000,-0.001312,0.000817,-0.000007,0.000000,0.000000,0.000000,0.000000,819,819,819,819
9872,0,-0.002182,-0.001091,0.000000,0.00,0.00,-0.000071,0.082000,0.000045,0.000056,0.000000,0.000000,0.000000,0.000000,-0.001312,0.000818,-0.000006,0.084124,0.082500,0.081512,0.079864,888,927,902,925
9882,0,-0.002182,-0.001091,0.000000,-0.00,-0.00,-0.000075,0.091000,0.000046,0.000055,0.000000,0.000000,0.000000,0.000000,-0.001312,0.000821,-0.000006,0.093127,0.091497,0.090514,0.088861,895,935,909,932
9893,0,-0.002182,-0.001091,0.000000,-0.00,-0.00,-0.000092,0.091000,0.000046,0.000055,0.000000,0.000000,0.000000,0.000000,-0.001313,0.000823,-0.000005,0.093130,0.091495,0.090515,0.088860,895,935,909,932
9904,0,-0.002182,-0.001091,0.000000,0.00,-0.00,-0.000111,0.101000,0.000048,0.000056,0.000000,0.000000,0.000000,0.000000,-0.001312,0.000822,-0.000004,0.103130,0.101495,0.100513,0.098862,903,943,917,941
9914,0,-0.002182,-0.001091,0.000000,-0.00,-0.00,-0.000081,0.101000,0.000048,0.000057,0.000000,0.000000,0.000000,0.000000,-0.001313,0.000821,-0.000005,0.103129,0.101497,0.100513,0.098861,903,943,917,941
9923,0,-0.002182,-0.001091,0.000000,0.00,0.00,0.000004,0.101000,0.000049,0.000058,0.000000,0.000000,0.000000,0.000000,-0.001313,0.000820,-0.000009,0.103124,0.101501,0.100516,0.098858,903,943,917,941
9933,0,-0.002182,-0.001091,0.000000,-0.00,0.00,0.000130,0.101000,0.000050,0.000059,0.000000,0.000000,0.000000,0.000000,-0.001313,0.000817,-0.000014,0.103116,0.101511,0.100518,0.098855,903,943,917,941
9943,0,-0.002182,-0.001091,0.000000,0.00,0.00,0.000214,0.101000,0.000051,0.000060,0.000000,0.000000,0.000000,0.000000,-0.001313,0.000815,-0.000018,0.103110,0.101516,0.100521,0.098853,903,943,917,941
9953,0,-0.002182,-0.001091,0.000000,0.00,0.00,-0.000016,0.101000,0.000052,0.000061,0.000000,0.000000,0.000000,0.000000,-0.001313,0.000814,-0.000008,0.103118,0.101507,0.100510,0.098865,903,943,917,941
9963,0,-0.002182,-0.001091,0.000000,-0.00,0.00,0.000224,0.101000,0.000053,0.000061,0.000000,0.000000,0.000000,0.000000,-0.001315,0.000816,-0.000019,0.103113,0.101518,0.100520,0.098849,903,943,917,941
9974,0,-0.002182,-0.001091,0.000000,-0.00,0.00,-0.000128,0.101000,0.000054,0.000061,0.000000,0.000000,0.000000,0.000000,-0.001315,0.000818,-0.000004,0.103129,0.101500,0.100508,0.098863,903,943,917,941
9983,0,-0.002182,-0.001091,0.000000,0.00,0.00,-0.000440,0.101000,0.000056,0.000062,0.000000,0.000000,0.000000,0.000000,-0.001313,0.000814,0.000010,0.103137,0.101489,0.100491,0.098884,903,943,917,941
9993,0,-0.001091,-0.001091,0.000000,0.02,0.00,-0.000487,0.101000,0.000067,0.000062,0.000000,0.000000,0.000000,0.000000,-0.001080,0.000817,0.000013,0.102910,0.101250,0.100724,0.099116,903,943,918,941
10003,0,-0.001091,-0.001091,0.000000,-0.00,-0.00,-0.000154,0.101000,0.000034,0.000060,0.000000,0.000000,0.000000,0.000000,-0.001258,0.000826,-0.000001,0.103082,0.101433,0.100569,0.098916,903,943,917,941
10018,0,-0.001091,-0.001091,0.000000,-0.00,-0.00,-0.000007,0.101000,0.000035,0.000062,0.000000,0.000000,0.000000,0.000000,-0.001259,0.000823,-0.000007,0.103074,0.101443,0.100571,0.098911,903,943,917,941
10032,0,-0.001091,-0.001091,0.000000,-0.00,0.00,-0.000098,0.101000,0.000035,0.000064,0.000000,0.000000,0.000000,0.000000,-0.001258,0.000817,-0.000003,0.103072,0.101444,0.100562,0.098922,903,943,917,941
10043,0,-0.001091,-0.001091,0.000000,0.00,0.00,0.000066,0.101000,0.000036,0.000065,0.000000,0.000000,0.000000,0.000000,-0.001257,0.000814,-0.000010,0.103060,0.101453,0.100568,0.098919,903,943,917,941
10053,0,-0.001091,-0.001091,0.000000,0.00,0.00,-0.000249,0.101000,0.000037,0.000065,0.000000,0.000000,0.000000,0.000000,-0.001257,0.000816,0.000004,0.103077,0.101438,0.100555,0.098930,903,943,917,941
10063,0,-0.001091,-0.001091,0.000000,0.00,0.00,-0.000490,0.101000,0.000037,0.000065,0.000000,0.000000,0.000000,0.000000,-0.001256,0.000818,0.000015,0.103089,0.101423,0.100547,0.098940,903,943,917,941
10073,0,-0.001091,-0.001091,0.000000,0.00,0.00,-0.000656,0.101000,0.000038,0.000066,0.000000,0.000000,0.000000,0.000000,-0.001255,0.000818,0.000023,0.103096,0.101414,0.100541,0.098950,903,943,917,941
10083,0,0.000000,-0.001091,0.000000,0.02,0.00,-0.000584,0.101000,0.000049,0.000067,0.000000,0.000000,0.000000,0.000000,-0.001018,0.000817,0.000021,0.102855,0.101180,0.100779,0.099186,903,942,918,941
10094,0,0.000000,-0.001091,-0.001091,0.00,0.00,-0.000767,0.101000,0.000017,0.000068,0.000000,0.000000,0.000000,0.000000,-0.001191,0.000815,0.000030,0.103036,0.101347,0.100594,0.099023,903,943,917,941
