t,is_crashed,roll,pitch,yaw,p,q,r,throttle,p_cmd,q_cmd,r_cmd,roll_cmd,pitch_cmd,yaw_cmd,roll_pid_out,pitch_pid_out,yaw_pid_out,motor_fl,motor_bl,motor_fr,motor_br,pwm_fl,pwm_bl,pwm_fr,pwm_br
6956,0,0.034907,0.013090,0.000000,-0.00,0.00,0.000000,0.500000,-0.001747,-0.000654,0.000000,0.000000,0.000000,0.000000,0.000001,-0.000002,0.000000,0.000000,0.000000,0.000000,0.000000,0,0,0,0
6970,0,0.000000,0.000000,0.000000,-0.12,-0.05,-0.000018,0.500000,-0.009973,-0.002341,0.000000,0.000000,0.000000,0.000000,-0.000077,0.000132,0.000000,0.500210,0.499945,0.500055,0.499791,1228,1269,1245,1269
6981,0,0.000000,0.000000,0.000000,0.00,0.00,0.000017,0.005000,0.000000,0.000000,0.000000,0.000000,0.000000,0.000000,-0.000000,-0.000000,-0.000000,0.000000,0.000000,0.000000,0.000000,819,819,819,819
6991,0,0.000000,0.000000,0.000000,-0.00,0.00,0.000000,0.005000,-0.000001,0.000000,0.000000,0.000000,0.000000,0.000000,-0.000000,-0.000000,-0.000000,0.000000,0.000000,0.000000,0.000000,819,819,819,819
7002,0,0.000000,0.000000,0.000000,0.00,-0.00,-0.000018,0.005000,0.000001,-0.000003,0.000000,0.000000,0.000000,0.000000,0.000000,0.000000,0.000000,0.000000,0.000000,0.000000,0.000000,819,819,819,819
7014,0,0.000000,0.000000,0.000000,0.00,0.00,-0.000055,0.005000,0.000001,0.000002,0.000000,0.000000,0.000000,0.000000,0.000000,-0.000000,0.000000,0.000000,0.000000,0.000000,0.000000,819,819,819,819
7024,0,0.000000,0.000000,0.000000,-0.00,-0.00,-0.000021,0.005000,-0.000001,-0.000002,0.000000,0.000000,0.000000,0.000000,-0.000000,0.000000,0.000000,0.000000,0.000000,0.000000,0.000000,819,819,819,819
7034,0,0.000000,0.000000,0.000000,0.00,-0.00,-0.000001,0.005000,0.000000,-0.000000,0.000000,0.000000,0.000000,0.000000,-0.000000,0.000000,0.000000,0.000000,0.000000,0.000000,0.000000,819,819,819,819
7049,0,0.000000,0.000000,0.000000,0.00,0.00,-0.000018,0.005000,0.000000,0.000003,0.000000,0.000000,0.000000,0.000000,-0.000000,-0.000000,0.000000,0.000000,0.000000,0.000000,0.000000,819,819,819,819
7063,0,0.000000,0.000000,0.000000,-0.00,-0.00,-0.000019,0.005000,-0.000001,-0.000000,0.000000,0.000000,0.000000,0.000000,-0.000000,0.000000,0.000000,0.000000,0.000000,0.000000,0.000000,819,819,819,819
7074,0,0.000000,0.000000,0.000000,0.00,0.00,0.000035,0.005000,0.000000,0.000000,0.000000,0.000000,0.000000,0.000000,-0.000000,0.000000,-0.000000,0.000000,0.000000,0.000000,0.000000,819,819,819,819
7084,0,0.000000,0.000000,0.000000,0.00,0.00,-0.000016,0.005000,0.000001,0.000003,0.000000,0.000000,0.000000,0.000000,0.000000,-0.000000,0.000000,0.000000,0.000000,0.000000,0.000000,819,819,819,819
7094,0,0.000000,0.000000,0.000000,0.00,0.00,-0.000055,0.005000,0.000000,0.000000,0.000000,0.000000,0.000000,0.000000,-0.000000,-0.000000,0.000000,0.000000,0.000000,0.000000,0.000000,819,819,819,819
7104,0,0.000000,0.000000,0.000000,-0.00,-0.00,-0.000039,0.005000,-0.000001,-0.000000,0.000000,0.000000,0.000000,0.000000,-0.000000,0.000000,0.000000,0.000000,0.000000,0.000000,0.000000,819,819,819,819
7114,0,0.000000,0.000000,0.000000,0.00,0.00,-0.000038,0.005000,0.000000,0.000000,0.000000,0.000000,0.000000,0.000000,-0.000000,0.000000,0.000000,0.000000,0.000000,0.000000,0.000000,819,819,819,819
7124,0,0.000000,0.000000,0.000000,-0.00,-0.00,-0.000002,0.005000,-0.000001,-0.000002,0.000000,0.000000,0.000000,0.000000,-0.000000,0.000000,0.000000,0.000000,0.000000,0.000000,0.000000,819,819,819,819
7134,0,0.000000,0.000000,0.000000,0.00,0.00,-0.000018,0.005000,0.000000,0.000000,0.000000,0.000000,0.000000,0.000000,-0.000000,-0.000000,0.000000,0.000000,0.000000,0.000000,0.000000,819,819,819,819
7144,0,0.000000,0.000000,0.000000,-0.00,0.00,0.000017,0.005000,-0.000001,0.000002,0.000000,0.000000,0.000000,0.000000,-0.000000,-0.000000,-0.000000,0.000000,0.000000,0.000000,0.000000,819,819,819,819
7154,0,0.000000,0.000000,0.000000,0.00,0.00,0.000000,0.005000,0.000000,0.000002,0.000000,0.000000,0.000000,0.000000,-0.000000,-0.000000,-0.000000,0.000000,0.000000,0.000000,0.000000,819,819,819,819
7164,0,0.000000,0.000000,0.000000,0.00,0.00,-0.000036,0.005000,0.000000,0.000002,0.000000,0.000000,0.000000,0.000000,-0.000000,-0.000000,0.000000,0.000000,0.000000,0.000000,0.000000,819,819,819,819
7174,0,0.000000,0.000000,0.000000,0.00,0.00,-0.000002,0.005000,0.000000,0.000000,0.000000,0.000000,0.000000,0.000000,-0.000000,-0.000000,0.000000,0.000000,0.000000,0.000000,0.000000,819,819,819,819
7184,0,0.000000,0.000000,0.000000,-0.00,-0.00,-0.000000,0.005000,-0.000001,-0.000000,0.000000,0.000000,0.000000,0.000000,-0.000000,0.000000,0.000000,0.000000,0.000000,0.000000,0.000000,819,819,819,819
7194,0,0.000000,0.000000,0.000000,0.00,0.00,-0.000000,0.005000,0.000000,0.000002,0.000000,0.000000,0.000000,0.000000,-0.000000,-0.000000,0.000000,0.000000,0.000000,0.000000,0.000000,819,819,819,819
7204,0,0.000000,0.000000,0.000000,0.00,0.00,-0.000018,0.005000,0.000000,0.000002,0.000000,0.000000,0.000000,0.000000,-0.000000,-0.000000,0.000000,0.000000,0.000000,0.000000,0.000000,819,819,819,819
7214,0,0.000000,0.000000,0.000000,-0.00,0.00,0.000035,0.005000,-0.000003,0.000000,0.000000,0.000000,0.000000,0.000000,-0.000000,0.000000,-0.000000,0.000000,0.000000,0.000000,0.000000,819,819,819,819
7224,0,0.000000,0.000000,0.000000,0.00,-0.00,0.000074,0.005000,0.000000,-0.000003,0.000000,0.000000,0.000000,0.000000,-0.000000,0.000000,-0.000000,0.000000,0.000000,0.000000,0.000000,819,819,819,819
7235,0,0.000000,0.000000,0.000000,-0.00,0.00,0.000130,0.005000,-0.000001,0.000000,0.000000,0.000000,0.000000,0.000000,-0.000000,0.000000,-0.000002,0.000000,0.000000,0.000000,0.000000,819,819,819,819
7245,0,0.000000,0.000000,0.000000,-0.00,0.00,0.000061,0.005000,-0.000001,0.000003,0.000000,0.000000,0.000000,0.000000,-0.000000,-0.000000,-0.000000,0.000000,0.000000,0.000000,0.000000,819,819,819,819
7255,0,0.000000,0.000000,0.000000,-0.00,0.00,0.000003,0.005000,-0.000001,0.000004,0.000000,0.000000,0.000000,0.000000,-0.000000,-0.000000,-0.000000,0.000000,0.000000,0.000000,0.000000,819,819,819,819
7265,0,0.000000,0.000000,0.000000,0.00,0.00,-0.000036,0.005000,0.000003,0.000004,0.000000,0.000000,0.000000,0.000000,0.000000,-0.000000,0.000000,0.000000,0.000000,0.000000,0.000000,819,819,819,819
7275,0,0.000000,0.000000,0.000000,-0.00,0.00,-0.000056,0.005000,-0.000001,0.000002,0.000000,0.000000,0.000000,0.000000,-0.000000,-0.000000,0.000000,0.000000,0.000000,0.000000,0.000000,819,819,819,819
7285,0,0.000000,0.000000,0.000000,-0.00,0.00,-0.000057,0.005000,-0.000001,0.000002,0.000000,0.000000,0.000000,0.000000,-0.000000,-0.000000,0.000000,0.000000,0.000000,0.000000,0.000000,819,819,819,819
7295,0,0.000000,0.000000,0.000000,0.00,0.00,-0.000111,0.005000,0.000001,0.000003,0.000000,0.000000,0.000000,0.000000,0.000000,-0.000000,0.000001,0.000000,0.000000,0.000000,0.000000,819,819,819,819
7305,0,0.000000,0.000000,0.000000,-0.00,0.00,-0.000060,0.005000,-0.000001,0.000002,0.000000,0.000000,0.000000,0.000000,-0.000000,-0.000000,0.000000,0.000000,0.000000,0.000000,0.000000,819,819,819,819
7315,0,0.000000,0.000000,0.000000,-0.00,0.00,-0.000075,0.005000,-0.000003,0.000003,0.000000,0.000000,0.000000,0.000000,-0.000000,-0.000000,0.000000,0.000000,0.000000,0.000000,0.000000,819,819,819,819
7325,0,0.000000,0.000000,0.000000,0.00,-0.00,-0.000112,0.005000,0.000001,-0.000000,0.000000,0.000000,0.000000,0.000000,0.000000,0.000000,0.000001,0.000000,0.000000,0.000000,0.000000,819,819,819,819
7335,0,0.000000,0.000000,0.000000,-0.00,-0.00,-0.000150,0.005000,-0.000001,-0.000000,0.000000,0.000000,0.000000,0.000000,-0.000000,0.000000,0.000002,0.000000,0.000000,0.000000,0.000000,819,819,819,819
7345,0,0.000000,0.000000,0.000000,-0.00,0.00,-0.000080,0.005000,-0.000004,0.000000,0.000000,0.000000,0.000000,0.000000,-0.000000,-0.000000,0.000000,0.000000,0.000000,0.000000,0.000000,819,819,819,819
7355,0,0.000000,0.000000,0.000000,-0.00,0.00,-0.000076,0.005000,-0.000001,0.000000,0.000000,0.000000,0.000000,0.000000,-0.000000,0.000000,0.000000,0.000000,0.000000,0.000000,0.000000,819,819,819,819
7369,0,0.000000,0.000000,0.000000,0.00,-0.00,-0.000004,0.005000,0.000000,-0.000000,0.000000,0.000000,0.000000,0.000000,-0.000000,0.000000,0.000000,0.000000,0.000000,0.000000,0.000000,819,819,819,819
7383,0,0.000000,0.000000,0.000000,0.00,0.00,0.000036,0.005000,0.000003,0.000000,0.000000,0.000000,0.000000,0.000000,0.000000,-0.000000,-0.000000,0.000000,0.000000,0.000000,0.000000,819,819,819,819
7394,0,0.000000,0.000000,0.000000,0.00,0.00,0.000092,0.005000,0.000000,0.000002,0.000000,0.000000,0.000000,0.000000,-0.000000,-0.000000,-0.000001,0.000000,0.000000,0.000000,0.000000,819,819,819,819
7404,0,0.000000,0.000000,0.000000,0.00,-0.00,-0.000050,0.005000,0.000004,-0.000002,0.000000,0.000000,0.000000,0.000000,0.000000,0.000000,0.000000,0.000000,0.000000,0.000000,0.000000,819,819,819,819
7415,0,0.000000,0.000000,0.000000,0.00,0.00,-0.000111,0.005000,0.000003,0.000000,0.000000,0.000000,0.000000,0.000000,0.000000,0.000000,0.000001,0.000000,0.000000,0.000000,0.000000,819,819,819,819
7425,0,0.000000,0.000000,0.000000,-0.00,-0.00,-0.000114,0.005000,-0.000001,-0.000003,0.000000,0.000000,0.000000,0.000000,-0.000000,0.000000,0.000001,0.000000,0.000000,0.000000,0.000000,819,819,819,819
7435,0,0.000000,0.000000,0.000000,0.00,-0.00,-0.000114,0.005000,0.000001,-0.000004,0.000000,0.000000,0.000000,0.000000,0.000000,0.000000,0.000001,0.000000,0.000000,0.000000,0.000000,819,819,819,819
7445,0,0.000000,0.000000,0.000000,0.00,-0.00,0.000049,0.005000,0.000000,-0.000005,0.000000,0.000000,0.000000,0.000000,-0.000000,0.000000,-0.000000,0.000000,0.000000,0.000000,0.000000,819,819,819,819
7455,0,0.000000,0.000000,0.000000,0.00,-0.00,0.000147,0.005000,0.000003,-0.000005,0.000000,0.000000,0.000000,0.000000,0.000000,0.000000,-0.000002,0.000000,0.000000,0.000000,0.000000,819,819,819,819
7465,0,0.000000,0.000000,0.000000,-0.00,-0.00,0.000170,0.005000,-0.000003,-0.000006,0.000000,0.000000,0.000000,0.000000,-0.000000,0.000000,-0.000002,0.000000,0.000000,0.000000,0.000000,819,819,819,819
7475,0,0.000000,0.000000,0.000000,0.00,-0.00,0.000135,0.005000,0.000000,-0.000005,0.000000,0.000000,0.000000,0.000000,-0.000000,0.000000,-0.000002,0.000000,0.000000,0.000000,0.000000,819,819,819,819
7485,0,0.000000,0.000000,0.000000,0.00,-0.00,0.000043,0.005000,0.000001,-0.000005,0.000000,0.000000,0.000000,0.000000,0.000000,0.000000,-0.000000,0.000000,0.000000,0.000000,0.000000,819,819,819,819
7495,0,0.000000,0.000000,0.000000,0.00,-0.00,0.000020,0.005000,0.000001,-0.000005,0.000000,0.000000,0.000000,0.000000,0.000000,0.000000,-0.000000,0.000000,0.000000,0.000000,0.000000,819,819,819,819
7505,0,0.000000,0.000000,0.000000,0.00,-0.00,0.000055,0.005000,0.000001,-0.000002,0.000000,0.000000,0.000000,0.000000,0.000000,0.000000,-0.000000,0.000000,0.000000,0.000000,0.000000,819,819,819,819
7515,0,0.000000,0.000000,0.000000,0.00,-0.00,0.000039,0.005000,0.000000,-0.000008,0.000000,0.000000,0.000000,0.000000,-0.000000,0.000000,-0.000000,0.000000,0.000000,0.000000,0.000000,819,819,819,819
7525,0,0.000000,0.000000,0.000000,0.00,-0.00,0.000002,0.005000,0.000004,-0.000005,0.000000,0.000000,0.000000,0.000000,0.000000,0.000000,-0.000000,0.000000,0.000000,0.000000,0.000000,819,819,819,819
7535,0,0.000000,0.000000,0.000000,0.00,-0.00,0.000000,0.005000,0.000000,-0.000000,0.000000,0.000000,0.000000,0.000000,-0.000000,0.000000,-0.000000,0.000000,0.000000,0.000000,0.000000,819,819,819,819
7545,0,0.000000,0.000000,0.000000,-0.00,-0.00,0.000000,0.005000,-0.000003,-0.000002,0.000000,0.000000,0.000000,0.000000,-0.000000,0.000000,-0.000000,0.000000,0.000000,0.000000,0.000000,819,819,819,819
7555,0,0.000000,0.000000,0.000000,0.00,-0.00,0.000018,0.005000,0.000003,-0.000003,0.000000,0.000000,0.000000,0.000000,0.000000,0.000000,-0.000000,0.000000,0.000000,0.000000,0.000000,819,819,819,819
7565,0,0.000000,0.000000,0.000000,0.00,-0.00,-0.000071,0.005000,0.000000,-0.000004,0.000000,0.000000,0.000000,0.000000,-0.000000,0.000000,0.000000,0.000000,0.000000,0.000000,0.000000,819,819,819,819
7575,0,0.000000,0.000000,0.000000,0.00,-0.00,-0.000076,0.005000,0.000003,-0.000000,0.000000,0.000000,0.000000,0.000000,0.000000,0.000000,0.000000,0.000000,0.000000,0.000000,0.000000,819,819,819,819
7585,0,0.000000,0.000000,0.000000,0.00,-0.00,-0.000112,0.005000,0.000001,-0.000003,0.000000,0.000000,0.000000,0.000000,0.000000,0.000000,0.000001,0.000000,0.000000,0.000000,0.000000,819,819,819,819
7595,0,0.000000,0.000000,0.000000,0.00,-0.00,-0.000132,0.005000,0.000001,-0.000006,0.000000,0.000000,0.000000,0.000000,0.000000,0.000000,0.000002,0.000000,0.000000,0.000000,0.000000,819,819,819,819
7605,0,0.000000,0.000000,0.000000,0.00,-0.00,-0.000097,0.005000,0.000000,-0.000007,0.000000,0.000000,0.000000,0.000000,-0.000000,0.000000,0.000001,0.000000,0.000000,0.000000,0.000000,819,819,819,819
7615,0,0.000000,0.000000,0.000000,0.00,-0.00,-0.000023,0.005000,0.000000,-0.000005,0.000000,0.000000,0.000000,0.000000,-0.000000,0.000000,0.000000,0.000000,0.000000,0.000000,0.000000,819,819,819,819
7625,0,0.000000,0.000000,0.000000,0.00,-0.00,0.000017,0.005000,0.000001,-0.000003,0.000000,0.000000,0.000000,0.000000,0.000000,0.000000,-0.000000,0.000000,0.000000,0.000000,0.000000,819,819,819,819
7636,0,0.000000,0.000000,0.000000,-0.00,-0.00,0.000019,0.005000,-0.000001,-0.000004,0.000000,0.000000,0.000000,0.000000,-0.000000,0.000000,-0.000000,0.000000,0.000000,0.000000,0.000000,819,819,819,819
7646,0,0.000000,0.000000,0.000000,0.00,-0.00,-0.000071,0.005000,0.000000,-0.000000,0.000000,0.000000,0.000000,0.000000,-0.000000,0.000000,0.000000,0.000000,0.000000,0.000000,0.000000,819,819,819,819
7656,0,0.000000,0.000000,0.000000,0.00,-0.00,-0.000112,0.005000,0.000000,-0.000002,0.000000,0.000000,0.000000,0.000000,-0.000000,0.000000,0.000001,0.000000,0.000000,0.000000,0.000000,819,819,819,819
7666,0,0.000000,0.000000,0.000000,0.00,-0.00,-0.000150,0.005000,0.000001,-0.000003,0.000000,0.000000,0.000000,0.000000,0.000000,0.000000,0.000002,0.000000,0.000000,0.000000,0.000000,819,819,819,819
7676,0,0.000000,0.000000,0.000000,0.00,-0.00,-0.000206,0.005000,0.000001,-0.000002,0.000000,0.000000,0.000000,0.000000,0.000000,0.000000,0.000002,0.000000,0.000000,0.000000,0.000000,819,819,819,819
7689,0,0.001091,0.000000,0.000000,0.00,-0.00,-0.000191,0.005000,0.000281,-0.000004,0.000000,0.000000,0.000000,0.000000,0.000002,0.000000,0.000002,0.000000,0.000000,0.000000,0.000000,819,819,819,819
7702,0,0.001091,0.000000,0.000000,0.00,-0.00,-0.000118,0.005000,-0.000055,-0.000005,0.000000,0.000000,0.000000,0.000000,0.000000,0.000000,0.000001,0.000000,0.000000,0.000000,0.000000,819,819,819,819
7714,0,0.001091,0.000000,0.000000,0.00,-0.00,-0.000114,0.005000,-0.000052,-0.000005,0.000000,0.000000,0.000000,0.000000,0.000000,0.000000,0.000001,0.000000,0.000000,0.000000,0.000000,819,819,819,819
7725,0,0.001091,0.000000,0.000000,-0.00,0.00,-0.000096,0.005000,-0.000057,0.000000,0.000000,0.000000,0.000000,0.000000,0.000000,0.000000,0.000001,0.000000,0.000000,0.000000,0.000000,819,819,819,819
7736,0,0.001091,0.000000,0.000000,0.00,0.00,-0.000077,0.005000,-0.000055,0.000002,0.000000,0.000000,0.000000,0.000000,0.000000,-0.000000,0.000000,0.000000,0.000000,0.000000,0.000000,819,819,819,819
7746,0,0.001091,0.000000,0.000000,0.00,0.00,-0.000040,0.005000,-0.000053,0.000005,0.000000,0.000000,0.000000,0.000000,0.000000,-0.000000,0.000000,0.000000,0.000000,0.000000,0.000000,819,819,819,819
7756,0,0.001091,0.000000,0.000000,0.00,-0.00,0.000070,0.005000,-0.000052,-0.000003,0.000000,0.000000,0.000000,0.000000,0.000000,0.000000,-0.000000,0.000000,0.000000,0.000000,0.000000,819,819,819,819
7766,0,0.001091,0.000000,0.000000,0.00,-0.00,0.000130,0.005000,-0.000055,-0.000002,0.000000,0.000000,0.000000,0.000000,0.000000,0.000000,-0.000001,0.000000,0.000000,0.000000,0.000000,819,819,819,819
7776,0,0.001091,0.000000,0.000000,0.00,0.00,0.000097,0.005000,-0.000053,0.000002,0.000000,0.000000,0.000000,0.000000,0.000000,-0.000000,-0.000001,0.000000,0.000000,0.000000,0.000000,819,819,819,819
7786,0,0.001091,0.000000,0.000000,0.00,0.00,-0.000013,0.005000,-0.000053,0.000003,0.000000,0.000000,0.000000,0.000000,0.000000,-0.000000,0.000000,0.000000,0.000000,0.000000,0.000000,819,819,819,819
7796,0,0.001091,0.000000,0.000000,0.00,0.00,-0.000109,0.005000,-0.000053,0.000007,0.000000,0.000000,0.000000,0.000000,0.000000,-0.000000,0.000001,0.000000,0.000000,0.000000,0.000000,819,819,819,819
7806,0,0.001091,0.000000,0.000000,0.00,0.00,-0.000042,0.005000,-0.000052,0.000005,0.000000,0.000000,0.000000,0.000000,0.000000,-0.000000,0.000000,0.000000,0.000000,0.000000,0.000000,819,819,819,819
7818,0,0.001091,0.000000,0.000000,0.00,0.00,-0.000038,0.005000,-0.000053,0.000005,0.000000,0.000000,0.000000,0.000000,0.000000,-0.000000,0.000000,0.000000,0.000000,0.000000,0.000000,819,819,819,819
7827,0,0.001091,0.000000,0.000000,0.00,0.00,0.000016,0.005000,-0.000053,0.000000,0.000000,0.000000,0.000000,0.000000,0.000000,-0.000000,-0.000000,0.000000,0.000000,0.000000,0.000000,819,819,819,819
7837,0,0.001091,0.000000,0.000000,0.00,-0.00,0.000000,0.005000,-0.000052,-0.000000,0.000000,0.000000,0.000000,0.000000,0.000000,0.000000,-0.000000,0.000000,0.000000,0.000000,0.000000,819,819,819,819
7846,0,0.001091,0.000000,0.000000,0.00,-0.00,-0.000036,0.005000,-0.000053,-0.000007,0.000000,0.000000,0.000000,0.000000,0.000000,0.000000,0.000000,0.000000,0.000000,0.000000,0.000000,819,819,819,819
7856,0,0.001091,0.000000,0.000000,0.00,-0.00,-0.000038,0.005000,-0.000053,-0.000007,0.000000,0.000000,0.000000,0.000000,0.000000,0.000000,0.000000,0.000000,0.000000,0.000000,0.000000,819,819,819,819
7866,0,0.001091,0.000000,0.000000,0.00,-0.00,-0.000074,0.005000,-0.000055,-0.000004,0.000000,0.000000,0.000000,0.000000,0.000000,0.000000,0.000000,0.000000,0.000000,0.000000,0.000000,819,819,819,819
7876,0,0.001091,0.000000,0.000000,0.00,-0.00,-0.000040,0.005000,-0.000053,-0.000004,0.000000,0.000000,0.000000,0.000000,0.000000,0.000000,0.000000,0.000000,0.000000,0.000000,0.000000,819,819,819,819
7886,0,0.001091,0.000000,0.000000,0.00,-0.00,-0.000056,0.005000,-0.000055,-0.000004,0.000000,0.000000,0.000000,0.000000,0.000000,0.000000,0.000000,0.000000,0.000000,0.000000,0.000000,819,819,819,819
7896,0,0.001091,0.000000,0.000000,0.00,-0.00,-0.000003,0.005000,-0.000055,-0.000003,0.000000,0.000000,0.000000,0.000000,0.000000,0.000000,0.000000,0.000000,0.000000,0.000000,0.000000,819,819,819,819
7906,0,0.001091,0.000000,0.000000,0.00,-0.00,-0.000072,0.005000,-0.000052,-0.000000,0.000000,0.000000,0.000000,0.000000,0.000000,0.000000,0.000000,0.000000,0.000000,0.000000,0.000000,819,819,819,819
7916,0,0.001091,0.000000,0.000000,0.00,0.00,0.000014,0.005000,-0.000053,0.000004,0.000000,0.000000,0.000000,0.000000,0.000000,-0.000000,-0.000000,0.000000,0.000000,0.000000,0.000000,819,819,819,819
7926,0,0.001091,0.000000,0.000000,0.00,0.00,-0.000017,0.005000,-0.000052,0.000002,0.000000,0.000000,0.000000,0.000000,0.000000,-0.000000,0.000000,0.000000,0.000000,0.000000,0.000000,819,819,819,819
7936,0,0.001091,0.000000,0.000000,0.00,0.00,-0.000073,0.005000,-0.000052,0.000003,0.000000,0.000000,0.000000,0.000000,0.000000,-0.000000,0.000000,0.000000,0.000000,0.000000,0.000000,819,819,819,819
7946,0,0.001091,0.000000,0.000000,0.00,0.00,-0.000148,0.005000,-0.000055,0.000003,0.000000,0.000000,0.000000,0.000000,0.000000,-0.000000,0.000002,0.000000,0.000000,0.000000,0.000000,819,819,819,819
7956,0,0.001091,0.000000,0.000000,0.00,0.00,-0.000134,0.005000,-0.000052,0.000008,0.000000,0.000000,0.000000,0.000000,0.000000,-0.000000,0.000002,0.000000,0.000000,0.000000,0.000000,819,819,819,819
7966,0,0.001091,0.000000,0.000000,0.00,0.00,-0.000115,0.005000,-0.000055,0.000006,0.000000,0.000000,0.000000,0.000000,0.000000,-0.000000,0.000001,0.000000,0.000000,0.000000,0.000000,819,819,819,819
7976,0,0.001091,0.000000,0.000000,0.00,0.00,-0.000078,0.005000,-0.000055,0.000002,0.000000,0.000000,0.000000,0.000000,0.000000,-0.000000,0.000000,0.000000,0.000000,0.000000,0.000000,819,819,819,819
7986,0,0.001091,0.000000,0.000000,0.00,0.00,-0.000094,0.005000,-0.000052,0.000000,0.000000,0.000000,0.000000,0.000000,0.000000,0.000000,0.000001,0.000000,0.000000,0.000000,0.000000,819,819,819,819
8000,0,0.001091,0.000000,0.000000,0.00,0.00,-0.000077,0.005000,-0.000052,0.000004,0.000000,0.000000,0.000000,0.000000,0.000000,-0.000000,0.000000,0.000000,0.000000,0.000000,0.000000,819,819,819,819
8014,0,0.001091,0.000000,0.000000,0.00,0.00,-0.000076,0.005000,-0.000053,0.000002,0.000000,0.000000,0.000000,0.000000,0.000000,-0.000000,0.000000,0.000000,0.000000,0.000000,0.000000,819,819,819,819
8026,0,0.001091,0.000000,0.000000,0.00,-0.00,-0.000076,0.005000,-0.000053,-0.000005,0.000000,0.000000,0.000000,0.000000,0.000000,0.000000,0.000000,0.000000,0.000000,0.000000,0.000000,819,819,819,819
8036,0,0.001091,0.000000,0.000000,0.00,-0.00,-0.000094,0.005000,-0.000053,-0.000006,0.000000,0.000000,0.000000,0.000000,0.000000,0.000000,0.000001,0.000000,0.000000,0.000000,0.000000,819,819,819,819
8046,0,0.001091,0.000000,0.000000,0.00,-0.00,-0.000095,0.005000,-0.000052,-0.000008,0.000000,0.000000,0.000000,0.000000,0.000000,0.000000,0.000001,0.000000,0.000000,0.000000,0.000000,819,819,819,819
8056,0,0.001091,0.000000,0.000000,0.00,-0.00,0.000013,0.005000,-0.000053,-0.000005,0.000000,0.000000,0.000000,0.000000,0.000000,0.000000,-0.000000,0.000000,0.000000,0.000000,0.000000,819,819,819,819
8067,0,0.001091,0.000000,0.000000,0.00,-0.00,0.000037,0.005000,-0.000053,-0.000005,0.000000,0.000000,0.000000,0.000000,0.000000,0.000000,-0.000000,0.000000,0.000000,0.000000,0.000000,819,819,819,819
8077,0,0.001091,0.000000,0.000000,0.00,-0.00,0.000092,0.005000,-0.000053,-0.000003,0.000000,0.000000,0.000000,0.000000,0.000000,0.000000,-0.000001,0.000000,0.000000,0.000000,0.000000,819,819,819,819
8087,0,0.001091,0.000000,0.000000,0.00,-0.00,0.000059,0.005000,-0.000052,-0.000000,0.000000,0.000000,0.000000,0.000000,0.000000,0.000000,-0.000000,0.000000,0.000000,0.000000,0.000000,819,819,819,819
8097,0,0.001091,0.000000,0.000000,0.00,-0.00,-0.000033,0.005000,-0.000050,-0.000003,0.000000,0.000000,0.000000,0.000000,0.000000,0.000000,0.000000,0.000000,0.000000,0.000000,0.000000,819,819,819,819
8107,0,0.001091,0.000000,0.000000,0.00,-0.00,-0.000038,0.005000,-0.000055,-0.000004,0.000000,0.000000,0.000000,0.000000,0.000000,0.000000,0.000000,0.000000,0.000000,0.000000,0.000000,819,819,819,819
8117,0,0.001091,0.000000,0.000000,0.00,-0.00,-0.000020,0.005000,-0.000053,-0.000003,0.000000,0.000000,0.000000,0.000000,0.000000,0.000000,0.000000,0.000000,0.000000,0.000000,0.000000,819,819,819,819
8127,0,0.001091,0.000000,0.000000,0.00,-0.00,-0.000073,0.005000,-0.000050,-0.000003,0.000000,0.000000,0.000000,0.000000,0.000000,0.000000,0.000000,0.000000,0.000000,0.000000,0.000000,819,819,819,819
8137,0,0.001091,0.000000,0.000000,0.00,-0.00,-0.000130,0.005000,-0.000053,-0.000003,0.000000,0.000000,0.000000,0.000000,0.000000,0.000000,0.000001,0.000000,0.000000,0.000000,0.000000,819,819,819,819
8147,0,0.001091,0.000000,0.000000,0.00,-0.00,-0.000151,0.005000,-0.000053,-0.000000,0.000000,0.000000,0.000000,0.000000,0.000000,0.000000,0.000002,0.000000,0.000000,0.000000,0.000000,819,819,819,819
8157,0,0.001091,0.000000,0.000000,0.00,0.00,-0.000152,0.005000,-0.000052,0.000003,0.000000,0.000000,0.000000,0.000000,0.000000,-0.000000,0.000002,0.000000,0.000000,0.000000,0.000000,819,819,819,819
8167,0,0.001091,0.000000,0.000000,-0.00,0.00,-0.000098,0.005000,-0.000056,0.000002,0.000000,0.000000,0.000000,0.000000,0.000000,-0.000000,0.000001,0.000000,0.000000,0.000000,0.000000,819,819,819,819
8177,0,0.001091,0.000000,0.000000,0.00,0.00,-0.000041,0.005000,-0.000055,0.000006,0.000000,0.000000,0.000000,0.000000,0.000000,-0.000000,0.000000,0.000000,0.000000,0.000000,0.000000,819,819,819,819
8187,0,0.001091,0.000000,0.000000,0.00,0.00,0.000034,0.005000,-0.000055,0.000004,0.000000,0.000000,0.000000,0.000000,0.000000,-0.000000,-0.000000,0.000000,0.000000,0.000000,0.000000,819,819,819,819
8197,0,0.001091,0.000000,0.000000,0.00,0.00,0.000020,0.005000,-0.000055,0.000008,0.000000,0.000000,0.000000,0.000000,0.000000,-0.000000,-0.000000,0.000000,0.000000,0.000000,0.000000,819,819,819,819
8207,0,0.001091,0.000000,0.000000,0.00,0.00,0.000037,0.005000,-0.000052,0.000005,0.000000,0.000000,0.000000,0.000000,0.000000,-0.000000,-0.000000,0.000000,0.000000,0.000000,0.000000,819,819,819,819
8217,0,0.001091,0.000000,0.000000,0.00,0.00,-0.000016,0.005000,-0.000053,0.000000,0.000000,0.000000,0.000000,0.000000,0.000000,0.000000,0.000000,0.000000,0.000000,0.000000,0.000000,819,819,819,819
8227,0,0.001091,0.000000,0.000000,0.00,0.00,-0.000019,0.005000,-0.000055,0.000000,0.000000,0.000000,0.000000,0.000000,0.000000,0.000000,0.000000,0.000000,0.000000,0.000000,0.000000,819,819,819,819
8237,0,0.001091,0.000000,0.000000,0.00,0.00,-0.000091,0.005000,-0.000055,0.000000,0.000000,0.000000,0.000000,0.000000,0.000000,0.000000,0.000001,0.000000,0.000000,0.000000,0.000000,819,819,819,819
8247,0,0.001091,0.000000,0.000000,0.00,0.00,-0.000113,0.005000,-0.000055,0.000003,0.000000,0.000000,0.000000,0.000000,0.000000,-0.000000,0.000001,0.000000,0.000000,0.000000,0.000000,819,819,819,819
8257,0,0.001091,0.000000,0.000000,0.00,0.00,-0.000114,0.005000,-0.000055,0.000000,0.000000,0.000000,0.000000,0.000000,0.000000,-0.000000,0.000001,0.000000,0.000000,0.000000,0.000000,819,819,819,819
8267,0,0.001091,0.000000,0.000000,-0.00,0.00,-0.000168,0.005000,-0.000056,0.000005,0.000000,0.000000,0.000000,0.000000,0.000000,-0.000000,0.000002,0.000000,0.000000,0.000000,0.000000,819,819,819,819
8277,0,0.001091,0.000000,0.000000,0.00,0.00,-0.000225,0.005000,-0.000052,0.000006,0.000000,0.000000,0.000000,0.000000,0.000000,-0.000000,0.000002,0.000000,0.000000,0.000000,0.000000,819,819,819,819
8287,0,0.001091,0.000000,0.000000,-0.00,0.00,-0.000228,0.005000,-0.000056,0.000005,0.000000,0.000000,0.000000,0.000000,0.000000,-0.000000,0.000003,0.000000,0.000000,0.000000,0.000000,819,819,819,819
8297,0,0.001091,0.000000,0.000000,0.00,0.00,-0.000247,0.005000,-0.000052,0.000005,0.000000,0.000000,0.000000,0.000000,0.000000,-0.000000,0.000003,0.000000,0.000000,0.000000,0.000000,819,819,819,819
8307,0,0.001091,0.000000,0.000000,-0.00,-0.00,-0.000157,0.005000,-0.000059,-0.000000,0.000000,0.000000,0.000000,0.000000,0.000000,0.000000,0.000002,0.000000,0.000000,0.000000,0.000000,819,819,819,819
8322,0,0.001091,0.000000,0.000000,0.00,-0.00,-0.000026,0.005000,-0.000055,-0.000005,0.000000,0.000000,0.000000,0.000000,0.000000,0.000000,0.000000,0.000000,0.000000,0.000000,0.000000,819,819,819,819
8335,0,0.001091,0.000000,0.000000,0.00,-0.00,0.000035,0.005000,-0.000055,-0.000009,0.000000,0.000000,0.000000,0.000000,0.000000,0.000000,-0.000000,0.000000,0.000000,0.000000,0.000000,819,819,819,819
8346,0,0.001091,0.000000,0.000000,-0.00,-0.00,0.000146,0.005000,-0.000056,-0.000009,0.000000,0.000000,0.000000,0.000000,0.000000,0.000000,-0.000002,0.000000,0.000000,0.000000,0.000000,819,819,819,819
8357,0,0.001091,0.000000,0.000000,-0.00,-0.00,0.000098,0.005000,-0.000056,-0.000008,0.000000,0.000000,0.000000,0.000000,0.000000,0.000000,-0.000001,0.000000,0.000000,0.000000,0.000000,819,819,819,819
8367,0,0.001091,0.000000,0.000000,-0.00,-0.00,0.000023,0.005000,-0.000056,-0.000005,0.000000,0.000000,0.000000,0.000000,0.000000,0.000000,-0.000000,0.000000,0.000000,0.000000,0.000000,819,819,819,819
8377,0,0.001091,0.000000,0.000000,0.00,-0.00,0.000001,0.005000,-0.000052,-0.000004,0.000000,0.000000,0.000000,0.000000,0.000000,0.000000,-0.000000,0.000000,0.000000,0.000000,0.000000,819,819,819,819
8388,0,0.001091,0.000000,0.000000,-0.00,-0.00,-0.000018,0.005000,-0.000056,-0.000005,0.000000,0.000000,0.000000,0.000000,0.000000,0.000000,0.000000,0.000000,0.000000,0.000000,0.000000,819,819,819,819
8397,0,0.001091,0.000000,0.000000,0.00,-0.00,-0.000091,0.005000,-0.000055,-0.000006,0.000000,0.000000,0.000000,0.000000,0.000000,0.000000,0.000001,0.000000,0.000000,0.000000,0.000000,819,819,819,819
8407,0,0.001091,0.000000,0.000000,0.00,-0.00,-0.000023,0.005000,-0.000053,-0.000005,0.000000,0.000000,0.000000,0.000000,0.000000,0.000000,0.000000,0.000000,0.000000,0.000000,0.000000,819,819,819,819
8417,0,0.001091,0.000000,0.000000,0.00,-0.00,0.000071,0.005000,-0.000055,-0.000008,0.000000,0.000000,0.000000,0.000000,0.000000,0.000000,-0.000000,0.000000,0.000000,0.000000,0.000000,819,819,819,819
8427,0,0.001091,0.000000,0.000000,0.00,-0.00,0.000166,0.005000,-0.000055,-0.000007,0.000000,0.000000,0.000000,0.000000,0.000000,0.000000,-0.000002,0.000000,0.000000,0.000000,0.000000,819,819,819,819
8437,0,0.001091,0.000000,0.000000,-0.00,-0.00,0.000262,0.005000,-0.000057,-0.000007,0.000000,0.000000,0.000000,0.000000,0.000000,0.000000,-0.000003,0.000000,0.000000,0.000000,0.000000,819,819,819,819
8448,0,0.001091,0.000000,0.000000,0.00,-0.00,0.000248,0.005000,-0.000053,-0.000005,0.000000,0.000000,0.000000,0.000000,0.000000,0.000000,-0.000003,0.000000,0.000000,0.000000,0.000000,819,819,819,819
8457,0,0.001091,0.000000,0.000000,-0.00,-0.00,0.000211,0.005000,-0.000056,-0.000004,0.000000,0.000000,0.000000,0.000000,0.000000,0.000000,-0.000002,0.000000,0.000000,0.000000,0.000000,819,819,819,819
8467,0,0.001091,0.000000,0.000000,0.00,0.00,0.000173,0.005000,-0.000053,0.000000,0.000000,0.000000,0.000000,0.000000,0.000000,-0.000000,-0.000002,0.000000,0.000000,0.000000,0.000000,819,819,819,819
8477,0,0.001091,0.000000,0.000000,-0.00,0.00,0.000244,0.005000,-0.000057,0.000005,0.000000,0.000000,0.000000,0.000000,0.000000,-0.000000,-0.000003,0.000000,0.000000,0.000000,0.000000,819,819,819,819
8488,0,0.000000,0.000000,0.000000,-0.00,0.00,0.000247,0.005000,-0.000400,0.000005,0.000000,0.000000,0.000000,0.000000,-0.000003,-0.000000,-0.000003,0.000000,0.000000,0.000000,0.000000,819,819,819,819
8498,0,0.000000,0.000000,0.000000,0.00,0.00,0.000229,0.005000,0.000000,0.000006,0.000000,0.000000,0.000000,0.000000,-0.000000,-0.000000,-0.000002,0.000000,0.000000,0.000000,0.000000,819,819,819,819
8508,0,0.000000,0.000000,0.000000,0.00,0.00,0.000102,0.005000,0.000000,0.000007,0.000000,0.000000,0.000000,0.000000,-0.000000,-0.000000,-0.000001,0.000000,0.000000,0.000000,0.000000,819,819,819,819
8518,0,0.000000,0.000000,0.000000,0.00,0.00,0.000041,0.005000,0.000000,0.000007,0.000000,0.000000,0.000000,0.000000,-0.000000,-0.000000,-0.000000,0.000000,0.000000,0.000000,0.000000,819,819,819,819
8528,0,0.000000,0.000000,0.000000,0.00,0.00,0.000038,0.005000,0.000001,0.000000,0.000000,0.000000,0.000000,0.000000,0.000000,-0.000000,-0.000000,0.000000,0.000000,0.000000,0.000000,819,819,819,819
8538,0,0.000000,0.000000,0.000000,0.00,-0.00,0.000038,0.005000,0.000000,-0.000005,0.000000,0.000000,0.000000,0.000000,-0.000000,0.000000,-0.000000,0.000000,0.000000,0.000000,0.000000,819,819,819,819
8548,0,0.000000,0.000000,0.000000,-0.00,-0.00,0.000074,0.005000,-0.000003,-0.000006,0.000000,0.000000,0.000000,0.000000,-0.000000,0.000000,-0.000000,0.000000,0.000000,0.000000,0.000000,819,819,819,819
8558,0,0.000000,0.000000,0.000000,-0.00,-0.00,0.000094,0.005000,-0.000001,-0.000008,0.000000,0.000000,0.000000,0.000000,-0.000000,0.000000,-0.000001,0.000000,0.000000,0.000000,0.000000,819,819,819,819
8568,0,0.000000,0.000000,0.000000,0.00,-0.00,0.000095,0.005000,0.000001,-0.000011,0.000000,0.000000,0.000000,0.000000,0.000000,0.000000,-0.000001,0.000000,0.000000,0.000000,0.000000,819,819,819,819
8578,0,0.000000,0.000000,0.000000,0.00,-0.00,0.000023,0.005000,0.000000,-0.000014,0.000000,0.000000,0.000000,0.000000,-0.000000,0.000000,-0.000000,0.000000,0.000000,0.000000,0.000000,819,819,819,819
8588,0,0.000000,0.000000,0.000000,0.00,-0.00,0.000001,0.005000,0.000001,-0.000017,0.000000,0.000000,0.000000,0.000000,0.000000,0.000000,-0.000000,0.000000,0.000000,0.000000,0.000000,819,819,819,819
8598,0,0.000000,0.000000,0.000000,0.00,-0.00,-0.000036,0.005000,0.000000,-0.000014,0.000000,0.000000,0.000000,0.000000,-0.000000,0.000000,0.000000,0.000000,0.000000,0.000000,0.000000,819,819,819,819
8607,0,0.000000,0.001091,0.000000,0.00,0.00,-0.000002,0.005000,0.000001,0.000237,0.000000,0.000000,0.000000,0.000000,0.000000,-0.000014,0.000000,0.000000,0.000000,0.000000,0.000000,819,819,819,819
8618,0,0.000000,0.001091,0.000000,0.00,-0.00,-0.000036,0.005000,0.000003,-0.000066,0.000000,0.000000,0.000000,0.000000,0.000000,0.000000,0.000000,0.000000,0.000000,0.000000,0.000000,819,819,819,819
8628,0,0.000000,0.001091,0.000000,0.00,-0.00,-0.000092,0.005000,0.000000,-0.000069,0.000000,0.000000,0.000000,0.000000,-0.000000,0.000000,0.000001,0.000000,0.000000,0.000000,0.000000,819,819,819,819
8641,0,0.000000,0.001091,0.000000,0.00,-0.00,-0.000059,0.005000,0.000000,-0.000069,0.000000,0.000000,0.000000,0.000000,-0.000000,0.000000,0.000000,0.000000,0.000000,0.000000,0.000000,819,819,819,819
8654,0,0.000000,0.001091,0.000000,0.00,-0.00,-0.000021,0.005000,0.000000,-0.000066,0.000000,0.000000,0.000000,0.000000,-0.000000,0.000000,0.000000,0.000000,0.000000,0.000000,0.000000,819,819,819,819
8668,0,0.000000,0.001091,0.000000,-0.00,-0.00,-0.000037,0.005000,-0.000003,-0.000061,0.000000,0.000000,0.000000,0.000000,-0.000000,0.000000,0.000000,0.000000,0.000000,0.000000,0.000000,819,819,819,819
8678,0,0.000000,0.001091,0.000000,-0.00,-0.00,-0.000038,0.005000,-0.000001,-0.000058,0.000000,0.000000,0.000000,0.000000,-0.000000,0.000000,0.000000,0.000000,0.000000,0.000000,0.000000,819,819,819,819
8688,0,0.000000,0.001091,0.000000,-0.00,-0.00,-0.000056,0.005000,-0.000001,-0.000058,0.000000,0.000000,0.000000,0.000000,-0.000000,0.000000,0.000000,0.000000,0.000000,0.000000,0.000000,819,819,819,819
8698,0,0.000000,0.001091,0.000000,0.00,-0.00,-0.000057,0.005000,0.000000,-0.000058,0.000000,0.000000,0.000000,0.000000,-0.000000,0.000000,0.000000,0.000000,0.000000,0.000000,0.000000,819,819,819,819
8708,0,0.000000,0.001091,0.000000,0.00,-0.00,-0.000021,0.005000,0.000001,-0.000057,0.000000,0.000000,0.000000,0.000000,0.000000,-0.000000,0.000000,0.000000,0.000000,0.000000,0.000000,819,819,819,819
8718,0,0.000000,0.001091,0.000000,0.00,-0.00,0.000017,0.005000,0.000000,-0.000058,0.000000,0.000000,0.000000,0.000000,-0.000000,0.000000,-0.000000,0.000000,0.000000,0.000000,0.000000,819,819,819,819
8728,0,0.000000,0.001091,0.000000,-0.00,-0.00,0.000037,0.005000,-0.000003,-0.000059,0.000000,0.000000,0.000000,0.000000,-0.000000,0.000000,-0.000000,0.000000,0.000000,0.000000,0.000000,819,819,819,819
8738,0,0.000000,0.001091,0.000000,-0.00,-0.00,0.000020,0.005000,-0.000001,-0.000060,0.000000,0.000000,0.000000,0.000000,-0.000000,0.000000,-0.000000,0.000000,0.000000,0.000000,0.000000,819,819,819,819
8748,0,0.000000,0.001091,0.000000,0.00,-0.00,0.000001,0.005000,0.000000,-0.000057,0.000000,0.000000,0.000000,0.000000,-0.000000,-0.000000,-0.000000,0.000000,0.000000,0.000000,0.000000,819,819,819,819
8758,0,0.000000,0.001091,0.000000,-0.00,0.00,-0.000072,0.005000,-0.000003,-0.000051,0.000000,0.000000,0.000000,0.000000,-0.000000,-0.000000,0.000000,0.000000,0.000000,0.000000,0.000000,819,819,819,819
8768,0,0.000000,0.001091,0.000000,-0.00,0.00,-0.000094,0.005000,-0.000003,-0.000049,0.000000,0.000000,0.000000,0.000000,-0.000000,-0.000000,0.000001,0.000000,0.000000,0.000000,0.000000,819,819,819,819
8778,0,0.000000,0.001091,0.000000,-0.00,0.00,-0.000113,0.005000,-0.000003,-0.000046,0.000000,0.000000,0.000000,0.000000,-0.000000,-0.000000,0.000001,0.000000,0.000000,0.000000,0.000000,819,819,819,819
8788,0,0.000000,0.001091,0.000000,-0.00,0.00,-0.000024,0.005000,-0.000001,-0.000045,0.000000,0.000000,0.000000,0.000000,-0.000000,-0.000000,0.000000,0.000000,0.000000,0.000000,0.000000,819,819,819,819
8798,0,0.000000,0.001091,0.000000,0.00,0.00,0.000071,0.005000,0.000000,-0.000046,0.000000,0.000000,0.000000,0.000000,-0.000000,-0.000000,-0.000000,0.000000,0.000000,0.000000,0.000000,819,819,819,819
8808,0,0.000000,0.001091,0.000000,0.00,0.00,0.000257,0.005000,0.000000,-0.000050,0.000000,0.000000,0.000000,0.000000,-0.000000,-0.000000,-0.000003,0.000000,0.000000,0.000000,0.000000,819,819,819,819
8818,0,0.000000,0.001091,0.000000,-0.00,0.00,0.000375,0.005000,-0.000004,-0.000054,0.000000,0.000000,0.000000,0.000000,-0.000000,-0.000000,-0.000004,0.000000,0.000000,0.000000,0.000000,819,819,819,819
8828,0,0.000000,0.001091,0.000000,0.00,0.00,0.000380,0.005000,0.000001,-0.000053,0.000000,0.000000,0.000000,0.000000,0.000000,-0.000000,-0.000004,0.000000,0.000000,0.000000,0.000000,819,819,819,819
8838,0,0.000000,0.001091,0.000000,-0.00,-0.00,0.000507,0.005000,-0.000003,-0.000056,0.000000,0.000000,0.000000,0.000000,-0.000000,-0.000000,-0.000005,0.000000,0.000000,0.000000,0.000000,819,819,819,819
8848,0,-0.001091,0.001091,0.000000,-0.00,-0.00,0.000496,0.005000,-0.000380,-0.000064,0.000000,0.000000,0.000000,0.000000,-0.000003,0.000000,-0.000005,0.000000,0.000000,0.000000,0.000000,819,819,819,819
8858,0,-0.001091,0.001091,0.000000,0.00,-0.00,0.000495,0.005000,0.000056,-0.000064,0.000000,0.000000,0.000000,0.000000,-0.000000,0.000000,-0.000005,0.000000,0.000000,0.000000,0.000000,819,819,819,819
8868,0,-0.001091,0.001091,0.000000,0.00,-0.00,0.000025,0.005000,0.000055,-0.000065,0.000000,0.000000,0.000000,0.000000,-0.000000,0.000000,-0.000000,0.000000,0.000000,0.000000,0.000000,819,819,819,819
8878,0,-0.001091,0.002182,0.000000,0.00,0.00,-0.000180,0.005000,0.000055,0.000153,0.000000,0.000000,0.000000,0.000000,-0.000000,-0.000012,0.000002,0.000000,0.000000,0.000000,0.000000,819,819,819,819
8888,0,-0.001091,0.002182,0.000000,0.00,-0.00,-0.000190,0.005000,0.000055,-0.000117,0.000000,0.000000,0.000000,0.000000,-0.000000,0.000000,0.000002,0.000000,0.000000,0.000000,0.000000,819,819,819,819
8898,0,-0.001091,0.002182,0.000000,-0.00,-0.00,-0.000154,0.005000,0.000053,-0.000114,0.000000,0.000000,0.000000,0.000000,-0.000000,-0.000000,0.000002,0.000000,0.000000,0.000000,0.000000,819,819,819,819
8909,0,-0.001091,0.002182,0.000000,-0.00,0.00,-0.000062,0.005000,0.000053,-0.000109,0.000000,0.000000,0.000000,0.000000,-0.000000,-0.000000,0.000000,0.000000,0.000000,0.000000,0.000000,819,819,819,819
8919,0,-0.001091,0.002182,0.000000,-0.00,0.00,0.000015,0.005000,0.000050,-0.000108,0.000000,0.000000,0.000000,0.000000,-0.000000,-0.000000,-0.000000,0.000000,0.000000,0.000000,0.000000,819,819,819,819
8929,0,-0.001091,0.002182,0.000000,0.00,0.00,0.000037,0.005000,0.000055,-0.000099,0.000000,0.000000,0.000000,0.000000,-0.000000,-0.000000,-0.000000,0.000000,0.000000,0.000000,0.000000,819,819,819,819
8939,0,-0.001091,0.002182,0.000000,-0.00,0.00,0.000020,0.005000,0.000053,-0.000100,0.000000,0.000000,0.000000,0.000000,-0.000000,-0.000000,-0.000000,0.000000,0.000000,0.000000,0.000000,819,819,819,819
8954,0,-0.001091,0.001091,0.000000,-0.00,-0.00,0.000037,0.005000,0.000053,-0.000225,0.000000,0.000000,0.000000,0.000000,-0.000000,0.000007,-0.000000,0.000000,0.000000,0.000000,0.000000,819,819,819,819
8967,0,-0.001091,0.001091,0.000000,-0.00,0.00,0.000092,0.005000,0.000050,-0.000045,0.000000,0.000000,0.000000,0.000000,-0.000000,-0.000000,-0.000001,0.000000,0.000000,0.000000,0.000000,819,819,819,819
8978,0,-0.001091,0.001091,0.000000,-0.00,0.00,0.000023,0.005000,0.000052,-0.000046,0.000000,0.000000,0.000000,0.000000,-0.000000,-0.000000,-0.000000,0.000000,0.000000,0.000000,0.000000,819,819,819,819
8989,0,-0.001091,0.001091,0.000000,0.00,0.00,-0.000035,0.005000,0.000055,-0.000043,0.000000,0.000000,0.000000,0.000000,-0.000000,-0.000000,0.000000,0.000000,0.000000,0.000000,0.000000,819,819,819,819
8999,0,-0.001091,0.001091,0.000000,-0.00,0.00,-0.000128,0.005000,0.000053,-0.000045,0.000000,0.000000,0.000000,0.000000,-0.000000,-0.000000,0.000001,0.000000,0.000000,0.000000,0.000000,819,819,819,819
9009,0,-0.001091,0.001091,0.000000,0.00,0.00,-0.000187,0.005000,0.000055,-0.000046,0.000000,0.000000,0.000000,0.000000,-0.000000,-0.000000,0.000002,0.000000,0.000000,0.000000,0.000000,819,819,819,819
9019,0,-0.001091,0.001091,0.000000,-0.00,0.00,-0.000244,0.005000,0.000053,-0.000046,0.000000,0.000000,0.000000,0.000000,-0.000000,-0.000000,0.000003,0.000000,0.000000,0.000000,0.000000,819,819,819,819
9029,0,-0.001091,0.001091,0.000000,-0.00,0.00,-0.000284,0.005000,0.000053,-0.000048,0.000000,0.000000,0.000000,0.000000,-0.000000,-0.000000,0.000003,0.000000,0.000000,0.000000,0.000000,819,819,819,819
9039,0,0.000000,0.001091,0.000000,0.00,0.00,-0.000304,0.005000,0.000436,-0.000054,0.000000,0.000000,0.000000,0.000000,0.000003,-0.000000,0.000003,0.000000,0.000000,0.000000,0.000000,819,819,819,819
9049,0,0.000000,0.001091,0.000000,-0.00,-0.00,-0.000286,0.005000,-0.000001,-0.000055,0.000000,0.000000,0.000000,0.000000,-0.000000,-0.000000,0.000003,0.000000,0.000000,0.000000,0.000000,819,819,819,819
9059,0,0.000000,0.001091,0.000000,-0.00,0.00,-0.000213,0.005000,-0.000001,-0.000054,0.000000,0.000000,0.000000,0.000000,-0.000000,-0.000000,0.000002,0.000000,0.000000,0.000000,0.000000,819,819,819,819
9069,0,0.000000,0.001091,0.000000,0.00,0.00,-0.000101,0.005000,0.000001,-0.000055,0.000000,0.000000,0.000000,0.000000,0.000000,-0.000000,0.000001,0.000000,0.000000,0.000000,0.000000,819,819,819,819
9079,0,0.000000,0.001091,0.000000,-0.00,0.00,0.000085,0.005000,-0.000001,-0.000054,0.000000,0.000000,0.000000,0.000000,-0.000000,-0.000000,-0.000000,0.000000,0.000000,0.000000,0.000000,819,819,819,819
9089,0,0.000000,0.001091,0.000000,-0.00,0.00,0.000167,0.005000,-0.000004,-0.000055,0.000000,0.000000,0.000000,0.000000,-0.000000,-0.000000,-0.000002,0.000000,0.000000,0.000000,0.000000,819,819,819,819
9099,0,0.000000,0.001091,0.000000,0.00,0.00,0.000135,0.005000,0.000000,-0.000055,0.000000,0.000000,0.000000,0.000000,-0.000000,-0.000000,-0.000001,0.000000,0.000000,0.000000,0.000000,819,819,819,819
9109,0,0.000000,0.001091,0.000000,0.00,-0.00,0.000061,0.005000,0.000000,-0.000055,0.000000,0.000000,0.000000,0.000000,-0.000000,-0.000000,-0.000000,0.000000,0.000000,0.000000,0.000000,819,819,819,819
9119,0,0.000000,0.001091,0.000000,0.00,-0.00,0.000021,0.005000,0.000000,-0.000055,0.000000,0.000000,0.000000,0.000000,-0.000000,-0.000000,-0.000000,0.000000,0.000000,0.000000,0.000000,819,819,819,819
9129,0,0.000000,0.001091,0.000000,0.00,-0.00,0.000037,0.005000,0.000001,-0.000055,0.000000,0.000000,0.000000,0.000000,0.000000,-0.000000,-0.000000,0.000000,0.000000,0.000000,0.000000,819,819,819,819
9139,0,0.000000,0.001091,0.000000,0.00,-0.00,0.000074,0.005000,0.000000,-0.000058,0.000000,0.000000,0.000000,0.000000,-0.000000,0.000000,-0.000000,0.000000,0.000000,0.000000,0.000000,819,819,819,819
9149,0,0.000000,0.001091,0.000000,-0.00,-0.00,0.000166,0.005000,-0.000001,-0.000056,0.000000,0.000000,0.000000,0.000000,-0.000000,-0.000000,-0.000002,0.000000,0.000000,0.000000,0.000000,819,819,819,819
9159,0,0.000000,0.001091,0.000000,0.00,-0.00,0.000171,0.005000,0.000001,-0.000055,0.000000,0.000000,0.000000,0.000000,0.000000,-0.000000,-0.000002,0.000000,0.000000,0.000000,0.000000,819,819,819,819
9169,0,0.000000,0.001091,0.000000,-0.00,0.00,0.000189,0.005000,-0.000001,-0.000053,0.000000,0.000000,0.000000,0.000000,-0.000000,-0.000000,-0.000002,0.000000,0.000000,0.000000,0.000000,819,819,819,819
9179,0,0.000000,0.001091,0.000000,0.00,0.00,0.000154,0.005000,0.000001,-0.000054,0.000000,0.000000,0.000000,0.000000,0.000000,-0.000000,-0.000002,0.000000,0.000000,0.000000,0.000000,819,819,819,819
9189,0,0.000000,0.001091,0.000000,-0.00,-0.00,0.000134,0.005000,-0.000001,-0.000055,0.000000,0.000000,0.000000,0.000000,-0.000000,-0.000000,-0.000001,0.000000,0.000000,0.000000,0.000000,819,819,819,819
9201,0,0.000000,0.001091,0.000000,-0.00,-0.00,0.000097,0.005000,-0.000001,-0.000055,0.000000,0.000000,0.000000,0.000000,-0.000000,-0.000000,-0.000001,0.000000,0.000000,0.000000,0.000000,819,819,819,819
9210,0,0.000000,0.001091,0.000000,0.00,-0.00,0.000023,0.005000,0.000001,-0.000055,0.000000,0.000000,0.000000,0.000000,0.000000,-0.000000,-0.000000,0.000000,0.000000,0.000000,0.000000,819,819,819,819
9220,0,0.000000,0.001091,0.000000,0.00,-0.00,0.000037,0.005000,0.000001,-0.000057,0.000000,0.000000,0.000000,0.000000,0.000000,-0.000000,-0.000000,0.000000,0.000000,0.000000,0.000000,819,819,819,819
9229,0,0.000000,0.001091,0.000000,0.00,0.00,0.000020,0.005000,0.000000,-0.000055,0.000000,0.000000,0.000000,0.000000,-0.000000,-0.000000,-0.000000,0.000000,0.000000,0.000000,0.000000,819,819,819,819
9240,0,0.000000,0.001091,0.000000,-0.00,0.00,-0.000017,0.005000,-0.000001,-0.000053,0.000000,0.000000,0.000000,0.000000,-0.000000,-0.000000,0.000000,0.000000,0.000000,0.000000,0.000000,819,819,819,819
9249,0,0.000000,0.001091,0.000000,0.00,0.00,-0.000091,0.005000,0.000000,-0.000054,0.000000,0.000000,0.000000,0.000000,-0.000000,-0.000000,0.000000,0.000000,0.000000,0.000000,0.000000,819,819,819,819
9259,0,0.000000,0.001091,0.000000,0.00,0.00,-0.000041,0.005000,0.000001,-0.000055,0.000000,0.000000,0.000000,0.000000,0.000000,-0.000000,0.000000,0.000000,0.000000,0.000000,0.000000,819,819,819,819
9274,0,0.000000,0.001091,0.000000,0.00,0.00,-0.000038,0.005000,0.000001,-0.000053,0.000000,0.000000,0.000000,0.000000,0.000000,-0.000000,0.000000,0.000000,0.000000,0.000000,0.000000,819,819,819,819
9287,0,0.000000,0.001091,0.000000,0.00,0.00,0.000034,0.005000,0.000001,-0.000053,0.000000,0.000000,0.000000,0.000000,0.000000,-0.000000,-0.000000,0.000000,0.000000,0.000000,0.000000,819,819,819,819
9297,0,0.000000,0.001091,0.000000,0.00,0.00,0.000092,0.005000,0.000000,-0.000054,0.000000,0.000000,0.000000,0.000000,-0.000000,-0.000000,-0.000001,0.000000,0.000000,0.000000,0.000000,819,819,819,819
9308,0,0.000000,0.001091,0.000000,-0.00,0.00,0.000077,0.005000,-0.000001,-0.000055,0.000000,0.000000,0.000000,0.000000,-0.000000,-0.000000,-0.000000,0.000000,0.000000,0.000000,0.000000,819,819,819,819
9319,0,0.000000,0.001091,0.000000,0.00,0.00,0.000076,0.005000,0.000003,-0.000052,0.000000,0.000000,0.000000,0.000000,0.000000,-0.000000,-0.000000,0.000000,0.000000,0.000000,0.000000,819,819,819,819
9330,0,0.000000,0.001091,0.000000,-0.00,0.00,-0.000032,0.005000,-0.000001,-0.000051,0.000000,0.000000,0.000000,0.000000,-0.000000,-0.000000,0.000000,0.000000,0.000000,0.000000,0.000000,819,819,819,819
9340,0,0.000000,0.001091,0.000000,-0.00,0.00,0.000071,0.005000,-0.000001,-0.000052,0.000000,0.000000,0.000000,0.000000,-0.000000,-0.000000,-0.000000,0.000000,0.000000,0.000000,0.000000,819,819,819,819
9350,0,0.000000,0.001091,0.000000,-0.00,0.00,0.000076,0.005000,-0.000001,-0.000054,0.000000,0.000000,0.000000,0.000000,-0.000000,-0.000000,-0.000000,0.000000,0.000000,0.000000,0.000000,819,819,819,819
9360,0,0.000000,0.001091,0.000000,-0.00,-0.00,0.000094,0.005000,-0.000001,-0.000058,0.000000,0.000000,0.000000,0.000000,-0.000000,0.000000,-0.000001,0.000000,0.000000,0.000000,0.000000,819,819,819,819
9370,0,0.000000,0.001091,0.000000,0.00,-0.00,0.000149,0.005000,0.000000,-0.000062,0.000000,0.000000,0.000000,0.000000,-0.000000,0.000000,-0.000002,0.000000,0.000000,0.000000,0.000000,819,819,819,819
9380,0,0.000000,0.001091,0.000000,-0.00,-0.00,0.000243,0.005000,-0.000001,-0.000057,0.000000,0.000000,0.000000,0.000000,-0.000000,-0.000000,-0.000003,0.000000,0.000000,0.000000,0.000000,819,819,819,819
9390,0,0.000000,0.001091,0.000000,0.00,-0.00,0.000229,0.005000,0.000000,-0.000058,0.000000,0.000000,0.000000,0.000000,-0.000000,0.000000,-0.000002,0.000000,0.000000,0.000000,0.000000,819,819,819,819
9400,0,0.000000,0.001091,0.000000,-0.00,-0.00,0.000192,0.005000,-0.000001,-0.000060,0.000000,0.000000,0.000000,0.000000,-0.000000,0.000000,-0.000002,0.000000,0.000000,0.000000,0.000000,819,819,819,819
9410,0,0.000000,0.001091,0.000000,-0.00,-0.00,0.000100,0.005000,-0.000003,-0.000060,0.000000,0.000000,0.000000,0.000000,-0.000000,0.000000,-0.000001,0.000000,0.000000,0.000000,0.000000,819,819,819,819
9420,0,0.000000,0.001091,0.000000,0.00,-0.00,0.000114,0.005000,0.000000,-0.000057,0.000000,0.000000,0.000000,0.000000,-0.000000,-0.000000,-0.000001,0.000000,0.000000,0.000000,0.000000,819,819,819,819
9430,0,0.000000,0.001091,0.000000,0.00,0.00,0.000042,0.005000,0.000000,-0.000055,0.000000,0.000000,0.000000,0.000000,-0.000000,-0.000000,-0.000000,0.000000,0.000000,0.000000,0.000000,819,819,819,819
9440,0,0.000000,0.001091,0.000000,-0.00,0.00,0.000038,0.005000,-0.000001,-0.000054,0.000000,0.000000,0.000000,0.000000,-0.000000,-0.000000,-0.000000,0.000000,0.000000,0.000000,0.000000,819,819,819,819
9450,0,0.000000,0.001091,0.000000,-0.00,0.00,0.000056,0.005000,-0.000001,-0.000053,0.000000,0.000000,0.000000,0.000000,-0.000000,-0.000000,-0.000000,0.000000,0.000000,0.000000,0.000000,819,819,819,819
9460,0,0.000000,0.001091,0.000000,-0.00,0.00,0.000003,0.005000,-0.000004,-0.000052,0.000000,0.000000,0.000000,0.000000,-0.000000,-0.000000,-0.000000,0.000000,0.000000,0.000000,0.000000,819,819,819,819
9470,0,0.000000,0.001091,0.000000,0.00,0.00,-0.000054,0.005000,0.000000,-0.000053,0.000000,0.000000,0.000000,0.000000,-0.000000,-0.000000,0.000000,0.000000,0.000000,0.000000,0.000000,819,819,819,819
9480,0,0.000000,0.001091,0.000000,0.00,0.00,-0.000075,0.005000,0.000001,-0.000052,0.000000,0.000000,0.000000,0.000000,0.000000,-0.000000,0.000000,0.000000,0.000000,0.000000,0.000000,819,819,819,819
9490,0,0.000000,0.001091,0.000000,-0.00,0.00,-0.000094,0.005000,-0.000001,-0.000054,0.000000,0.000000,0.000000,0.000000,-0.000000,-0.000000,0.000001,0.000000,0.000000,0.000000,0.000000,819,819,819,819
9502,0,0.000000,0.001091,0.000000,0.00,-0.00,-0.000023,0.005000,0.000000,-0.000056,0.000000,0.000000,0.000000,0.000000,-0.000000,-0.000000,0.000000,0.000000,0.000000,0.000000,0.000000,819,819,819,819
9511,0,0.000000,0.001091,0.000000,0.00,-0.00,-0.000019,0.005000,0.000001,-0.000059,0.000000,0.000000,0.000000,0.000000,0.000000,0.000000,0.000000,0.000000,0.000000,0.000000,0.000000,819,819,819,819
9520,0,0.000000,0.001091,0.000000,0.00,-0.00,0.000071,0.005000,0.000001,-0.000060,0.000000,0.000000,0.000000,0.000000,0.000000,0.000000,-0.000000,0.000000,0.000000,0.000000,0.000000,819,819,819,819
9530,0,0.000000,0.001091,0.000000,-0.00,-0.00,0.000148,0.005000,-0.000003,-0.000059,0.000000,0.000000,0.000000,0.000000,-0.000000,0.000000,-0.000002,0.000000,0.000000,0.000000,0.000000,819,819,819,819
9540,0,0.000000,0.001091,0.000000,-0.00,-0.00,0.000152,0.005000,-0.000001,-0.000063,0.000000,0.000000,0.000000,0.000000,-0.000000,0.000000,-0.000002,0.000000,0.000000,0.000000,0.000000,819,819,819,819
9550,0,0.000000,0.001091,0.000000,-0.00,-0.00,0.000134,0.005000,-0.000001,-0.000061,0.000000,0.000000,0.000000,0.000000,-0.000000,0.000000,-0.000001,0.000000,0.000000,0.000000,0.000000,819,819,819,819
9560,0,0.000000,0.001091,0.000000,-0.00,-0.00,0.000151,0.005000,-0.000001,-0.000059,0.000000,0.000000,0.000000,0.000000,-0.000000,0.000000,-0.000002,0.000000,0.000000,0.000000,0.000000,819,819,819,819
9570,0,0.000000,0.001091,0.000000,0.00,-0.00,0.000098,0.005000,0.000003,-0.000058,0.000000,0.000000,0.000000,0.000000,0.000000,0.000000,-0.000001,0.000000,0.000000,0.000000,0.000000,819,819,819,819
9585,0,0.000000,0.001091,0.000000,0.00,-0.00,0.000132,0.005000,0.000001,-0.000055,0.000000,0.000000,0.000000,0.000000,0.000000,-0.000000,-0.000001,0.000000,0.000000,0.000000,0.000000,819,819,819,819
9596,0,0.000000,0.001091,0.000000,-0.00,-0.00,0.000097,0.005000,-0.000001,-0.000057,0.000000,0.000000,0.000000,0.000000,-0.000000,-0.000000,-0.000001,0.000000,0.000000,0.000000,0.000000,819,819,819,819
9608,0,0.000000,0.001091,0.000000,-0.00,-0.00,0.000023,0.005000,-0.000001,-0.000055,0.000000,0.000000,0.000000,0.000000,-0.000000,-0.000000,-0.000000,0.000000,0.000000,0.000000,0.000000,819,819,819,819
9619,0,0.000000,0.001091,0.000000,0.00,0.00,0.000055,0.005000,0.000000,-0.000055,0.000000,0.000000,0.000000,0.000000,-0.000000,-0.000000,-0.000000,0.000000,0.000000,0.000000,0.000000,819,819,819,819
9630,0,0.000000,0.001091,0.000000,-0.00,-0.00,0.000129,0.005000,-0.000001,-0.000056,0.000000,0.000000,0.000000,0.000000,-0.000000,-0.000000,-0.000001,0.000000,0.000000,0.000000,0.000000,819,819,819,819
9640,0,0.000000,0.001091,0.000000,-0.00,-0.00,0.000115,0.005000,-0.000003,-0.000058,0.000000,0.000000,0.000000,0.000000,-0.000000,0.000000,-0.000001,0.000000,0.000000,0.000000,0.000000,819,819,819,819
9650,0,0.000000,0.001091,0.000000,0.00,-0.00,0.000060,0.005000,0.000000,-0.000059,0.000000,0.000000,0.000000,0.000000,-0.000000,0.000000,-0.000000,0.000000,0.000000,0.000000,0.000000,819,819,819,819
9660,0,0.000000,0.001091,0.000000,0.00,-0.00,0.000057,0.005000,0.000000,-0.000061,0.000000,0.000000,0.000000,0.000000,-0.000000,0.000000,-0.000000,0.000000,0.000000,0.000000,0.000000,819,819,819,819
9670,0,0.000000,0.001091,0.000000,-0.00,-0.00,0.000039,0.005000,-0.000001,-0.000057,0.000000,0.000000,0.000000,0.000000,-0.000000,-0.000000,-0.000000,0.000000,0.000000,0.000000,0.000000,819,819,819,819
9681,0,0.000000,0.001091,0.000000,-0.00,-0.00,-0.000052,0.005000,-0.000004,-0.000056,0.000000,0.000000,0.000000,0.000000,-0.000000,-0.000000,0.000000,0.000000,0.000000,0.000000,0.000000,819,819,819,819
9691,0,0.000000,0.001091,0.000000,0.00,-0.00,-0.000093,0.005000,0.000001,-0.000056,0.000000,0.000000,0.000000,0.000000,0.000000,-0.000000,0.000000,0.000000,0.000000,0.000000,0.000000,819,819,819,819
9700,0,0.000000,0.001091,0.000000,-0.00,-0.00,-0.000095,0.005000,-0.000001,-0.000055,0.000000,0.000000,0.000000,0.000000,-0.000000,-0.000000,0.000001,0.000000,0.000000,0.000000,0.000000,819,819,819,819
9711,0,0.000000,0.001091,0.000000,0.00,0.00,-0.000041,0.005000,0.000000,-0.000052,0.000000,0.000000,0.000000,0.000000,-0.000000,-0.000000,0.000000,0.000000,0.000000,0.000000,0.000000,819,819,819,819
9720,0,0.000000,0.001091,0.000000,-0.00,0.00,-0.000056,0.005000,-0.000003,-0.000048,0.000000,0.000000,0.000000,0.000000,-0.000000,-0.000000,0.000000,0.000000,0.000000,0.000000,0.000000,819,819,819,819
9730,0,0.000000,0.001091,0.000000,-0.00,0.00,-0.000039,0.005000,-0.000003,-0.000045,0.000000,0.000000,0.000000,0.000000,-0.000000,-0.000000,0.000000,0.000000,0.000000,0.000000,0.000000,819,819,819,819
9741,0,0.000000,0.001091,0.000000,-0.00,0.00,-0.000074,0.005000,-0.000004,-0.000047,0.000000,0.000000,0.000000,0.000000,-0.000000,-0.000000,0.000000,0.000000,0.000000,0.000000,0.000000,819,819,819,819
9751,0,0.000000,0.001091,0.000000,-0.00,0.00,-0.000058,0.005000,-0.000001,-0.000047,0.000000,0.000000,0.000000,0.000000,-0.000000,-0.000000,0.000000,0.000000,0.000000,0.000000,0.000000,819,819,819,819
9761,0,0.000000,0.001091,0.000000,0.00,0.00,-0.000130,0.005000,0.000000,-0.000051,0.000000,0.000000,0.000000,0.000000,-0.000000,-0.000000,0.000001,0.000000,0.000000,0.000000,0.000000,819,819,819,819
9771,0,0.000000,0.001091,0.000000,-0.00,0.00,-0.000133,0.005000,-0.000001,-0.000051,0.000000,0.000000,0.000000,0.000000,-0.000000,-0.000000,0.000001,0.000000,0.000000,0.000000,0.000000,819,819,819,819
9781,0,0.000000,0.001091,0.000000,0.00,0.00,-0.000115,0.005000,0.000003,-0.000054,0.000000,0.000000,0.000000,0.000000,0.000000,-0.000000,0.000001,0.000000,0.000000,0.000000,0.000000,819,819,819,819
9791,0,0.000000,0.001091,0.000000,0.00,0.00,-0.000060,0.005000,0.000001,-0.000054,0.000000,0.000000,0.000000,0.000000,0.000000,-0.000000,0.000000,0.000000,0.000000,0.000000,0.000000,819,819,819,819
9801,0,0.000000,0.001091,0.000000,-0.00,0.00,0.000051,0.005000,-0.000001,-0.000055,0.000000,0.000000,0.000000,0.000000,-0.000000,-0.000000,-0.000000,0.000000,0.000000,0.000000,0.000000,819,819,819,819
9811,0,0.000000,0.001091,0.000000,0.00,-0.00,0.000238,0.005000,0.000000,-0.000059,0.000000,0.000000,0.000000,0.000000,-0.000000,0.000000,-0.000002,0.000000,0.000000,0.000000,0.000000,819,819,819,819
9821,0,-0.001091,0.001091,0.000000,-0.00,-0.00,0.000229,0.005000,-0.000380,-0.000060,0.000000,0.000000,0.000000,0.000000,-0.000003,0.000000,-0.000002,0.000000,0.000000,0.000000,0.000000,819,819,819,819
9831,0,-0.001091,0.001091,0.000000,-0.00,-0.00,0.000247,0.005000,0.000052,-0.000057,0.000000,0.000000,0.000000,0.000000,-0.000000,-0.000000,-0.000002,0.000000,0.000000,0.000000,0.000000,819,819,819,819
9841,0,-0.001091,0.001091,0.000000,-0.00,-0.00,0.000193,0.005000,0.000053,-0.000058,0.000000,0.000000,0.000000,0.000000,-0.000000,0.000000,-0.000002,0.000000,0.000000,0.000000,0.000000,819,819,819,819
9851,0,-0.001091,0.001091,0.000000,-0.00,0.00,0.000136,0.005000,0.000053,-0.000054,0.000000,0.000000,0.000000,0.000000,-0.000000,-0.000000,-0.000001,0.000000,0.000000,0.000000,0.000000,819,819,819,819
9861,0,-0.001091,0.001091,0.000000,0.00,0.00,0.000025,0.005000,0.000056,-0.000051,0.000000,0.000000,0.000000,0.000000,-0.000000,-0.000000,-0.000000,0.000000,0.000000,0.000000,0.000000,819,819,819,819
9871,0,-0.001091,0.001091,0.000000,0.00,0.00,-0.000089,0.005000,0.000056,-0.000053,0.000000,0.000000,0.000000,0.000000,-0.000000,-0.000000,0.000000,0.000000,0.000000,0.000000,0.000000,819,819,819,819
9881,0,-0.001091,0.001091,0.000000,0.00,-0.00,-0.000131,0.005000,0.000055,-0.000057,0.000000,0.000000,0.000000,0.000000,-0.000000,-0.000000,0.000001,0.000000,0.000000,0.000000,0.000000,819,819,819,819
9891,0,-0.001091,0.001091,0.000000,-0.00,-0.00,-0.000097,0.005000,0.000052,-0.000058,0.000000,0.000000,0.000000,0.000000,-0.000000,0.000000,0.000001,0.000000,0.000000,0.000000,0.000000,819,819,819,819
9907,0,-0.001091,0.001091,0.000000,-0.00,0.00,-0.000005,0.005000,0.000052,-0.000053,0.000000,0.000000,0.000000,0.000000,-0.000000,-0.000000,0.000000,0.000000,0.000000,0.000000,0.000000,819,819,819,819
9920,0,-0.001091,0.001091,0.000000,0.00,0.00,0.000108,0.005000,0.000055,-0.000053,0.000000,0.000000,0.000000,0.000000,-0.000000,-0.000000,-0.000001,0.000000,0.000000,0.000000,0.000000,819,819,819,819
9931,0,-0.001091,0.001091,0.000000,-0.00,-0.00,0.000132,0.005000,0.000053,-0.000058,0.000000,0.000000,0.000000,0.000000,-0.000000,0.000000,-0.000001,0.000000,0.000000,0.000000,0.000000,819,819,819,819
9941,0,-0.001091,0.001091,0.000000,-0.00,-0.00,0.000133,0.005000,0.000053,-0.000057,0.000000,0.000000,0.000000,0.000000,-0.000000,-0.000000,-0.000001,0.000000,0.000000,0.000000,0.000000,819,819,819,819
9951,0,-0.001091,0.001091,0.000000,-0.00,-0.00,0.000133,0.005000,0.000053,-0.000057,0.000000,0.000000,0.000000,0.000000,-0.000000,-0.000000,-0.000001,0.000000,0.000000,0.000000,0.000000,819,819,819,819
9961,0,-0.001091,0.001091,0.000000,0.00,-0.00,0.000079,0.005000,0.000055,-0.000060,0.000000,0.000000,0.000000,0.000000,-0.000000,0.000000,-0.000000,0.000000,0.000000,0.000000,0.000000,819,819,819,819
9971,0,-0.001091,0.001091,0.000000,0.00,-0.00,0.000094,0.005000,0.000056,-0.000063,0.000000,0.000000,0.000000,0.000000,-0.000000,0.000000,-0.000000,0.000000,0.000000,0.000000,0.000000,819,819,819,819
9981,0,-0.001091,0.001091,0.000000,0.00,-0.00,0.000131,0.005000,0.000055,-0.000065,0.000000,0.000000,0.000000,0.000000,-0.000000,0.000000,-0.000001,0.000000,0.000000,0.000000,0.000000,819,819,819,819
9991,0,-0.001091,0.001091,0.000000,0.00,-0.00,0.000097,0.005000,0.000055,-0.000062,0.000000,0.000000,0.000000,0.000000,-0.000000,0.000000,-0.000001,0.000000,0.000000,0.000000,0.000000,819,819,819,819
10001,0,-0.001091,0.001091,0.000000,-0.00,-0.00,0.000150,0.005000,0.000050,-0.000060,0.000000,0.000000,0.000000,0.000000,-0.000000,0.000000,-0.000001,0.000000,0.000000,0.000000,0.000000,819,819,819,819
10011,0,-0.001091,0.001091,0.000000,-0.00,0.00,0.000080,0.005000,0.000053,-0.000053,0.000000,0.000000,0.000000,0.000000,-0.000000,-0.000000,-0.000000,0.000000,0.000000,0.000000,0.000000,819,819,819,819
10021,0,-0.001091,0.001091,0.000000,-0.00,0.00,0.000004,0.005000,0.000053,-0.000051,0.000000,0.000000,0.000000,0.000000,-0.000000,-0.000000,-0.000000,0.000000,0.000000,0.000000,0.000000,819,819,819,819
10031,0,-0.001091,0.001091,0.000000,0.00,0.00,-0.000090,0.005000,0.000056,-0.000050,0.000000,0.000000,0.000000,0.000000,-0.000000,-0.000000,0.000000,0.000000,0.000000,0.000000,0.000000,819,819,819,819
10042,0,-0.001091,0.001091,0.000000,0.00,0.00,-0.000095,0.005000,0.000056,-0.000048,0.000000,0.000000,0.000000,0.000000,-0.000000,-0.000000,0.000000,0.000000,0.000000,0.000000,0.000000,819,819,819,819
