t,is_crashed,roll,pitch,yaw,p,q,r,throttle,p_cmd,q_cmd,r_cmd,roll_cmd,pitch_cmd,yaw_cmd,roll_pid_out,pitch_pid_out,yaw_pid_out,motor_fl,motor_bl,motor_fr,motor_br,pwm_fl,pwm_bl,pwm_fr,pwm_br
6954,0,0.026180,0.030543,0.000000,-0.00,0.00,0.000000,0.004000,-0.001310,-0.001527,0.000000,0.000000,0.000000,0.000000,0.000000,-0.000005,0.000000,0.000000,0.000000,0.000000,0.000000,0,0,0,0
6965,0,0.000000,0.000000,0.000000,-0.12,-0.14,0.000018,0.004000,-0.009520,-0.006944,0.000000,0.000000,0.000000,0.000000,-0.000074,0.000392,-0.000000,0.000000,0.000000,0.000000,0.000000,819,819,819,819
6975,0,0.000000,0.000000,0.000000,0.00,-0.00,0.000037,0.004000,0.000000,-0.000000,0.000000,0.000000,0.000000,0.000000,-0.000000,0.000000,-0.000000,0.000000,0.000000,0.000000,0.000000,819,819,819,819
6985,0,0.000000,0.000000,0.000000,0.00,0.00,-0.000016,0.004000,0.000001,0.000000,0.000000,0.000000,0.000000,0.000000,0.000000,0.000000,0.000000,0.000000,0.000000,0.000000,0.000000,819,819,819,819
6995,0,0.000000,0.000000,0.000000,-0.00,0.00,-0.000037,0.004000,-0.000001,0.000000,0.000000,0.000000,0.000000,0.000000,-0.000000,0.000000,0.000000,0.000000,0.000000,0.000000,0.000000,819,819,819,819
7005,0,0.000000,0.000000,0.000000,0.00,0.00,-0.000020,0.004000,0.000001,0.000002,0.000000,0.000000,0.000000,0.000000,0.000000,-0.000000,0.000000,0.000000,0.000000,0.000000,0.000000,819,819,819,819
7015,0,0.000000,0.000000,0.000000,0.00,0.00,-0.000001,0.004000,0.000001,0.000000,0.000000,0.000000,0.000000,0.000000,0.000000,-0.000000,0.000000,0.000000,0.000000,0.000000,0.000000,819,819,819,819
7024,0,0.000000,0.000000,0.000000,0.00,0.00,-0.000018,0.004000,0.000000,0.000003,0.000000,0.000000,0.000000,0.000000,-0.000000,-0.000000,0.000000,0.000000,0.000000,0.000000,0.000000,819,819,819,819
7035,0,0.000000,0.000000,0.000000,0.00,-0.00,-0.000000,0.004000,0.000000,-0.000000,0.000000,0.000000,0.000000,0.000000,-0.000000,0.000000,0.000000,0.000000,0.000000,0.000000,0.000000,819,819,819,819
7045,0,0.000000,0.000000,0.000000,0.00,0.00,0.000018,0.004000,0.000001,0.000000,0.000000,0.000000,0.000000,0.000000,0.000000,0.000000,-0.000000,0.000000,0.000000,0.000000,0.000000,819,819,819,819
7055,0,0.000000,0.000000,0.000000,0.00,-0.00,0.000019,0.004000,0.000001,-0.000002,0.000000,0.000000,0.000000,0.000000,0.000000,0.000000,-0.000000,0.000000,0.000000,0.000000,0.000000,819,819,819,819
7065,0,0.000000,0.000000,0.000000,0.00,-0.00,0.000019,0.004000,0.000001,-0.000002,0.000000,0.000000,0.000000,0.000000,0.000000,0.000000,-0.000000,0.000000,0.000000,0.000000,0.000000,819,819,819,819
7075,0,0.000000,0.000000,0.000000,-0.00,-0.00,0.000019,0.004000,-0.000003,-0.000000,0.000000,0.000000,0.000000,0.000000,-0.000000,0.000000,-0.000000,0.000000,0.000000,0.000000,0.000000,819,819,819,819
7085,0,0.000000,0.000000,0.000000,0.00,0.00,0.000001,0.004000,0.000000,0.000000,0.000000,0.000000,0.000000,0.000000,-0.000000,-0.000000,-0.000000,0.000000,0.000000,0.000000,0.000000,819,819,819,819
7095,0,0.000000,0.000000,0.000000,0.00,0.00,-0.000018,0.004000,0.000000,0.000000,0.000000,0.000000,0.000000,0.000000,-0.000000,-0.000000,0.000000,0.000000,0.000000,0.000000,0.000000,819,819,819,819
7105,0,0.000000,0.000000,0.000000,-0.00,-0.00,-0.000000,0.004000,-0.000001,-0.000000,0.000000,0.000000,0.000000,0.000000,-0.000000,0.000000,0.000000,0.000000,0.000000,0.000000,0.000000,819,819,819,819
7122,0,0.000000,0.000000,0.000000,-0.00,0.00,0.000018,0.004000,-0.000001,0.000000,0.000000,0.000000,0.000000,0.000000,-0.000000,-0.000000,-0.000000,0.000000,0.000000,0.000000,0.000000,819,819,819,819
7133,0,0.000000,0.000000,0.000000,-0.00,-0.00,0.000037,0.004000,-0.000001,-0.000003,0.000000,0.000000,0.000000,0.000000,-0.000000,0.000000,-0.000000,0.000000,0.000000,0.000000,0.000000,819,819,819,819
7145,0,0.000000,0.000000,0.000000,-0.00,0.00,0.000020,0.004000,-0.000001,0.000000,0.000000,0.000000,0.000000,0.000000,-0.000000,-0.000000,-0.000000,0.000000,0.000000,0.000000,0.000000,819,819,819,819
7155,0,0.000000,0.000000,0.000000,0.00,0.00,0.000001,0.004000,0.000003,0.000002,0.000000,0.000000,0.000000,0.000000,0.000000,-0.000000,-0.000000,0.000000,0.000000,0.000000,0.000000,819,819,819,819
7165,0,0.000000,0.000000,0.000000,-0.00,0.00,0.000018,0.004000,-0.000001,0.000000,0.000000,0.000000,0.000000,0.000000,-0.000000,-0.000000,-0.000000,0.000000,0.000000,0.000000,0.000000,819,819,819,819
7175,0,0.000000,0.000000,0.000000,-0.00,-0.00,0.000037,0.004000,-0.000003,-0.000000,0.000000,0.000000,0.000000,0.000000,-0.000000,0.000000,-0.000000,0.000000,0.000000,0.000000,0.000000,819,819,819,819
7185,0,0.000000,0.000000,0.000000,0.00,-0.00,0.000020,0.004000,0.000000,-0.000003,0.000000,0.000000,0.000000,0.000000,-0.000000,0.000000,-0.000000,0.000000,0.000000,0.000000,0.000000,819,819,819,819
7195,0,0.000000,0.000000,0.000000,0.00,0.00,0.000019,0.004000,0.000001,0.000000,0.000000,0.000000,0.000000,0.000000,0.000000,0.000000,-0.000000,0.000000,0.000000,0.000000,0.000000,819,819,819,819
7205,0,0.000000,0.000000,0.000000,0.00,0.00,0.000001,0.004000,0.000001,0.000005,0.000000,0.000000,0.000000,0.000000,0.000000,-0.000000,-0.000000,0.000000,0.000000,0.000000,0.000000,819,819,819,819
7215,0,0.000000,0.000000,0.000000,0.00,0.00,0.000000,0.004000,0.000001,0.000004,0.000000,0.000000,0.000000,0.000000,0.000000,-0.000000,-0.000000,0.000000,0.000000,0.000000,0.000000,819,819,819,819
7225,0,0.000000,0.000000,0.000000,0.00,0.00,0.000018,0.004000,0.000001,0.000003,0.000000,0.000000,0.000000,0.000000,0.000000,-0.000000,-0.000000,0.000000,0.000000,0.000000,0.000000,819,819,819,819
7235,0,0.000000,0.000000,0.000000,0.00,-0.00,0.000019,0.004000,0.000000,-0.000000,0.000000,0.000000,0.000000,0.000000,-0.000000,0.000000,-0.000000,0.000000,0.000000,0.000000,0.000000,819,819,819,819
7245,0,0.000000,0.000000,0.000000,0.00,-0.00,0.000000,0.004000,0.000000,-0.000000,0.000000,0.000000,0.000000,0.000000,-0.000000,0.000000,-0.000000,0.000000,0.000000,0.000000,0.000000,819,819,819,819
7255,0,0.000000,0.000000,0.000000,-0.00,0.00,0.000018,0.004000,-0.000001,0.000004,0.000000,0.000000,0.000000,0.000000,-0.000000,-0.000000,-0.000000,0.000000,0.000000,0.000000,0.000000,819,819,819,819
7265,0,0.000000,0.000000,0.000000,0.00,0.00,-0.000090,0.004000,0.000000,0.000005,0.000000,0.000000,0.000000,0.000000,-0.000000,-0.000000,0.000001,0.000000,0.000000,0.000000,0.000000,819,819,819,819
7275,0,0.000000,0.000000,0.000000,0.00,0.00,-0.000041,0.004000,0.000001,0.000000,0.000000,0.000000,0.000000,0.000000,0.000000,-0.000000,0.000000,0.000000,0.000000,0.000000,0.000000,819,819,819,819
7285,0,0.000000,0.000000,0.000000,-0.00,0.00,0.000106,0.004000,-0.000003,0.000005,0.000000,0.000000,0.000000,0.000000,-0.000000,-0.000000,-0.000001,0.000000,0.000000,0.000000,0.000000,819,819,819,819
7295,0,0.000000,0.000000,0.000000,-0.00,0.00,0.000041,0.004000,-0.000001,0.000002,0.000000,0.000000,0.000000,0.000000,-0.000000,-0.000000,-0.000000,0.000000,0.000000,0.000000,0.000000,819,819,819,819
7305,0,0.000000,0.000000,0.000000,0.00,0.00,0.000038,0.004000,0.000000,0.000000,0.000000,0.000000,0.000000,0.000000,-0.000000,0.000000,-0.000000,0.000000,0.000000,0.000000,0.000000,819,819,819,819
7315,0,0.000000,0.000000,0.000000,-0.00,0.00,-0.000016,0.004000,-0.000003,0.000000,0.000000,0.000000,0.000000,0.000000,-0.000000,0.000000,0.000000,0.000000,0.000000,0.000000,0.000000,819,819,819,819
7325,0,0.000000,0.000000,0.000000,-0.00,-0.00,-0.000000,0.004000,-0.000001,-0.000000,0.000000,0.000000,0.000000,0.000000,-0.000000,0.000000,0.000000,0.000000,0.000000,0.000000,0.000000,819,819,819,819
7336,0,0.000000,0.000000,0.000000,0.00,0.00,0.000018,0.004000,0.000000,0.000000,0.000000,0.000000,0.000000,0.000000,-0.000000,-0.000000,-0.000000,0.000000,0.000000,0.000000,0.000000,819,819,819,819
7345,0,0.000000,0.000000,0.000000,-0.00,0.00,-0.000017,0.004000,-0.000004,0.000002,0.000000,0.000000,0.000000,0.000000,-0.000000,-0.000000,0.000000,0.000000,0.000000,0.000000,0.000000,819,819,819,819
7355,0,0.000000,0.000000,0.000000,0.00,0.00,0.000071,0.004000,0.000000,0.000000,0.000000,0.000000,0.000000,0.000000,-0.000000,0.000000,-0.000000,0.000000,0.000000,0.000000,0.000000,819,819,819,819
7365,0,0.000000,0.000000,0.000000,0.00,0.00,-0.000033,0.004000,0.000001,0.000000,0.000000,0.000000,0.000000,0.000000,0.000000,-0.000000,0.000000,0.000000,0.000000,0.000000,0.000000,819,819,819,819
7376,0,0.000000,0.000000,0.000000,0.00,0.00,-0.000002,0.004000,0.000000,0.000000,0.000000,0.000000,0.000000,0.000000,-0.000000,-0.000000,0.000000,0.000000,0.000000,0.000000,0.000000,819,819,819,819
7386,0,0.000000,0.000000,0.000000,-0.00,-0.00,-0.000018,0.004000,-0.000001,-0.000004,0.000000,0.000000,0.000000,0.000000,-0.000000,0.000000,0.000000,0.000000,0.000000,0.000000,0.000000,819,819,819,819
7395,0,0.000000,0.000000,0.000000,-0.00,0.00,-0.000146,0.004000,-0.000001,0.000000,0.000000,0.000000,0.000000,0.000000,-0.000000,-0.000000,0.000002,0.000000,0.000000,0.000000,0.000000,819,819,819,819
7405,0,0.000000,0.000000,0.000000,0.00,0.00,0.000029,0.004000,0.000000,0.000002,0.000000,0.000000,0.000000,0.000000,-0.000000,-0.000000,-0.000000,0.000000,0.000000,0.000000,0.000000,819,819,819,819
7416,0,0.000000,0.000000,0.000000,0.00,0.00,0.000038,0.004000,0.000001,0.000005,0.000000,0.000000,0.000000,0.000000,0.000000,-0.000000,-0.000000,0.000000,0.000000,0.000000,0.000000,819,819,819,819
7426,0,0.000000,0.000000,0.000000,0.00,0.00,0.000038,0.004000,0.000000,0.000000,0.000000,0.000000,0.000000,0.000000,-0.000000,-0.000000,-0.000000,0.000000,0.000000,0.000000,0.000000,819,819,819,819
7441,0,0.000000,0.000000,0.000000,0.00,-0.00,0.000020,0.004000,0.000001,-0.000002,0.000000,0.000000,0.000000,0.000000,0.000000,0.000000,-0.000000,0.000000,0.000000,0.000000,0.000000,819,819,819,819
7452,0,0.000000,0.000000,0.000000,-0.00,-0.00,-0.000071,0.004000,-0.000001,-0.000002,0.000000,0.000000,0.000000,0.000000,-0.000000,0.000000,0.000000,0.000000,0.000000,0.000000,0.000000,819,819,819,819
7465,0,0.000000,0.000000,0.000000,-0.00,-0.00,-0.000076,0.004000,-0.000001,-0.000002,0.000000,0.000000,0.000000,0.000000,-0.000000,0.000000,0.000000,0.000000,0.000000,0.000000,0.000000,819,819,819,819
7475,0,0.000000,0.000000,0.000000,-0.00,0.00,0.000105,0.004000,-0.000003,0.000000,0.000000,0.000000,0.000000,0.000000,-0.000000,0.000000,-0.000001,0.000000,0.000000,0.000000,0.000000,819,819,819,819
7486,0,0.000000,0.000000,0.000000,0.00,-0.00,0.000078,0.004000,0.000003,-0.000002,0.000000,0.000000,0.000000,0.000000,0.000000,0.000000,-0.000000,0.000000,0.000000,0.000000,0.000000,819,819,819,819
7496,0,0.000000,0.000000,0.000000,0.00,0.00,0.000004,0.004000,0.000000,0.000004,0.000000,0.000000,0.000000,0.000000,-0.000000,-0.000000,-0.000000,0.000000,0.000000,0.000000,0.000000,819,819,819,819
7506,0,0.000000,0.000000,0.000000,0.00,0.00,0.000054,0.004000,0.000000,0.000002,0.000000,0.000000,0.000000,0.000000,-0.000000,-0.000000,-0.000000,0.000000,0.000000,0.000000,0.000000,819,819,819,819
7516,0,0.000000,0.000000,0.000000,0.00,0.00,-0.000033,0.004000,0.000000,0.000003,0.000000,0.000000,0.000000,0.000000,-0.000000,-0.000000,0.000000,0.000000,0.000000,0.000000,0.000000,819,819,819,819
7526,0,0.000000,0.000000,0.000000,-0.00,0.00,-0.000020,0.004000,-0.000001,0.000003,0.000000,0.000000,0.000000,0.000000,-0.000000,-0.000000,0.000000,0.000000,0.000000,0.000000,0.000000,819,819,819,819
7536,0,0.000000,0.000000,0.000000,-0.00,0.00,-0.000073,0.004000,-0.000001,0.000003,0.000000,0.000000,0.000000,0.000000,-0.000000,-0.000000,0.000000,0.000000,0.000000,0.000000,0.000000,819,819,819,819
7546,0,0.000000,0.000000,0.000000,0.00,0.00,-0.000040,0.004000,0.000001,0.000002,0.000000,0.000000,0.000000,0.000000,0.000000,-0.000000,0.000000,0.000000,0.000000,0.000000,0.000000,819,819,819,819
7556,0,0.000000,0.000000,0.000000,0.00,-0.00,-0.000020,0.004000,0.000000,-0.000003,0.000000,0.000000,0.000000,0.000000,-0.000000,0.000000,0.000000,0.000000,0.000000,0.000000,0.000000,819,819,819,819
7566,0,0.000000,0.000000,0.000000,0.00,0.00,0.000053,0.004000,0.000000,0.000002,0.000000,0.000000,0.000000,0.000000,-0.000000,-0.000000,-0.000000,0.000000,0.000000,0.000000,0.000000,819,819,819,819
7576,0,0.000000,0.000000,0.000000,0.00,0.00,0.000021,0.004000,0.000003,0.000003,0.000000,0.000000,0.000000,0.000000,0.000000,-0.000000,-0.000000,0.000000,0.000000,0.000000,0.000000,819,819,819,819
7586,0,0.000000,0.000000,0.000000,0.00,0.00,0.000019,0.004000,0.000000,0.000000,0.000000,0.000000,0.000000,0.000000,-0.000000,0.000000,-0.000000,0.000000,0.000000,0.000000,0.000000,819,819,819,819
7596,0,0.000000,0.000000,0.000000,0.00,0.00,-0.000035,0.004000,0.000004,0.000000,0.000000,0.000000,0.000000,0.000000,0.000000,0.000000,0.000000,0.000000,0.000000,0.000000,0.000000,819,819,819,819
7606,0,0.000000,0.000000,0.000000,-0.00,0.00,-0.000092,0.004000,-0.000001,0.000000,0.000000,0.000000,0.000000,0.000000,-0.000000,0.000000,0.000001,0.000000,0.000000,0.000000,0.000000,819,819,819,819
7616,0,0.000000,0.000000,0.000000,-0.00,0.00,-0.000113,0.004000,-0.000004,0.000000,0.000000,0.000000,0.000000,0.000000,-0.000000,0.000000,0.000001,0.000000,0.000000,0.000000,0.000000,819,819,819,819
7626,0,0.000000,0.000000,0.000000,-0.00,0.00,-0.000078,0.004000,-0.000001,0.000000,0.000000,0.000000,0.000000,0.000000,-0.000000,-0.000000,0.000000,0.000000,0.000000,0.000000,0.000000,819,819,819,819
7636,0,0.000000,0.000000,0.000000,-0.00,0.00,-0.000022,0.004000,-0.000001,0.000003,0.000000,0.000000,0.000000,0.000000,-0.000000,-0.000000,0.000000,0.000000,0.000000,0.000000,0.000000,819,819,819,819
7648,0,0.000000,0.000000,0.000000,0.00,0.00,0.000035,0.004000,0.000003,0.000000,0.000000,0.000000,0.000000,0.000000,0.000000,-0.000000,-0.000000,0.000000,0.000000,0.000000,0.000000,819,819,819,819
7657,0,0.000000,0.000000,0.000000,-0.00,-0.00,0.000056,0.004000,-0.000001,-0.000000,0.000000,0.000000,0.000000,0.000000,-0.000000,0.000000,-0.000000,0.000000,0.000000,0.000000,0.000000,819,819,819,819
7667,0,0.000000,0.000000,0.000000,-0.00,-0.00,0.000075,0.004000,-0.000001,-0.000000,0.000000,0.000000,0.000000,0.000000,-0.000000,0.000000,-0.000000,0.000000,0.000000,0.000000,0.000000,819,819,819,819
7676,0,0.000000,0.000000,0.000000,0.00,-0.00,0.000076,0.004000,0.000000,-0.000000,0.000000,0.000000,0.000000,0.000000,-0.000000,0.000000,-0.000000,0.000000,0.000000,0.000000,0.000000,819,819,819,819
7687,0,0.000000,0.000000,0.000000,0.00,-0.00,0.000094,0.004000,0.000001,-0.000000,0.000000,0.000000,0.000000,0.000000,0.000000,0.000000,-0.000001,0.000000,0.000000,0.000000,0.000000,819,819,819,819
7696,0,0.000000,0.000000,0.000000,-0.00,0.00,0.000059,0.004000,-0.000001,0.000002,0.000000,0.000000,0.000000,0.000000,-0.000000,-0.000000,-0.000000,0.000000,0.000000,0.000000,0.000000,819,819,819,819
7706,0,0.000000,0.000000,0.000000,0.00,0.00,-0.000069,0.004000,0.000001,0.000002,0.000000,0.000000,0.000000,0.000000,0.000000,-0.000000,0.000000,0.000000,0.000000,0.000000,0.000000,819,819,819,819
7716,0,0.000000,0.000000,0.000000,-0.00,0.00,0.000069,0.004000,-0.000003,0.000000,0.000000,0.000000,0.000000,0.000000,-0.000000,-0.000000,-0.000000,0.000000,0.000000,0.000000,0.000000,819,819,819,819
7726,0,0.000000,0.000000,0.000000,-0.00,-0.00,0.000022,0.004000,-0.000003,-0.000000,0.000000,0.000000,0.000000,0.000000,-0.000000,0.000000,-0.000000,0.000000,0.000000,0.000000,0.000000,819,819,819,819
7737,0,0.000000,0.000000,0.000000,0.00,-0.00,0.000055,0.004000,0.000003,-0.000002,0.000000,0.000000,0.000000,0.000000,0.000000,0.000000,-0.000000,0.000000,0.000000,0.000000,0.000000,819,819,819,819
7747,0,0.000000,0.000000,0.000000,-0.00,-0.00,-0.000015,0.004000,-0.000003,-0.000003,0.000000,0.000000,0.000000,0.000000,-0.000000,0.000000,0.000000,0.000000,0.000000,0.000000,0.000000,819,819,819,819
7764,0,0.000000,0.000000,0.000000,0.00,-0.00,0.000035,0.004000,0.000000,-0.000000,0.000000,0.000000,0.000000,0.000000,-0.000000,0.000000,-0.000000,0.000000,0.000000,0.000000,0.000000,819,819,819,819
7775,0,0.000000,0.000000,0.000000,0.00,0.00,0.000020,0.004000,0.000001,0.000000,0.000000,0.000000,0.000000,0.000000,0.000000,0.000000,-0.000000,0.000000,0.000000,0.000000,0.000000,819,819,819,819
7786,0,0.000000,0.000000,0.000000,-0.00,0.00,-0.000017,0.004000,-0.000001,0.000003,0.000000,0.000000,0.000000,0.000000,-0.000000,-0.000000,0.000000,0.000000,0.000000,0.000000,0.000000,819,819,819,819
7797,0,0.000000,0.000000,0.000000,0.00,-0.00,0.000017,0.004000,0.000001,-0.000000,0.000000,0.000000,0.000000,0.000000,0.000000,0.000000,-0.000000,0.000000,0.000000,0.000000,0.000000,819,819,819,819
7809,0,0.000000,0.000000,0.000000,0.00,0.00,0.000000,0.004000,0.000001,0.000000,0.000000,0.000000,0.000000,0.000000,0.000000,0.000000,-0.000000,0.000000,0.000000,0.000000,0.000000,819,819,819,819
7818,0,0.000000,0.000000,0.000000,0.00,-0.00,0.000000,0.004000,0.000000,-0.000004,0.000000,0.000000,0.000000,0.000000,-0.000000,0.000000,-0.000000,0.000000,0.000000,0.000000,0.000000,819,819,819,819
7827,0,0.000000,0.000000,0.000000,0.00,-0.00,0.000000,0.004000,0.000000,-0.000003,0.000000,0.000000,0.000000,0.000000,-0.000000,0.000000,-0.000000,0.000000,0.000000,0.000000,0.000000,819,819,819,819
7837,0,0.000000,0.000000,0.000000,0.00,-0.00,0.000000,0.004000,0.000001,-0.000000,0.000000,0.000000,0.000000,0.000000,0.000000,0.000000,-0.000000,0.000000,0.000000,0.000000,0.000000,819,819,819,819
7847,0,0.000000,0.000000,0.000000,-0.00,0.00,-0.000054,0.004000,-0.000001,0.000004,0.000000,0.000000,0.000000,0.000000,-0.000000,-0.000000,0.000000,0.000000,0.000000,0.000000,0.000000,819,819,819,819
7857,0,0.000000,0.000000,0.000000,0.00,0.00,-0.000021,0.004000,0.000001,0.000005,0.000000,0.000000,0.000000,0.000000,0.000000,-0.000000,0.000000,0.000000,0.000000,0.000000,0.000000,819,819,819,819
7867,0,0.000000,0.000000,0.000000,0.00,0.00,-0.000019,0.004000,0.000003,0.000000,0.000000,0.000000,0.000000,0.000000,0.000000,0.000000,0.000000,0.000000,0.000000,0.000000,0.000000,819,819,819,819
7877,0,0.000000,0.000000,0.000000,0.00,-0.00,0.000017,0.004000,0.000001,-0.000002,0.000000,0.000000,0.000000,0.000000,0.000000,0.000000,-0.000000,0.000000,0.000000,0.000000,0.000000,819,819,819,819
7887,0,0.000000,0.000000,0.000000,0.00,-0.00,0.000019,0.004000,0.000000,-0.000002,0.000000,0.000000,0.000000,0.000000,-0.000000,0.000000,-0.000000,0.000000,0.000000,0.000000,0.000000,819,819,819,819
7897,0,0.000000,0.000000,0.000000,-0.00,-0.00,0.000019,0.004000,-0.000001,-0.000000,0.000000,0.000000,0.000000,0.000000,-0.000000,0.000000,-0.000000,0.000000,0.000000,0.000000,0.000000,819,819,819,819
7907,0,0.000000,0.000000,0.000000,0.00,0.00,-0.000053,0.004000,0.000001,0.000000,0.000000,0.000000,0.000000,0.000000,0.000000,-0.000000,0.000000,0.000000,0.000000,0.000000,0.000000,819,819,819,819
7917,0,0.000000,0.000000,0.000000,-0.00,0.00,0.000015,0.004000,-0.000001,0.000000,0.000000,0.000000,0.000000,0.000000,-0.000000,-0.000000,-0.000000,0.000000,0.000000,0.000000,0.000000,819,819,819,819
7927,0,0.000000,0.000000,0.000000,-0.00,-0.00,0.000037,0.004000,-0.000001,-0.000003,0.000000,0.000000,0.000000,0.000000,-0.000000,0.000000,-0.000000,0.000000,0.000000,0.000000,0.000000,819,819,819,819
7937,0,0.000000,0.000000,0.000000,0.00,-0.00,0.000038,0.004000,0.000000,-0.000005,0.000000,0.000000,0.000000,0.000000,-0.000000,0.000000,-0.000000,0.000000,0.000000,0.000000,0.000000,819,819,819,819
7947,0,0.000000,0.000000,0.000000,-0.00,-0.00,0.000002,0.004000,-0.000001,-0.000003,0.000000,0.000000,0.000000,0.000000,-0.000000,0.000000,-0.000000,0.000000,0.000000,0.000000,0.000000,819,819,819,819
7957,0,0.000000,0.000000,0.000000,0.00,0.00,0.000018,0.004000,0.000000,0.000000,0.000000,0.000000,0.000000,0.000000,-0.000000,-0.000000,-0.000000,0.000000,0.000000,0.000000,0.000000,819,819,819,819
7967,0,0.000000,0.000000,0.000000,-0.00,0.00,-0.000035,0.004000,-0.000001,0.000002,0.000000,0.000000,0.000000,0.000000,-0.000000,-0.000000,0.000000,0.000000,0.000000,0.000000,0.000000,819,819,819,819
7977,0,0.000000,0.000000,0.000000,-0.00,0.00,-0.000020,0.004000,-0.000001,0.000000,0.000000,0.000000,0.000000,0.000000,-0.000000,-0.000000,0.000000,0.000000,0.000000,0.000000,0.000000,819,819,819,819
7987,0,0.000000,0.000000,0.000000,-0.00,-0.00,-0.000001,0.004000,-0.000003,-0.000002,0.000000,0.000000,0.000000,0.000000,-0.000000,0.000000,0.000000,0.000000,0.000000,0.000000,0.000000,819,819,819,819
7997,0,0.000000,0.000000,0.000000,-0.00,-0.00,-0.000018,0.004000,-0.000004,-0.000002,0.000000,0.000000,0.000000,0.000000,-0.000000,0.000000,0.000000,0.000000,0.000000,0.000000,0.000000,819,819,819,819
8007,0,0.000000,0.000000,0.000000,-0.00,-0.00,0.000017,0.004000,-0.000001,-0.000004,0.000000,0.000000,0.000000,0.000000,-0.000000,0.000000,-0.000000,0.000000,0.000000,0.000000,0.000000,819,819,819,819
8017,0,0.000000,0.000000,0.000000,0.00,-0.00,0.000019,0.004000,0.000000,-0.000003,0.000000,0.000000,0.000000,0.000000,-0.000000,0.000000,-0.000000,0.000000,0.000000,0.000000,0.000000,819,819,819,819
8027,0,0.000000,0.000000,0.000000,-0.00,-0.00,0.000037,0.004000,-0.000001,-0.000000,0.000000,0.000000,0.000000,0.000000,-0.000000,0.000000,-0.000000,0.000000,0.000000,0.000000,0.000000,819,819,819,819
8037,0,0.000000,0.000000,0.000000,-0.00,0.00,0.000002,0.004000,-0.000001,0.000002,0.000000,0.000000,0.000000,0.000000,-0.000000,-0.000000,-0.000000,0.000000,0.000000,0.000000,0.000000,819,819,819,819
8047,0,0.000000,0.000000,0.000000,0.00,0.00,-0.000018,0.004000,0.000001,0.000002,0.000000,0.000000,0.000000,0.000000,0.000000,-0.000000,0.000000,0.000000,0.000000,0.000000,0.000000,819,819,819,819
8057,0,0.000000,0.000000,0.000000,0.00,0.00,-0.000019,0.004000,0.000000,0.000002,0.000000,0.000000,0.000000,0.000000,-0.000000,-0.000000,0.000000,0.000000,0.000000,0.000000,0.000000,819,819,819,819
8074,0,0.000000,0.000000,0.000000,0.00,-0.00,-0.000000,0.004000,0.000000,-0.000002,0.000000,0.000000,0.000000,0.000000,-0.000000,0.000000,0.000000,0.000000,0.000000,0.000000,0.000000,819,819,819,819
8086,0,0.000000,0.000000,0.000000,-0.00,-0.00,-0.000000,0.004000,-0.000001,-0.000005,0.000000,0.000000,0.000000,0.000000,-0.000000,0.000000,0.000000,0.000000,0.000000,0.000000,0.000000,819,819,819,819
8098,0,0.000000,0.000000,0.000000,0.00,-0.00,-0.000000,0.004000,0.000001,-0.000000,0.000000,0.000000,0.000000,0.000000,0.000000,0.000000,0.000000,0.000000,0.000000,0.000000,0.000000,819,819,819,819
8108,0,0.000000,0.000000,0.000000,-0.00,0.00,0.000036,0.004000,-0.000006,0.000000,0.000000,0.000000,0.000000,0.000000,-0.000000,-0.000000,-0.000000,0.000000,0.000000,0.000000,0.000000,819,819,819,819
8117,0,0.000000,0.000000,0.000000,-0.00,0.00,0.000038,0.004000,-0.000003,0.000000,0.000000,0.000000,0.000000,0.000000,-0.000000,0.000000,-0.000000,0.000000,0.000000,0.000000,0.000000,819,819,819,819
8127,0,0.000000,0.000000,0.000000,0.00,0.00,0.000056,0.004000,0.000000,0.000000,0.000000,0.000000,0.000000,0.000000,-0.000000,0.000000,-0.000000,0.000000,0.000000,0.000000,0.000000,819,819,819,819
8138,0,0.000000,0.000000,0.000000,-0.00,-0.00,-0.000033,0.004000,-0.000003,-0.000003,0.000000,0.000000,0.000000,0.000000,-0.000000,0.000000,0.000000,0.000000,0.000000,0.000000,0.000000,819,819,819,819
8148,0,0.000000,0.000000,0.000000,-0.00,-0.00,-0.000020,0.004000,-0.000001,-0.000000,0.000000,0.000000,0.000000,0.000000,-0.000000,0.000000,0.000000,0.000000,0.000000,0.000000,0.000000,819,819,819,819
8158,0,0.000000,0.000000,0.000000,0.00,-0.00,-0.000001,0.004000,0.000000,-0.000004,0.000000,0.000000,0.000000,0.000000,-0.000000,0.000000,0.000000,0.000000,0.000000,0.000000,0.000000,819,819,819,819
8168,0,0.000000,0.000000,0.000000,-0.00,-0.00,-0.000036,0.004000,-0.000001,-0.000002,0.000000,0.000000,0.000000,0.000000,-0.000000,0.000000,0.000000,0.000000,0.000000,0.000000,0.000000,819,819,819,819
8178,0,0.000000,0.000000,0.000000,0.00,-0.00,0.000016,0.004000,0.000000,-0.000002,0.000000,0.000000,0.000000,0.000000,-0.000000,0.000000,-0.000000,0.000000,0.000000,0.000000,0.000000,819,819,819,819
8188,0,0.000000,0.000000,0.000000,-0.00,-0.00,0.000055,0.004000,-0.000001,-0.000005,0.000000,0.000000,0.000000,0.000000,-0.000000,0.000000,-0.000000,0.000000,0.000000,0.000000,0.000000,819,819,819,819
8198,0,0.000000,0.000000,0.000000,0.00,0.00,0.000003,0.004000,0.000001,0.000000,0.000000,0.000000,0.000000,0.000000,0.000000,-0.000000,-0.000000,0.000000,0.000000,0.000000,0.000000,819,819,819,819
8208,0,0.000000,0.000000,0.000000,0.00,0.00,0.000018,0.004000,0.000003,0.000002,0.000000,0.000000,0.000000,0.000000,0.000000,-0.000000,-0.000000,0.000000,0.000000,0.000000,0.000000,819,819,819,819
8218,0,0.000000,0.000000,0.000000,0.00,0.00,-0.000017,0.004000,0.000004,0.000002,0.000000,0.000000,0.000000,0.000000,0.000000,-0.000000,0.000000,0.000000,0.000000,0.000000,0.000000,819,819,819,819
8228,0,0.000000,0.000000,0.000000,0.00,0.00,0.000035,0.004000,0.000003,0.000003,0.000000,0.000000,0.000000,0.000000,0.000000,-0.000000,-0.000000,0.000000,0.000000,0.000000,0.000000,819,819,819,819
8238,0,0.000000,0.000000,0.000000,0.00,0.00,0.000002,0.004000,0.000004,0.000004,0.000000,0.000000,0.000000,0.000000,0.000000,-0.000000,-0.000000,0.000000,0.000000,0.000000,0.000000,819,819,819,819
8248,0,0.000000,0.000000,0.000000,0.00,0.00,0.000018,0.004000,0.000000,0.000003,0.000000,0.000000,0.000000,0.000000,-0.000000,-0.000000,-0.000000,0.000000,0.000000,0.000000,0.000000,819,819,819,819
8258,0,0.000000,0.000000,0.000000,0.00,-0.00,0.000019,0.004000,0.000003,-0.000000,0.000000,0.000000,0.000000,0.000000,0.000000,0.000000,-0.000000,0.000000,0.000000,0.000000,0.000000,819,819,819,819
8268,0,0.000000,0.000000,0.000000,-0.00,0.00,0.000019,0.004000,-0.000001,0.000000,0.000000,0.000000,0.000000,0.000000,-0.000000,-0.000000,-0.000000,0.000000,0.000000,0.000000,0.000000,819,819,819,819
8278,0,0.000000,0.000000,0.000000,-0.00,-0.00,-0.000017,0.004000,-0.000001,-0.000000,0.000000,0.000000,0.000000,0.000000,-0.000000,0.000000,0.000000,0.000000,0.000000,0.000000,0.000000,819,819,819,819
8288,0,0.000000,0.000000,0.000000,-0.00,-0.00,-0.000000,0.004000,-0.000001,-0.000002,0.000000,0.000000,0.000000,0.000000,-0.000000,0.000000,0.000000,0.000000,0.000000,0.000000,0.000000,819,819,819,819
8298,0,0.000000,0.000000,0.000000,0.00,0.00,-0.000018,0.004000,0.000000,0.000000,0.000000,0.000000,0.000000,0.000000,-0.000000,0.000000,0.000000,0.000000,0.000000,0.000000,0.000000,819,819,819,819
8308,0,0.000000,0.000000,0.000000,0.00,-0.00,-0.000019,0.004000,0.000000,-0.000002,0.000000,0.000000,0.000000,0.000000,-0.000000,0.000000,0.000000,0.000000,0.000000,0.000000,0.000000,819,819,819,819
8318,0,0.000000,0.000000,0.000000,0.00,-0.00,0.000017,0.004000,0.000001,-0.000003,0.000000,0.000000,0.000000,0.000000,0.000000,0.000000,-0.000000,0.000000,0.000000,0.000000,0.000000,819,819,819,819
8328,0,0.000000,0.000000,0.000000,0.00,-0.00,0.000019,0.004000,0.000000,-0.000003,0.000000,0.000000,0.000000,0.000000,-0.000000,0.000000,-0.000000,0.000000,0.000000,0.000000,0.000000,819,819,819,819
8338,0,0.000000,0.000000,0.000000,-0.00,-0.00,0.000073,0.004000,-0.000001,-0.000002,0.000000,0.000000,0.000000,0.000000,-0.000000,0.000000,-0.000000,0.000000,0.000000,0.000000,0.000000,819,819,819,819
8348,0,0.000000,0.000000,0.000000,-0.00,0.00,0.000094,0.004000,-0.000001,0.000000,0.000000,0.000000,0.000000,0.000000,-0.000000,0.000000,-0.000001,0.000000,0.000000,0.000000,0.000000,819,819,819,819
8358,0,0.000000,0.000000,0.000000,0.00,-0.00,0.000041,0.004000,0.000001,-0.000002,0.000000,0.000000,0.000000,0.000000,0.000000,0.000000,-0.000000,0.000000,0.000000,0.000000,0.000000,819,819,819,819
8368,0,0.000000,0.000000,0.000000,-0.00,-0.00,0.000002,0.004000,-0.000001,-0.000002,0.000000,0.000000,0.000000,0.000000,-0.000000,0.000000,-0.000000,0.000000,0.000000,0.000000,0.000000,819,819,819,819
8378,0,0.000000,0.000000,0.000000,0.00,0.00,-0.000018,0.004000,0.000004,0.000002,0.000000,0.000000,0.000000,0.000000,0.000000,-0.000000,0.000000,0.000000,0.000000,0.000000,0.000000,819,819,819,819
8393,0,0.000000,0.000000,0.000000,0.00,-0.00,-0.000037,0.004000,0.000000,-0.000002,0.000000,0.000000,0.000000,0.000000,-0.000000,0.000000,0.000000,0.000000,0.000000,0.000000,0.000000,819,819,819,819
8404,0,0.000000,0.000000,0.000000,0.00,0.00,-0.000074,0.004000,0.000003,0.000002,0.000000,0.000000,0.000000,0.000000,0.000000,-0.000000,0.000000,0.000000,0.000000,0.000000,0.000000,819,819,819,819
8415,0,0.000000,0.000000,0.000000,0.00,0.00,-0.000004,0.004000,0.000001,0.000000,0.000000,0.000000,0.000000,0.000000,0.000000,-0.000000,0.000000,0.000000,0.000000,0.000000,0.000000,819,819,819,819
8428,0,0.000000,0.000000,0.000000,0.00,-0.00,0.000108,0.004000,0.000001,-0.000002,0.000000,0.000000,0.000000,0.000000,0.000000,0.000000,-0.000001,0.000000,0.000000,0.000000,0.000000,819,819,819,819
8438,0,0.000000,0.000000,0.000000,0.00,0.00,0.000060,0.004000,0.000003,0.000000,0.000000,0.000000,0.000000,0.000000,0.000000,0.000000,-0.000000,0.000000,0.000000,0.000000,0.000000,819,819,819,819
8448,0,0.000000,0.000000,0.000000,0.00,0.00,0.000039,0.004000,0.000003,0.000002,0.000000,0.000000,0.000000,0.000000,0.000000,-0.000000,-0.000000,0.000000,0.000000,0.000000,0.000000,819,819,819,819
8458,0,0.000000,0.000000,0.000000,0.00,0.00,0.000020,0.004000,0.000000,0.000000,0.000000,0.000000,0.000000,0.000000,-0.000000,0.000000,-0.000000,0.000000,0.000000,0.000000,0.000000,819,819,819,819
8468,0,0.000000,0.000000,0.000000,0.00,0.00,0.000001,0.004000,0.000003,0.000000,0.000000,0.000000,0.000000,0.000000,0.000000,0.000000,-0.000000,0.000000,0.000000,0.000000,0.000000,819,819,819,819
8478,0,0.000000,0.000000,0.000000,0.00,0.00,0.000000,0.004000,0.000004,0.000000,0.000000,0.000000,0.000000,0.000000,0.000000,0.000000,-0.000000,0.000000,0.000000,0.000000,0.000000,819,819,819,819
8489,0,0.000000,0.000000,0.000000,0.00,0.00,-0.000018,0.004000,0.000001,0.000002,0.000000,0.000000,0.000000,0.000000,0.000000,-0.000000,0.000000,0.000000,0.000000,0.000000,0.000000,819,819,819,819
8498,0,0.000000,0.000000,0.000000,0.00,0.00,-0.000019,0.004000,0.000000,0.000003,0.000000,0.000000,0.000000,0.000000,-0.000000,-0.000000,0.000000,0.000000,0.000000,0.000000,0.000000,819,819,819,819
8508,0,0.000000,0.000000,0.000000,0.00,0.00,-0.000000,0.004000,0.000000,0.000000,0.000000,0.000000,0.000000,0.000000,-0.000000,-0.000000,0.000000,0.000000,0.000000,0.000000,0.000000,819,819,819,819
8518,0,0.000000,0.000000,0.000000,0.00,0.00,0.000036,0.004000,0.000003,0.000000,0.000000,0.000000,0.000000,0.000000,0.000000,0.000000,-0.000000,0.000000,0.000000,0.000000,0.000000,819,819,819,819
8528,0,0.000000,0.000000,0.000000,-0.00,-0.00,0.000056,0.004000,-0.000001,-0.000000,0.000000,0.000000,0.000000,0.000000,-0.000000,0.000000,-0.000000,0.000000,0.000000,0.000000,0.000000,819,819,819,819
8539,0,0.000000,0.000000,0.000000,0.00,-0.00,0.000021,0.004000,0.000001,-0.000002,0.000000,0.000000,0.000000,0.000000,0.000000,0.000000,-0.000000,0.000000,0.000000,0.000000,0.000000,819,819,819,819
8549,0,0.000000,0.000000,0.000000,0.00,0.00,0.000037,0.004000,0.000003,0.000000,0.000000,0.000000,0.000000,0.000000,0.000000,-0.000000,-0.000000,0.000000,0.000000,0.000000,0.000000,819,819,819,819
8559,0,0.000000,0.000000,0.000000,0.00,0.00,0.000020,0.004000,0.000004,0.000002,0.000000,0.000000,0.000000,0.000000,0.000000,-0.000000,-0.000000,0.000000,0.000000,0.000000,0.000000,819,819,819,819
8569,0,0.000000,0.000000,0.000000,0.00,-0.00,0.000019,0.004000,0.000001,-0.000000,0.000000,0.000000,0.000000,0.000000,0.000000,0.000000,-0.000000,0.000000,0.000000,0.000000,0.000000,819,819,819,819
8579,0,0.000000,0.000000,0.000000,0.00,0.00,0.000019,0.004000,0.000000,0.000000,0.000000,0.000000,0.000000,0.000000,-0.000000,0.000000,-0.000000,0.000000,0.000000,0.000000,0.000000,819,819,819,819
8589,0,0.000000,0.000000,0.000000,0.00,-0.00,-0.000017,0.004000,0.000001,-0.000005,0.000000,0.000000,0.000000,0.000000,0.000000,0.000000,0.000000,0.000000,0.000000,0.000000,0.000000,819,819,819,819
8599,0,0.000000,0.000000,0.000000,0.00,-0.00,-0.000037,0.004000,0.000001,-0.000004,0.000000,0.000000,0.000000,0.000000,0.000000,0.000000,0.000000,0.000000,0.000000,0.000000,0.000000,819,819,819,819
8609,0,0.000000,0.000000,0.000000,0.00,0.00,0.000034,0.004000,0.000001,0.000002,0.000000,0.000000,0.000000,0.000000,0.000000,-0.000000,-0.000000,0.000000,0.000000,0.000000,0.000000,819,819,819,819
8619,0,0.000000,0.000000,0.000000,0.00,0.00,0.000002,0.004000,0.000000,0.000004,0.000000,0.000000,0.000000,0.000000,-0.000000,-0.000000,-0.000000,0.000000,0.000000,0.000000,0.000000,819,819,819,819
8629,0,0.000000,0.000000,0.000000,0.00,0.00,0.000018,0.004000,0.000003,0.000000,0.000000,0.000000,0.000000,0.000000,0.000000,0.000000,-0.000000,0.000000,0.000000,0.000000,0.000000,819,819,819,819
8639,0,0.000000,0.000000,0.000000,0.00,-0.00,0.000019,0.004000,0.000001,-0.000002,0.000000,0.000000,0.000000,0.000000,0.000000,0.000000,-0.000000,0.000000,0.000000,0.000000,0.000000,819,819,819,819
8651,0,0.000000,0.000000,0.000000,0.00,0.00,0.000037,0.004000,0.000003,0.000003,0.000000,0.000000,0.000000,0.000000,0.000000,-0.000000,-0.000000,0.000000,0.000000,0.000000,0.000000,819,819,819,819
8660,0,0.000000,0.000000,0.000000,0.00,0.00,0.000020,0.004000,0.000006,0.000000,0.000000,0.000000,0.000000,0.000000,0.000000,-0.000000,-0.000000,0.000000,0.000000,0.000000,0.000000,819,819,819,819
8669,0,0.000000,0.000000,0.000000,0.00,-0.00,0.000001,0.004000,0.000000,-0.000000,0.000000,0.000000,0.000000,0.000000,-0.000000,0.000000,-0.000000,0.000000,0.000000,0.000000,0.000000,819,819,819,819
8679,0,0.000000,0.000000,0.000000,0.00,-0.00,0.000018,0.004000,0.000003,-0.000002,0.000000,0.000000,0.000000,0.000000,0.000000,0.000000,-0.000000,0.000000,0.000000,0.000000,0.000000,819,819,819,819
8689,0,0.000000,0.000000,0.000000,0.00,-0.00,0.000019,0.004000,0.000000,-0.000002,0.000000,0.000000,0.000000,0.000000,-0.000000,0.000000,-0.000000,0.000000,0.000000,0.000000,0.000000,819,819,819,819
8708,0,0.000000,0.000000,0.000000,0.00,-0.00,-0.000035,0.004000,0.000003,-0.000000,0.000000,0.000000,0.000000,0.000000,0.000000,0.000000,0.000000,0.000000,0.000000,0.000000,0.000000,819,819,819,819
8719,0,0.000000,0.000000,0.000000,-0.00,0.00,-0.000002,0.004000,-0.000001,0.000000,0.000000,0.000000,0.000000,0.000000,-0.000000,-0.000000,0.000000,0.000000,0.000000,0.000000,0.000000,819,819,819,819
8729,0,0.000000,0.000000,0.000000,0.00,0.00,0.000036,0.004000,0.000001,0.000000,0.000000,0.000000,0.000000,0.000000,0.000000,0.000000,-0.000000,0.000000,0.000000,0.000000,0.000000,819,819,819,819
8739,0,0.000000,0.000000,0.000000,0.00,-0.00,0.000056,0.004000,0.000000,-0.000000,0.000000,0.000000,0.000000,0.000000,-0.000000,0.000000,-0.000000,0.000000,0.000000,0.000000,0.000000,819,819,819,819
8749,0,0.000000,0.000000,0.000000,-0.00,0.00,-0.000015,0.004000,-0.000001,0.000002,0.000000,0.000000,0.000000,0.000000,-0.000000,-0.000000,0.000000,0.000000,0.000000,0.000000,0.000000,819,819,819,819
8759,0,0.000000,0.000000,0.000000,-0.00,0.00,-0.000037,0.004000,-0.000001,0.000000,0.000000,0.000000,0.000000,0.000000,-0.000000,0.000000,0.000000,0.000000,0.000000,0.000000,0.000000,819,819,819,819
8769,0,0.000000,0.000000,0.000000,-0.00,0.00,-0.000020,0.004000,-0.000003,0.000003,0.000000,0.000000,0.000000,0.000000,-0.000000,-0.000000,0.000000,0.000000,0.000000,0.000000,0.000000,819,819,819,819
8779,0,0.000000,0.000000,0.000000,-0.00,-0.00,-0.000001,0.004000,-0.000003,-0.000000,0.000000,0.000000,0.000000,0.000000,-0.000000,0.000000,0.000000,0.000000,0.000000,0.000000,0.000000,819,819,819,819
8789,0,0.000000,0.000000,0.000000,-0.00,-0.00,-0.000000,0.004000,-0.000003,-0.000002,0.000000,0.000000,0.000000,0.000000,-0.000000,0.000000,0.000000,0.000000,0.000000,0.000000,0.000000,819,819,819,819
8799,0,0.000000,0.000000,0.000000,-0.00,-0.00,-0.000000,0.004000,-0.000001,-0.000002,0.000000,0.000000,0.000000,0.000000,-0.000000,0.000000,0.000000,0.000000,0.000000,0.000000,0.000000,819,819,819,819
8809,0,0.000000,0.000000,0.000000,0.00,-0.00,-0.000018,0.004000,0.000001,-0.000000,0.000000,0.000000,0.000000,0.000000,0.000000,0.000000,0.000000,0.000000,0.000000,0.000000,0.000000,819,819,819,819
8819,0,0.000000,0.000000,0.000000,0.00,0.00,-0.000019,0.004000,0.000000,0.000000,0.000000,0.000000,0.000000,0.000000,-0.000000,-0.000000,0.000000,0.000000,0.000000,0.000000,0.000000,819,819,819,819
8829,0,0.000000,0.000000,0.000000,0.00,0.00,-0.000000,0.004000,0.000003,0.000004,0.000000,0.000000,0.000000,0.000000,0.000000,-0.000000,0.000000,0.000000,0.000000,0.000000,0.000000,819,819,819,819
8839,0,0.000000,0.000000,0.000000,0.00,0.00,0.000018,0.004000,0.000003,0.000000,0.000000,0.000000,0.000000,0.000000,0.000000,-0.000000,-0.000000,0.000000,0.000000,0.000000,0.000000,819,819,819,819
8849,0,0.000000,0.000000,0.000000,0.00,-0.00,0.000019,0.004000,0.000000,-0.000002,0.000000,0.000000,0.000000,0.000000,-0.000000,0.000000,-0.000000,0.000000,0.000000,0.000000,0.000000,819,819,819,819
8859,0,0.000000,0.000000,0.000000,0.00,-0.00,0.000000,0.004000,0.000000,-0.000000,0.000000,0.000000,0.000000,0.000000,-0.000000,0.000000,-0.000000,0.000000,0.000000,0.000000,0.000000,819,819,819,819
8869,0,0.000000,0.000000,0.000000,0.00,0.00,-0.000018,0.004000,0.000000,0.000000,0.000000,0.000000,0.000000,0.000000,-0.000000,0.000000,0.000000,0.000000,0.000000,0.000000,0.000000,819,819,819,819
8879,0,0.000000,0.000000,0.000000,-0.00,0.00,-0.000019,0.004000,-0.000003,0.000002,0.000000,0.000000,0.000000,0.000000,-0.000000,-0.000000,0.000000,0.000000,0.000000,0.000000,0.000000,819,819,819,819
8889,0,0.000000,0.000000,0.000000,0.00,0.00,-0.000019,0.004000,0.000000,0.000000,0.000000,0.000000,0.000000,0.000000,-0.000000,0.000000,0.000000,0.000000,0.000000,0.000000,0.000000,819,819,819,819
8899,0,0.000000,0.000000,0.000000,-0.00,0.00,-0.000037,0.004000,-0.000003,0.000000,0.000000,0.000000,0.000000,0.000000,-0.000000,0.000000,0.000000,0.000000,0.000000,0.000000,0.000000,819,819,819,819
8909,0,0.000000,0.000000,0.000000,0.00,0.00,-0.000002,0.004000,0.000000,0.000000,0.000000,0.000000,0.000000,0.000000,-0.000000,0.000000,0.000000,0.000000,0.000000,0.000000,0.000000,819,819,819,819
8919,0,0.000000,0.000000,0.000000,0.00,0.00,0.000036,0.004000,0.000001,0.000000,0.000000,0.000000,0.000000,0.000000,0.000000,-0.000000,-0.000000,0.000000,0.000000,0.000000,0.000000,819,819,819,819
8929,0,0.000000,0.000000,0.000000,0.00,0.00,0.000038,0.004000,0.000003,0.000003,0.000000,0.000000,0.000000,0.000000,0.000000,-0.000000,-0.000000,0.000000,0.000000,0.000000,0.000000,819,819,819,819
8940,0,0.000000,0.000000,0.000000,0.00,-0.00,-0.000016,0.004000,0.000000,-0.000000,0.000000,0.000000,0.000000,0.000000,-0.000000,0.000000,0.000000,0.000000,0.000000,0.000000,0.000000,819,819,819,819
8950,0,0.000000,0.000000,0.000000,-0.00,-0.00,-0.000019,0.004000,-0.000001,-0.000003,0.000000,0.000000,0.000000,0.000000,-0.000000,0.000000,0.000000,0.000000,0.000000,0.000000,0.000000,819,819,819,819
8960,0,0.000000,0.000000,0.000000,-0.00,-0.00,-0.000019,0.004000,-0.000001,-0.000003,0.000000,0.000000,0.000000,0.000000,-0.000000,0.000000,0.000000,0.000000,0.000000,0.000000,0.000000,819,819,819,819
8970,0,0.000000,0.000000,0.000000,-0.00,0.00,-0.000019,0.004000,-0.000003,0.000000,0.000000,0.000000,0.000000,0.000000,-0.000000,0.000000,0.000000,0.000000,0.000000,0.000000,0.000000,819,819,819,819
8980,0,0.000000,0.000000,0.000000,-0.00,0.00,0.000017,0.004000,-0.000003,0.000000,0.000000,0.000000,0.000000,0.000000,-0.000000,0.000000,-0.000000,0.000000,0.000000,0.000000,0.000000,819,819,819,819
8990,0,0.000000,0.000000,0.000000,-0.00,0.00,-0.000017,0.004000,-0.000001,0.000003,0.000000,0.000000,0.000000,0.000000,-0.000000,-0.000000,0.000000,0.000000,0.000000,0.000000,0.000000,819,819,819,819
9000,0,0.000000,0.000000,0.000000,0.00,0.00,-0.000019,0.004000,0.000001,0.000003,0.000000,0.000000,0.000000,0.000000,0.000000,-0.000000,0.000000,0.000000,0.000000,0.000000,0.000000,819,819,819,819
9010,0,0.000000,0.000000,0.000000,0.00,0.00,-0.000019,0.004000,0.000001,0.000000,0.000000,0.000000,0.000000,0.000000,0.000000,0.000000,0.000000,0.000000,0.000000,0.000000,0.000000,819,819,819,819
9027,0,0.000000,0.000000,0.000000,-0.00,0.00,0.000017,0.004000,-0.000003,0.000000,0.000000,0.000000,0.000000,0.000000,-0.000000,0.000000,-0.000000,0.000000,0.000000,0.000000,0.000000,819,819,819,819
9038,0,0.000000,0.000000,0.000000,0.00,0.00,-0.000017,0.004000,0.000001,0.000002,0.000000,0.000000,0.000000,0.000000,0.000000,-0.000000,0.000000,0.000000,0.000000,0.000000,0.000000,819,819,819,819
9050,0,0.000000,0.000000,0.000000,0.00,-0.00,-0.000019,0.004000,0.000000,-0.000002,0.000000,0.000000,0.000000,0.000000,-0.000000,0.000000,0.000000,0.000000,0.000000,0.000000,0.000000,819,819,819,819
9060,0,0.000000,0.000000,0.000000,0.00,0.00,-0.000019,0.004000,0.000001,0.000000,0.000000,0.000000,0.000000,0.000000,0.000000,-0.000000,0.000000,0.000000,0.000000,0.000000,0.000000,819,819,819,819
9070,0,0.000000,0.000000,0.000000,-0.00,-0.00,-0.000037,0.004000,-0.000001,-0.000002,0.000000,0.000000,0.000000,0.000000,-0.000000,0.000000,0.000000,0.000000,0.000000,0.000000,0.000000,819,819,819,819
9080,0,0.000000,0.000000,0.000000,-0.00,0.00,0.000016,0.004000,-0.000003,0.000000,0.000000,0.000000,0.000000,0.000000,-0.000000,-0.000000,-0.000000,0.000000,0.000000,0.000000,0.000000,819,819,819,819
9090,0,0.000000,0.000000,0.000000,0.00,-0.00,0.000000,0.004000,0.000000,-0.000000,0.000000,0.000000,0.000000,0.000000,-0.000000,0.000000,-0.000000,0.000000,0.000000,0.000000,0.000000,819,819,819,819
9100,0,0.000000,0.000000,0.000000,0.00,0.00,0.000000,0.004000,0.000000,0.000002,0.000000,0.000000,0.000000,0.000000,-0.000000,-0.000000,-0.000000,0.000000,0.000000,0.000000,0.000000,819,819,819,819
9110,0,0.000000,0.000000,0.000000,0.00,0.00,-0.000036,0.004000,0.000000,0.000000,0.000000,0.000000,0.000000,0.000000,-0.000000,0.000000,0.000000,0.000000,0.000000,0.000000,0.000000,819,819,819,819
9120,0,0.000000,0.000000,0.000000,0.00,0.00,-0.000038,0.004000,0.000001,0.000005,0.000000,0.000000,0.000000,0.000000,0.000000,-0.000000,0.000000,0.000000,0.000000,0.000000,0.000000,819,819,819,819
9130,0,0.000000,0.000000,0.000000,0.00,0.00,-0.000038,0.004000,0.000001,0.000000,0.000000,0.000000,0.000000,0.000000,0.000000,-0.000000,0.000000,0.000000,0.000000,0.000000,0.000000,819,819,819,819
9140,0,0.000000,0.000000,0.000000,0.00,-0.00,-0.000002,0.004000,0.000000,-0.000000,0.000000,0.000000,0.000000,0.000000,-0.000000,0.000000,0.000000,0.000000,0.000000,0.000000,0.000000,819,819,819,819
9150,0,0.000000,0.000000,0.000000,-0.00,0.00,-0.000036,0.004000,-0.000003,0.000000,0.000000,0.000000,0.000000,0.000000,-0.000000,0.000000,0.000000,0.000000,0.000000,0.000000,0.000000,819,819,819,819
9160,0,0.000000,0.000000,0.000000,0.00,-0.00,-0.000020,0.004000,0.000000,-0.000003,0.000000,0.000000,0.000000,0.000000,-0.000000,0.000000,0.000000,0.000000,0.000000,0.000000,0.000000,819,819,819,819
9170,0,0.000000,0.000000,0.000000,-0.00,0.00,0.000035,0.004000,-0.000003,0.000003,0.000000,0.000000,0.000000,0.000000,-0.000000,-0.000000,-0.000000,0.000000,0.000000,0.000000,0.000000,819,819,819,819
9180,0,0.000000,0.000000,0.000000,0.00,0.00,-0.000053,0.004000,0.000001,0.000004,0.000000,0.000000,0.000000,0.000000,0.000000,-0.000000,0.000000,0.000000,0.000000,0.000000,0.000000,819,819,819,819
9190,0,0.000000,0.000000,0.000000,0.00,0.00,-0.000057,0.004000,0.000000,0.000000,0.000000,0.000000,0.000000,0.000000,-0.000000,0.000000,0.000000,0.000000,0.000000,0.000000,0.000000,819,819,819,819
9200,0,0.000000,0.000000,0.000000,-0.00,-0.00,-0.000021,0.004000,-0.000003,-0.000003,0.000000,0.000000,0.000000,0.000000,-0.000000,0.000000,0.000000,0.000000,0.000000,0.000000,0.000000,819,819,819,819
9210,0,0.000000,0.000000,0.000000,-0.00,-0.00,0.000053,0.004000,-0.000001,-0.000000,0.000000,0.000000,0.000000,0.000000,-0.000000,0.000000,-0.000000,0.000000,0.000000,0.000000,0.000000,819,819,819,819
9220,0,0.000000,0.000000,0.000000,-0.00,-0.00,0.000057,0.004000,-0.000001,-0.000000,0.000000,0.000000,0.000000,0.000000,-0.000000,0.000000,-0.000000,0.000000,0.000000,0.000000,0.000000,819,819,819,819
9230,0,0.000000,0.000000,0.000000,-0.00,-0.00,0.000075,0.004000,-0.000003,-0.000002,0.000000,0.000000,0.000000,0.000000,-0.000000,0.000000,-0.000000,0.000000,0.000000,0.000000,0.000000,819,819,819,819
9241,0,0.000000,0.000000,0.000000,0.00,0.00,-0.000014,0.004000,0.000001,0.000000,0.000000,0.000000,0.000000,0.000000,0.000000,-0.000000,0.000000,0.000000,0.000000,0.000000,0.000000,819,819,819,819
9250,0,0.000000,0.000000,0.000000,0.00,-0.00,-0.000055,0.004000,0.000003,-0.000003,0.000000,0.000000,0.000000,0.000000,0.000000,0.000000,0.000000,0.000000,0.000000,0.000000,0.000000,819,819,819,819
9260,0,0.000000,0.000000,0.000000,-0.00,-0.00,0.000015,0.004000,-0.000003,-0.000004,0.000000,0.000000,0.000000,0.000000,-0.000000,0.000000,-0.000000,0.000000,0.000000,0.000000,0.000000,819,819,819,819
9270,0,0.000000,0.000000,0.000000,-0.00,0.00,0.000037,0.004000,-0.000001,0.000000,0.000000,0.000000,0.000000,0.000000,-0.000000,0.000000,-0.000000,0.000000,0.000000,0.000000,0.000000,819,819,819,819
9280,0,0.000000,0.000000,0.000000,-0.00,0.00,0.000038,0.004000,-0.000001,0.000002,0.000000,0.000000,0.000000,0.000000,-0.000000,-0.000000,-0.000000,0.000000,0.000000,0.000000,0.000000,819,819,819,819
9290,0,0.000000,0.000000,0.000000,0.00,0.00,0.000002,0.004000,0.000000,0.000000,0.000000,0.000000,0.000000,0.000000,-0.000000,-0.000000,-0.000000,0.000000,0.000000,0.000000,0.000000,819,819,819,819
9300,0,0.000000,0.000000,0.000000,-0.00,-0.00,0.000000,0.004000,-0.000001,-0.000000,0.000000,0.000000,0.000000,0.000000,-0.000000,0.000000,-0.000000,0.000000,0.000000,0.000000,0.000000,819,819,819,819
9310,0,0.000000,0.000000,0.000000,0.00,-0.00,0.000018,0.004000,0.000003,-0.000000,0.000000,0.000000,0.000000,0.000000,0.000000,0.000000,-0.000000,0.000000,0.000000,0.000000,0.000000,819,819,819,819
9320,0,0.000000,0.000000,0.000000,-0.00,-0.00,0.000073,0.004000,-0.000001,-0.000004,0.000000,0.000000,0.000000,0.000000,-0.000000,0.000000,-0.000000,0.000000,0.000000,0.000000,0.000000,819,819,819,819
9330,0,0.000000,0.000000,0.000000,-0.00,-0.00,0.000040,0.004000,-0.000003,-0.000000,0.000000,0.000000,0.000000,0.000000,-0.000000,0.000000,-0.000000,0.000000,0.000000,0.000000,0.000000,819,819,819,819
9346,0,0.000000,0.000000,0.000000,-0.00,0.00,0.000020,0.004000,-0.000001,0.000000,0.000000,0.000000,0.000000,0.000000,-0.000000,0.000000,-0.000000,0.000000,0.000000,0.000000,0.000000,819,819,819,819
9357,0,0.000000,0.000000,0.000000,0.00,0.00,-0.000035,0.004000,0.000003,0.000004,0.000000,0.000000,0.000000,0.000000,0.000000,-0.000000,0.000000,0.000000,0.000000,0.000000,0.000000,819,819,819,819
9368,0,0.000000,0.000000,0.000000,0.00,-0.00,-0.000056,0.004000,0.000000,-0.000003,0.000000,0.000000,0.000000,0.000000,-0.000000,0.000000,0.000000,0.000000,0.000000,0.000000,0.000000,819,819,819,819
9379,0,0.000000,0.000000,0.000000,-0.00,-0.00,-0.000003,0.004000,-0.000003,-0.000005,0.000000,0.000000,0.000000,0.000000,-0.000000,0.000000,0.000000,0.000000,0.000000,0.000000,0.000000,819,819,819,819
9390,0,0.000000,0.000000,0.000000,0.00,-0.00,0.000054,0.004000,0.000000,-0.000005,0.000000,0.000000,0.000000,0.000000,-0.000000,0.000000,-0.000000,0.000000,0.000000,0.000000,0.000000,819,819,819,819
9401,0,0.000000,0.000000,0.000000,0.00,0.00,0.000039,0.004000,0.000000,0.000000,0.000000,0.000000,0.000000,0.000000,-0.000000,-0.000000,-0.000000,0.000000,0.000000,0.000000,0.000000,819,819,819,819
9411,0,0.000000,0.000000,0.000000,0.00,0.00,0.000020,0.004000,0.000003,0.000000,0.000000,0.000000,0.000000,0.000000,0.000000,0.000000,-0.000000,0.000000,0.000000,0.000000,0.000000,819,819,819,819
9421,0,0.000000,0.000000,0.000000,-0.00,0.00,0.000037,0.004000,-0.000003,0.000000,0.000000,0.000000,0.000000,0.000000,-0.000000,0.000000,-0.000000,0.000000,0.000000,0.000000,0.000000,819,819,819,819
9431,0,0.000000,0.000000,0.000000,0.00,0.00,0.000002,0.004000,0.000000,0.000004,0.000000,0.000000,0.000000,0.000000,-0.000000,-0.000000,-0.000000,0.000000,0.000000,0.000000,0.000000,819,819,819,819
9441,0,0.000000,0.000000,0.000000,0.00,0.00,0.000000,0.004000,0.000000,0.000000,0.000000,0.000000,0.000000,0.000000,-0.000000,-0.000000,-0.000000,0.000000,0.000000,0.000000,0.000000,819,819,819,819
9451,0,0.000000,0.000000,0.000000,-0.00,0.00,-0.000036,0.004000,-0.000001,0.000000,0.000000,0.000000,0.000000,0.000000,-0.000000,0.000000,0.000000,0.000000,0.000000,0.000000,0.000000,819,819,819,819
9461,0,0.000000,0.000000,0.000000,-0.00,0.00,-0.000020,0.004000,-0.000001,0.000000,0.000000,0.000000,0.000000,0.000000,-0.000000,-0.000000,0.000000,0.000000,0.000000,0.000000,0.000000,819,819,819,819
9471,0,0.000000,0.000000,0.000000,-0.00,0.00,-0.000001,0.004000,-0.000001,0.000000,0.000000,0.000000,0.000000,0.000000,-0.000000,-0.000000,0.000000,0.000000,0.000000,0.000000,0.000000,819,819,819,819
9481,0,0.000000,0.000000,0.000000,0.00,0.00,0.000036,0.004000,0.000003,0.000003,0.000000,0.000000,0.000000,0.000000,0.000000,-0.000000,-0.000000,0.000000,0.000000,0.000000,0.000000,819,819,819,819
9491,0,0.000000,0.000000,0.000000,0.00,0.00,0.000056,0.004000,0.000000,0.000000,0.000000,0.000000,0.000000,0.000000,-0.000000,-0.000000,-0.000000,0.000000,0.000000,0.000000,0.000000,819,819,819,819
9503,0,0.000000,0.000000,0.000000,0.00,0.00,0.000021,0.004000,0.000000,0.000003,0.000000,0.000000,0.000000,0.000000,-0.000000,-0.000000,-0.000000,0.000000,0.000000,0.000000,0.000000,819,819,819,819
9512,0,0.000000,0.000000,0.000000,0.00,0.00,0.000019,0.004000,0.000000,0.000004,0.000000,0.000000,0.000000,0.000000,-0.000000,-0.000000,-0.000000,0.000000,0.000000,0.000000,0.000000,819,819,819,819
9521,0,0.000000,0.000000,0.000000,0.00,-0.00,-0.000017,0.004000,0.000000,-0.000000,0.000000,0.000000,0.000000,0.000000,-0.000000,0.000000,0.000000,0.000000,0.000000,0.000000,0.000000,819,819,819,819
9531,0,0.000000,0.000000,0.000000,0.00,0.00,-0.000037,0.004000,0.000001,0.000000,0.000000,0.000000,0.000000,0.000000,0.000000,-0.000000,0.000000,0.000000,0.000000,0.000000,0.000000,819,819,819,819
9541,0,0.000000,0.000000,0.000000,-0.00,-0.00,-0.000038,0.004000,-0.000001,-0.000002,0.000000,0.000000,0.000000,0.000000,-0.000000,0.000000,0.000000,0.000000,0.000000,0.000000,0.000000,819,819,819,819
9551,0,0.000000,0.000000,0.000000,-0.00,-0.00,-0.000056,0.004000,-0.000003,-0.000004,0.000000,0.000000,0.000000,0.000000,-0.000000,0.000000,0.000000,0.000000,0.000000,0.000000,0.000000,819,819,819,819
9561,0,0.000000,0.000000,0.000000,-0.00,0.00,0.000015,0.004000,-0.000001,0.000000,0.000000,0.000000,0.000000,0.000000,-0.000000,-0.000000,-0.000000,0.000000,0.000000,0.000000,0.000000,819,819,819,819
9571,0,0.000000,0.000000,0.000000,0.00,0.00,0.000019,0.004000,0.000000,0.000000,0.000000,0.000000,0.000000,0.000000,-0.000000,0.000000,-0.000000,0.000000,0.000000,0.000000,0.000000,819,819,819,819
9581,0,0.000000,0.000000,0.000000,0.00,0.00,0.000073,0.004000,0.000000,0.000002,0.000000,0.000000,0.000000,0.000000,-0.000000,-0.000000,-0.000000,0.000000,0.000000,0.000000,0.000000,819,819,819,819
9591,0,0.000000,0.000000,0.000000,0.00,0.00,0.000094,0.004000,0.000000,0.000002,0.000000,0.000000,0.000000,0.000000,-0.000000,-0.000000,-0.000001,0.000000,0.000000,0.000000,0.000000,819,819,819,819
9601,0,0.000000,0.000000,0.000000,-0.00,-0.00,0.000041,0.004000,-0.000001,-0.000000,0.000000,0.000000,0.000000,0.000000,-0.000000,0.000000,-0.000000,0.000000,0.000000,0.000000,0.000000,819,819,819,819
9611,0,0.000000,0.000000,0.000000,0.00,-0.00,0.000020,0.004000,0.000000,-0.000000,0.000000,0.000000,0.000000,0.000000,-0.000000,0.000000,-0.000000,0.000000,0.000000,0.000000,0.000000,819,819,819,819
9621,0,0.000000,0.000000,0.000000,0.00,0.00,0.000001,0.004000,0.000000,0.000000,0.000000,0.000000,0.000000,0.000000,-0.000000,0.000000,-0.000000,0.000000,0.000000,0.000000,0.000000,819,819,819,819
9631,0,0.000000,0.000000,0.000000,-0.00,-0.00,-0.000036,0.004000,-0.000003,-0.000000,0.000000,0.000000,0.000000,0.000000,-0.000000,0.000000,0.000000,0.000000,0.000000,0.000000,0.000000,819,819,819,819
9642,0,0.000000,0.000000,0.000000,-0.00,-0.00,-0.000002,0.004000,-0.000004,-0.000003,0.000000,0.000000,0.000000,0.000000,-0.000000,0.000000,0.000000,0.000000,0.000000,0.000000,0.000000,819,819,819,819
9659,0,0.000000,0.000000,0.000000,0.00,0.00,-0.000018,0.004000,0.000000,0.000004,0.000000,0.000000,0.000000,0.000000,-0.000000,-0.000000,0.000000,0.000000,0.000000,0.000000,0.000000,819,819,819,819
9670,0,0.000000,0.000000,0.000000,0.00,0.00,-0.000000,0.004000,0.000000,0.000002,0.000000,0.000000,0.000000,0.000000,-0.000000,-0.000000,0.000000,0.000000,0.000000,0.000000,0.000000,819,819,819,819
9681,0,0.000000,0.000000,0.000000,0.00,0.00,-0.000036,0.004000,0.000001,0.000003,0.000000,0.000000,0.000000,0.000000,0.000000,-0.000000,0.000000,0.000000,0.000000,0.000000,0.000000,819,819,819,819
9692,0,0.000000,0.000000,0.000000,-0.00,0.00,0.000016,0.004000,-0.000003,0.000000,0.000000,0.000000,0.000000,0.000000,-0.000000,0.000000,-0.000000,0.000000,0.000000,0.000000,0.000000,819,819,819,819
9702,0,0.000000,0.000000,0.000000,-0.00,-0.00,0.000000,0.004000,-0.000001,-0.000000,0.000000,0.000000,0.000000,0.000000,-0.000000,0.000000,-0.000000,0.000000,0.000000,0.000000,0.000000,819,819,819,819
9712,0,0.000000,0.000000,0.000000,0.00,-0.00,0.000036,0.004000,0.000000,-0.000003,0.000000,0.000000,0.000000,0.000000,-0.000000,0.000000,-0.000000,0.000000,0.000000,0.000000,0.000000,819,819,819,819
9722,0,0.000000,0.000000,0.000000,0.00,0.00,0.000056,0.004000,0.000001,0.000000,0.000000,0.000000,0.000000,0.000000,0.000000,0.000000,-0.000000,0.000000,0.000000,0.000000,0.000000,819,819,819,819
9731,0,0.000000,0.000000,0.000000,0.00,0.00,0.000166,0.004000,0.000001,0.000000,0.000000,0.000000,0.000000,0.000000,0.000000,0.000000,-0.000002,0.000000,0.000000,0.000000,0.000000,819,819,819,819
9742,0,0.000000,0.000000,0.000000,0.00,-0.00,0.000171,0.004000,0.000000,-0.000007,0.000000,0.000000,0.000000,0.000000,-0.000000,0.000000,-0.000002,0.000000,0.000000,0.000000,0.000000,819,819,819,819
9752,0,0.000000,0.000000,0.000000,0.00,-0.00,0.000171,0.004000,0.000001,-0.000007,0.000000,0.000000,0.000000,0.000000,0.000000,0.000000,-0.000002,0.000000,0.000000,0.000000,0.000000,819,819,819,819
9762,0,0.000000,0.000000,0.000000,0.00,-0.00,-0.000010,0.004000,0.000000,-0.000005,0.000000,0.000000,0.000000,0.000000,-0.000000,0.000000,0.000000,0.000000,0.000000,0.000000,0.000000,819,819,819,819
9772,0,0.000000,0.000000,0.000000,-0.00,0.00,-0.000127,0.004000,-0.000003,0.000000,0.000000,0.000000,0.000000,0.000000,-0.000000,0.000000,0.000001,0.000000,0.000000,0.000000,0.000000,819,819,819,819
9782,0,0.000000,0.000000,0.000000,0.00,0.00,-0.000187,0.004000,0.000000,0.000005,0.000000,0.000000,0.000000,0.000000,-0.000000,-0.000000,0.000002,0.000000,0.000000,0.000000,0.000000,819,819,819,819
9792,0,0.000000,0.000000,0.000000,-0.00,-0.00,-0.000172,0.004000,-0.000001,-0.000000,0.000000,0.000000,0.000000,0.000000,-0.000000,0.000000,0.000002,0.000000,0.000000,0.000000,0.000000,819,819,819,819
9802,0,0.000000,0.000000,0.000000,-0.00,-0.00,-0.000117,0.004000,-0.000001,-0.000003,0.000000,0.000000,0.000000,0.000000,-0.000000,0.000000,0.000001,0.000000,0.000000,0.000000,0.000000,819,819,819,819
9812,0,0.000000,0.000000,0.000000,0.00,-0.00,-0.000024,0.004000,0.000001,-0.000006,0.000000,0.000000,0.000000,0.000000,0.000000,0.000000,0.000000,0.000000,0.000000,0.000000,0.000000,819,819,819,819
9822,0,0.000000,0.000000,0.000000,0.00,-0.00,-0.000001,0.004000,0.000000,-0.000003,0.000000,0.000000,0.000000,0.000000,-0.000000,0.000000,0.000000,0.000000,0.000000,0.000000,0.000000,819,819,819,819
9832,0,0.000000,0.000000,0.000000,0.00,0.00,0.000036,0.004000,0.000003,0.000002,0.000000,0.000000,0.000000,0.000000,0.000000,-0.000000,-0.000000,0.000000,0.000000,0.000000,0.000000,819,819,819,819
9842,0,0.000000,0.000000,0.000000,0.00,0.00,0.000074,0.004000,0.000001,0.000002,0.000000,0.000000,0.000000,0.000000,0.000000,-0.000000,-0.000000,0.000000,0.000000,0.000000,0.000000,819,819,819,819
9852,0,0.000000,0.000000,0.000000,0.00,-0.00,0.000040,0.004000,0.000001,-0.000000,0.000000,0.000000,0.000000,0.000000,0.000000,0.000000,-0.000000,0.000000,0.000000,0.000000,0.000000,819,819,819,819
9862,0,0.000000,0.000000,0.000000,-0.00,-0.00,0.000074,0.004000,-0.000003,-0.000003,0.000000,0.000000,0.000000,0.000000,-0.000000,0.000000,-0.000000,0.000000,0.000000,0.000000,0.000000,819,819,819,819
9872,0,0.000000,0.000000,0.000000,0.00,-0.00,-0.000032,0.004000,0.000000,-0.000002,0.000000,0.000000,0.000000,0.000000,-0.000000,0.000000,0.000000,0.000000,0.000000,0.000000,0.000000,819,819,819,819
9882,0,0.000000,0.000000,0.000000,0.00,-0.00,-0.000110,0.004000,0.000000,-0.000003,0.000000,0.000000,0.000000,0.000000,-0.000000,0.000000,0.000001,0.000000,0.000000,0.000000,0.000000,819,819,819,819
9892,0,0.000000,0.000000,0.000000,0.00,-0.00,-0.000078,0.004000,0.000000,-0.000000,0.000000,0.000000,0.000000,0.000000,-0.000000,0.000000,0.000000,0.000000,0.000000,0.000000,0.000000,819,819,819,819
9902,0,0.000000,0.000000,0.000000,0.00,0.00,-0.000040,0.004000,0.000000,0.000003,0.000000,0.000000,0.000000,0.000000,-0.000000,-0.000000,0.000000,0.000000,0.000000,0.000000,0.000000,819,819,819,819
9912,0,0.000000,0.000000,0.000000,-0.00,0.00,0.000016,0.004000,-0.000001,0.000000,0.000000,0.000000,0.000000,0.000000,-0.000000,0.000000,-0.000000,0.000000,0.000000,0.000000,0.000000,819,819,819,819
9922,0,0.000000,0.000000,0.000000,0.00,0.00,0.000055,0.004000,0.000000,0.000000,0.000000,0.000000,0.000000,0.000000,-0.000000,-0.000000,-0.000000,0.000000,0.000000,0.000000,0.000000,819,819,819,819
9932,0,0.000000,0.000000,0.000000,0.00,-0.00,0.000075,0.004000,0.000003,-0.000002,0.000000,0.000000,0.000000,0.000000,0.000000,0.000000,-0.000000,0.000000,0.000000,0.000000,0.000000,819,819,819,819
9942,0,0.000000,0.000000,0.000000,0.00,0.00,0.000076,0.004000,0.000000,0.000000,0.000000,0.000000,0.000000,0.000000,-0.000000,-0.000000,-0.000000,0.000000,0.000000,0.000000,0.000000,819,819,819,819
9952,0,0.000000,0.000000,0.000000,-0.00,0.00,0.000094,0.004000,-0.000001,0.000000,0.000000,0.000000,0.000000,0.000000,-0.000000,0.000000,-0.000000,0.000000,0.000000,0.000000,0.000000,819,819,819,819
9962,0,0.000000,0.000000,0.000000,0.00,0.00,0.000005,0.004000,0.000001,0.000000,0.000000,0.000000,0.000000,0.000000,0.000000,0.000000,-0.000000,0.000000,0.000000,0.000000,0.000000,819,819,819,819
9979,0,0.000000,0.000000,0.000000,0.00,-0.00,-0.000018,0.004000,0.000000,-0.000002,0.000000,0.000000,0.000000,0.000000,-0.000000,0.000000,0.000000,0.000000,0.000000,0.000000,0.000000,819,819,819,819
9990,0,0.000000,0.000000,0.000000,-0.00,-0.00,-0.000019,0.004000,-0.000001,-0.000003,0.000000,0.000000,0.000000,0.000000,-0.000000,0.000000,0.000000,0.000000,0.000000,0.000000,0.000000,819,819,819,819
10002,0,0.000000,0.000000,0.000000,-0.00,-0.00,0.000017,0.004000,-0.000004,-0.000004,0.000000,0.000000,0.000000,0.000000,-0.000000,0.000000,-0.000000,0.000000,0.000000,0.000000,0.000000,819,819,819,819
10012,0,0.000000,0.000000,0.000000,-0.00,-0.00,0.000019,0.004000,-0.000001,-0.000002,0.000000,0.000000,0.000000,0.000000,-0.000000,0.000000,-0.000000,0.000000,0.000000,0.000000,0.000000,819,819,819,819
10022,0,0.000000,0.000000,0.000000,-0.00,-0.00,0.000055,0.004000,-0.000001,-0.000002,0.000000,0.000000,0.000000,0.000000,-0.000000,0.000000,-0.000000,0.000000,0.000000,0.000000,0.000000,819,819,819,819
10032,0,0.000000,0.000000,0.000000,-0.00,-0.00,0.000021,0.004000,-0.000001,-0.000003,0.000000,0.000000,0.000000,0.000000,-0.000000,0.000000,-0.000000,0.000000,0.000000,0.000000,0.000000,819,819,819,819
10043,0,0.000000,0.000000,0.000000,-0.00,0.00,-0.000035,0.004000,-0.000001,0.000000,0.000000,0.000000,0.000000,0.000000,-0.000000,-0.000000,0.000000,0.000000,0.000000,0.000000,0.000000,819,819,819,819
