t,is_crashed,roll,pitch,yaw,throttle,roll_pid_out,pitch_pid_out,yaw_pid_out,motor_fl,motor_bl,motor_fr,motor_br,pwm_fl,pwm_bl,pwm_fr,pwm_br
6877,0,0.00,0.02,0.00,0.00,-0.00,-0.00,0.00,0.00,0.00,0.00,0.00,819,819,819,819
6885,0,0.00,0.02,0.00,0.00,-0.03,-0.10,0.00,0.00,0.00,0.00,0.00,819,819,819,819
6892,0,0.00,0.02,0.00,0.00,-0.04,-0.11,0.00,0.00,0.00,0.00,0.00,819,819,819,819
6897,0,0.00,0.02,0.00,0.00,-0.05,-0.13,0.00,0.00,0.00,0.00,0.00,819,819,819,819
6904,0,0.00,0.02,0.00,0.00,-0.04,-0.11,0.00,0.00,0.00,0.00,0.00,819,819,819,819
6911,0,0.00,0.02,0.00,0.00,-0.04,-0.11,0.00,0.00,0.00,0.00,0.00,819,819,819,819
6917,0,0.00,0.02,0.00,0.00,-0.05,-0.13,0.00,0.00,0.00,0.00,0.00,819,819,819,819
6924,0,0.00,0.02,0.00,0.00,-0.04,-0.11,0.00,0.00,0.00,0.00,0.00,819,819,819,819
6931,0,0.00,0.02,0.00,0.00,-0.04,-0.11,0.00,0.00,0.00,0.00,0.00,819,819,819,819
6937,0,0.00,0.02,0.00,0.00,-0.04,-0.13,0.00,0.00,0.00,0.00,0.00,819,819,819,819
6945,0,0.00,0.02,0.00,0.00,-0.04,-0.11,0.00,0.00,0.00,0.00,0.00,819,819,819,819
6951,0,0.00,0.02,0.00,0.00,-0.05,-0.13,0.00,0.00,0.00,0.00,0.00,819,819,819,819
6957,0,0.00,0.02,0.00,0.00,-0.04,-0.12,0.00,0.00,0.00,0.00,0.00,819,819,819,819
6964,0,0.00,0.02,0.00,0.00,-0.04,-0.11,0.00,0.00,0.00,0.00,0.00,819,819,819,819
6971,0,0.00,0.02,0.00,0.00,-0.04,-0.11,0.00,0.00,0.00,0.00,0.00,819,819,819,819
6977,0,0.00,0.02,0.00,0.00,-0.05,-0.13,0.00,0.00,0.00,0.00,0.00,819,819,819,819
6984,0,0.00,0.02,0.00,0.00,-0.04,-0.11,0.00,0.00,0.00,0.00,0.00,819,819,819,819
6992,0,0.00,0.02,0.00,0.00,-0.04,-0.11,0.00,0.00,0.00,0.00,0.00,819,819,819,819
6998,0,0.00,0.02,0.00,0.00,-0.05,-0.13,0.00,0.00,0.00,0.00,0.00,819,819,819,819
7004,0,0.00,0.02,0.00,0.00,-0.04,-0.11,0.00,0.00,0.00,0.00,0.00,819,819,819,819
7012,0,0.00,0.02,0.00,0.00,-0.04,-0.11,0.00,0.00,0.00,0.00,0.00,819,819,819,819
7018,0,0.00,0.02,0.00,0.00,-0.04,-0.13,0.00,0.00,0.00,0.00,0.00,819,819,819,819
7028,0,0.00,0.02,0.00,0.00,-0.03,-0.08,0.00,0.00,0.00,0.00,0.00,819,819,819,819
7036,0,0.00,0.02,0.00,0.00,-0.04,-0.10,0.00,0.00,0.00,0.00,0.00,819,819,819,819
7043,0,0.00,0.02,0.00,0.00,-0.04,-0.11,0.00,0.00,0.00,0.00,0.00,819,819,819,819
7049,0,0.00,0.02,0.00,0.00,-0.04,-0.13,0.00,0.00,0.00,0.00,0.00,819,819,819,819
7055,0,0.00,0.02,0.00,0.00,-0.05,-0.13,0.00,0.00,0.00,0.00,0.00,819,819,819,819
7062,0,0.00,0.02,0.00,0.00,-0.04,-0.11,0.00,0.00,0.00,0.00,0.00,819,819,819,819
7069,0,0.00,0.02,0.00,0.00,-0.04,-0.12,0.00,0.00,0.00,0.00,0.00,819,819,819,819
7075,0,0.00,0.02,0.00,0.00,-0.04,-0.12,0.00,0.00,0.00,0.00,0.00,819,819,819,819
7082,0,0.00,0.02,0.00,0.00,-0.04,-0.11,0.00,0.00,0.00,0.00,0.00,819,819,819,819
7088,0,0.00,0.02,0.00,0.00,-0.05,-0.13,0.00,0.00,0.00,0.00,0.00,819,819,819,819
7095,0,0.00,0.02,0.00,0.00,-0.04,-0.11,0.00,0.00,0.00,0.00,0.00,819,819,819,819
7101,0,0.00,0.02,0.00,0.00,-0.04,-0.13,0.00,0.00,0.00,0.00,0.00,819,819,819,819
7107,0,0.00,0.02,0.00,0.00,-0.05,-0.13,0.00,0.00,0.00,0.00,0.00,819,819,819,819
7115,0,0.00,0.02,0.00,0.00,-0.04,-0.11,0.00,0.00,0.00,0.00,0.00,819,819,819,819
7122,0,0.00,0.02,0.00,0.00,-0.04,-0.11,0.00,0.00,0.00,0.00,0.00,819,819,819,819
7128,0,0.00,0.02,0.00,0.00,-0.04,-0.13,0.00,0.00,0.00,0.00,0.00,819,819,819,819
7135,0,0.00,0.02,0.00,0.00,-0.04,-0.11,0.00,0.00,0.00,0.00,0.00,819,819,819,819
7142,0,0.00,0.02,0.00,0.00,-0.04,-0.11,0.00,0.00,0.00,0.00,0.00,819,819,819,819
7148,0,0.00,0.02,0.00,0.00,-0.04,-0.12,0.00,0.00,0.00,0.00,0.00,819,819,819,819
7155,0,0.00,0.02,0.00,0.00,-0.04,-0.11,0.00,0.00,0.00,0.00,0.00,819,819,819,819
7162,0,0.00,0.02,0.00,0.00,-0.04,-0.11,0.00,0.00,0.00,0.00,0.00,819,819,819,819
7168,0,0.00,0.02,0.00,0.00,-0.05,-0.13,0.00,0.00,0.00,0.00,0.00,819,819,819,819
7320,0,0.00,0.02,0.00,0.00,-0.00,-0.00,0.00,0.00,0.00,0.00,0.00,819,819,819,819
7545,0,0.00,0.02,0.00,0.00,-0.00,-0.00,0.00,0.00,0.00,0.00,0.00,819,819,819,819
7779,0,0.00,0.02,0.00,0.00,-0.00,-0.00,0.00,0.00,0.00,0.00,0.00,819,819,819,819
8011,0,0.00,0.02,0.00,0.00,-0.00,-0.00,0.00,0.00,0.00,0.00,0.00,819,819,819,819
8255,0,0.00,0.02,0.00,0.00,-0.00,-0.00,0.00,0.00,0.00,0.00,0.00,819,819,819,819
8298,0,0.00,0.02,0.00,0.00,-0.00,-0.02,0.00,0.00,0.00,0.00,0.00,819,819,819,819
8305,0,0.00,0.02,0.00,0.00,-0.04,-0.13,0.00,0.00,0.00,0.00,0.00,819,819,819,819
8310,0,0.00,0.02,0.00,0.00,-0.05,-0.13,0.00,0.00,0.00,0.00,0.00,819,819,819,819
8317,0,0.00,0.02,0.00,0.00,-0.04,-0.11,0.00,0.00,0.00,0.00,0.00,819,819,819,819
8324,0,0.00,0.02,0.00,0.00,-0.04,-0.11,0.00,0.00,0.00,0.00,0.00,819,819,819,819
8330,0,0.00,0.02,0.00,0.00,-0.05,-0.13,0.00,0.00,0.00,0.00,0.00,819,819,819,819
8337,0,0.00,0.02,0.00,0.00,-0.04,-0.11,0.00,0.00,0.00,0.00,0.00,819,819,819,819
8344,0,0.00,0.02,0.00,0.00,-0.04,-0.11,0.00,0.00,0.00,0.00,0.00,819,819,819,819
8350,0,0.00,0.02,0.00,0.00,-0.05,-0.13,0.00,0.00,0.00,0.00,0.00,819,819,819,819
8357,0,0.00,0.02,0.00,0.00,-0.04,-0.11,0.00,0.00,0.00,0.00,0.00,819,819,819,819
8364,0,0.00,0.02,0.00,0.00,-0.04,-0.11,0.00,0.00,0.00,0.00,0.00,819,819,819,819
8370,0,0.00,0.02,0.00,0.00,-0.04,-0.12,0.00,0.00,0.00,0.00,0.00,819,819,819,819
8377,0,0.00,0.02,0.00,0.00,-0.04,-0.11,0.00,0.00,0.00,0.00,0.00,819,819,819,819
8384,0,0.00,0.02,0.00,0.00,-0.04,-0.11,0.00,0.00,0.00,0.00,0.00,819,819,819,819
8391,0,0.00,0.02,0.00,0.00,-0.04,-0.13,0.00,0.00,0.00,0.00,0.00,819,819,819,819
8398,0,0.00,0.02,0.00,0.00,-0.04,-0.10,0.00,0.00,0.00,0.00,0.00,819,819,819,819
8404,0,0.00,0.02,0.00,0.00,-0.04,-0.13,0.00,0.00,0.00,0.00,0.00,819,819,819,819
8410,0,0.00,0.02,0.00,0.00,-0.05,-0.13,0.00,0.00,0.00,0.00,0.00,819,819,819,819
8417,0,0.00,0.02,0.00,0.00,-0.04,-0.11,0.00,0.00,0.00,0.00,0.00,819,819,819,819
8425,0,0.00,0.02,0.00,0.00,-0.04,-0.11,0.00,0.00,0.00,0.00,0.00,819,819,819,819
8431,0,0.00,0.02,0.00,0.00,-0.04,-0.13,0.00,0.00,0.00,0.00,0.00,819,819,819,819
8438,0,0.00,0.02,0.00,0.00,-0.04,-0.11,0.00,0.00,0.00,0.00,0.00,819,819,819,819
8445,0,0.00,0.02,0.00,0.00,-0.04,-0.11,0.00,0.00,0.00,0.00,0.00,819,819,819,819
8451,0,0.00,0.02,0.00,0.00,-0.04,-0.12,0.00,0.00,0.00,0.00,0.00,819,819,819,819
8458,0,0.00,0.02,0.00,0.00,-0.04,-0.11,0.00,0.00,0.00,0.00,0.00,819,819,819,819
8465,0,0.00,0.02,0.00,0.00,-0.04,-0.11,0.00,0.00,0.00,0.00,0.00,819,819,819,819
8471,0,0.00,0.02,0.00,0.00,-0.04,-0.13,0.00,0.00,0.00,0.00,0.00,819,819,819,819
8478,0,0.00,0.02,0.00,0.00,-0.04,-0.11,0.00,0.00,0.00,0.00,0.00,819,819,819,819
8485,0,0.00,0.02,0.00,0.00,-0.04,-0.11,0.00,0.00,0.00,0.00,0.00,819,819,819,819
8491,0,0.00,0.02,0.00,0.00,-0.05,-0.13,0.00,0.00,0.00,0.00,0.00,819,819,819,819
8498,0,0.00,0.02,0.00,0.00,-0.04,-0.11,0.00,0.00,0.00,0.00,0.00,819,819,819,819
8508,0,0.00,0.02,0.00,0.00,-0.03,-0.08,0.00,0.00,0.00,0.00,0.00,819,819,819,819
8515,0,0.00,0.02,0.00,0.00,-0.04,-0.11,0.00,0.00,0.00,0.00,0.00,819,819,819,819
8521,0,0.00,0.02,0.00,0.00,-0.05,-0.13,0.00,0.00,0.00,0.00,0.00,819,819,819,819
8528,0,0.00,0.02,0.00,0.00,-0.04,-0.11,0.00,0.00,0.00,0.00,0.00,819,819,819,819
8535,0,0.00,0.02,0.00,0.00,-0.04,-0.11,0.00,0.00,0.00,0.00,0.00,819,819,819,819
8542,0,0.00,0.02,0.00,0.00,-0.04,-0.13,0.00,0.00,0.00,0.00,0.00,819,819,819,819
8549,0,0.00,0.02,0.00,0.00,-0.04,-0.11,0.00,0.00,0.00,0.00,0.00,819,819,819,819
8555,0,0.00,0.02,0.00,0.00,-0.04,-0.12,0.00,0.00,0.00,0.00,0.00,819,819,819,819
8561,0,0.00,0.02,0.00,0.00,-0.04,-0.12,0.00,0.00,0.00,0.00,0.00,819,819,819,819
8568,0,0.00,0.02,0.00,0.00,-0.04,-0.11,0.00,0.00,0.00,0.00,0.00,819,819,819,819
8575,0,0.00,0.02,0.00,0.00,-0.04,-0.11,0.00,0.00,0.00,0.00,0.00,819,819,819,819
8581,0,0.00,0.02,0.00,0.00,-0.04,-0.13,0.00,0.00,0.00,0.00,0.00,819,819,819,819
8588,0,0.00,0.02,0.00,0.00,-0.04,-0.11,0.00,0.00,0.00,0.00,0.00,819,819,819,819
8596,0,0.00,0.02,0.00,0.00,-0.04,-0.11,0.00,0.00,0.00,0.00,0.00,819,819,819,819
8602,0,0.00,0.02,0.00,0.00,-0.05,-0.13,0.00,0.00,0.00,0.00,0.00,819,819,819,819
8608,0,0.00,0.02,0.00,0.00,-0.04,-0.11,0.00,0.00,0.00,0.00,0.00,819,819,819,819
8615,0,0.00,0.02,0.00,0.00,-0.04,-0.11,0.00,0.00,0.00,0.00,0.00,819,819,819,819
8621,0,0.00,0.02,0.00,0.00,-0.05,-0.13,0.00,0.00,0.00,0.00,0.00,819,819,819,819
8628,0,0.00,0.02,0.00,0.00,-0.04,-0.11,0.00,0.00,0.00,0.00,0.00,819,819,819,819
8635,0,0.00,0.02,0.00,0.00,-0.04,-0.12,0.00,0.00,0.00,0.00,0.00,819,819,819,819
8641,0,0.00,0.02,0.00,0.00,-0.04,-0.12,0.00,0.00,0.00,0.00,0.00,819,819,819,819
8648,0,0.00,0.02,0.00,0.00,-0.04,-0.11,0.00,0.00,0.00,0.00,0.00,819,819,819,819
8654,0,0.00,0.02,0.00,0.00,-0.05,-0.13,0.00,0.00,0.00,0.00,0.00,819,819,819,819
8660,0,0.00,0.02,0.00,0.00,-0.05,-0.13,0.00,0.00,0.00,0.00,0.00,819,819,819,819
8666,0,0.00,0.02,0.00,0.00,-0.04,-0.11,0.00,0.00,0.00,0.00,0.00,819,819,819,819
8672,0,0.00,0.02,0.00,0.00,-0.05,-0.13,0.00,0.00,0.00,0.00,0.00,819,819,819,819
8679,0,0.00,0.02,0.00,0.00,-0.04,-0.12,0.00,0.00,0.00,0.00,0.00,819,819,819,819
8686,0,0.00,0.02,0.00,0.00,-0.04,-0.11,0.00,0.00,0.00,0.00,0.00,819,819,819,819
8692,0,0.00,0.02,0.00,0.00,-0.04,-0.13,0.00,0.00,0.00,0.00,0.00,819,819,819,819
8699,0,0.00,0.02,0.00,0.00,-0.04,-0.11,0.00,0.00,0.00,0.00,0.00,819,819,819,819
8705,0,0.00,0.02,0.00,0.00,-0.05,-0.13,0.00,0.00,0.00,0.00,0.00,819,819,819,819
8718,0,0.00,0.02,0.00,0.00,-0.02,-0.06,0.00,0.00,0.00,0.00,0.00,819,819,819,819
8725,0,0.00,0.02,0.00,0.00,-0.04,-0.10,0.00,0.00,0.00,0.00,0.00,819,819,819,819
8731,0,0.00,0.02,0.00,0.00,-0.05,-0.13,0.00,0.00,0.00,0.00,0.00,819,819,819,819
8738,0,0.00,0.02,0.00,0.00,-0.04,-0.11,0.00,0.00,0.00,0.00,0.00,819,819,819,819
8745,0,0.00,0.02,0.00,0.00,-0.04,-0.11,0.00,0.00,0.00,0.00,0.00,819,819,819,819
8752,0,0.00,0.02,0.00,0.00,-0.04,-0.13,0.00,0.00,0.00,0.00,0.00,819,819,819,819
8759,0,0.00,0.02,0.00,0.00,-0.04,-0.11,0.00,0.00,0.00,0.00,0.00,819,819,819,819
8766,0,0.00,0.02,0.00,0.00,-0.04,-0.11,0.00,0.00,0.00,0.00,0.00,819,819,819,819
8772,0,0.00,0.02,0.00,0.00,-0.04,-0.12,0.00,0.00,0.00,0.00,0.00,819,819,819,819
8779,0,0.00,0.02,0.00,0.00,-0.04,-0.11,0.00,0.00,0.00,0.00,0.00,819,819,819,819
8786,0,0.00,0.02,0.00,0.00,-0.04,-0.11,0.00,0.00,0.00,0.00,0.00,819,819,819,819
8792,0,0.00,0.02,0.00,0.00,-0.05,-0.13,0.00,0.00,0.00,0.00,0.00,819,819,819,819
8799,0,0.00,0.02,0.00,0.00,-0.04,-0.11,0.00,0.00,0.00,0.00,0.00,819,819,819,819
8805,0,0.00,0.02,0.00,0.00,-0.04,-0.13,0.00,0.00,0.00,0.00,0.00,819,819,819,819
8811,0,0.00,0.02,0.00,0.00,-0.05,-0.13,0.00,0.00,0.00,0.00,0.00,819,819,819,819
8818,0,0.00,0.02,0.00,0.00,-0.04,-0.11,0.00,0.00,0.00,0.00,0.00,819,819,819,819
8826,0,0.00,0.02,0.00,0.00,-0.04,-0.11,0.00,0.00,0.00,0.00,0.00,819,819,819,819
8832,0,0.00,0.02,0.00,0.00,-0.04,-0.13,0.00,0.00,0.00,0.00,0.00,819,819,819,819
8839,0,0.00,0.02,0.00,0.00,-0.04,-0.11,0.00,0.00,0.00,0.00,0.00,819,819,819,819
8846,0,0.00,0.02,0.00,0.00,-0.04,-0.11,0.00,0.00,0.00,0.00,0.00,819,819,819,819
8852,0,0.00,0.02,0.00,0.00,-0.04,-0.12,0.00,0.00,0.00,0.00,0.00,819,819,819,819
8859,0,0.00,0.02,0.00,0.00,-0.04,-0.12,0.00,0.00,0.00,0.00,0.00,819,819,819,819
8866,0,0.00,0.02,0.00,0.00,-0.04,-0.11,0.00,0.00,0.00,0.00,0.00,819,819,819,819
8872,0,0.00,0.02,0.00,0.00,-0.05,-0.13,0.00,0.00,0.00,0.00,0.00,819,819,819,819
8879,0,0.00,0.02,0.00,0.00,-0.04,-0.11,0.00,0.00,0.00,0.00,0.00,819,819,819,819
8886,0,0.00,0.02,0.00,0.00,-0.04,-0.11,0.00,0.00,0.00,0.00,0.00,819,819,819,819
8892,0,0.00,0.02,0.00,0.00,-0.05,-0.13,0.00,0.00,0.00,0.00,0.00,819,819,819,819
8899,0,0.00,0.02,0.00,0.00,-0.04,-0.11,0.00,0.00,0.00,0.00,0.00,819,819,819,819
8906,0,0.00,0.02,0.00,0.00,-0.04,-0.12,0.00,0.00,0.00,0.00,0.00,819,819,819,819
8912,0,0.00,0.02,0.00,0.00,-0.04,-0.13,0.00,0.00,0.00,0.00,0.00,819,819,819,819
8919,0,0.00,0.02,0.00,0.00,-0.04,-0.11,0.00,0.00,0.00,0.00,0.00,819,819,819,819
8931,0,0.00,0.02,0.00,0.00,-0.02,-0.07,0.00,0.00,0.00,0.00,0.00,819,819,819,819
8938,0,0.00,0.02,0.00,0.00,-0.04,-0.10,0.00,0.00,0.00,0.00,0.00,819,819,819,819
8945,0,0.00,0.02,0.00,0.00,-0.04,-0.11,0.00,0.00,0.00,0.00,0.00,819,819,819,819
8951,0,0.00,0.02,0.00,0.00,-0.05,-0.13,0.00,0.00,0.00,0.00,0.00,819,819,819,819
8958,0,0.00,0.02,0.00,0.00,-0.04,-0.11,0.00,0.00,0.00,0.00,0.00,819,819,819,819
8965,0,0.00,0.02,0.00,0.00,-0.04,-0.11,0.00,0.00,0.00,0.00,0.00,819,819,819,819
8971,0,0.00,0.02,0.00,0.00,-0.05,-0.13,0.00,0.00,0.00,0.00,0.00,819,819,819,819
8978,0,0.00,0.02,0.00,0.00,-0.04,-0.11,0.00,0.00,0.00,0.00,0.00,819,819,819,819
8986,0,0.00,0.02,0.00,0.00,-0.04,-0.11,0.00,0.00,0.00,0.00,0.00,819,819,819,819
8991,0,0.00,0.02,0.00,0.00,-0.05,-0.13,0.00,0.00,0.00,0.00,0.00,819,819,819,819
8998,0,0.00,0.02,0.00,0.00,-0.04,-0.11,0.00,0.00,0.00,0.00,0.00,819,819,819,819
9004,0,0.00,0.02,0.00,0.00,-0.05,-0.13,0.00,0.00,0.00,0.00,0.00,819,819,819,819
9010,0,0.00,0.02,0.00,0.00,-0.05,-0.13,0.00,0.00,0.00,0.00,0.00,819,819,819,819
9017,0,0.00,0.02,0.00,0.00,-0.04,-0.11,0.00,0.00,0.00,0.00,0.00,819,819,819,819
9023,0,0.00,0.02,0.00,0.00,-0.05,-0.13,0.00,0.00,0.00,0.00,0.00,819,819,819,819
9030,0,0.00,0.02,0.00,0.00,-0.04,-0.11,0.00,0.00,0.00,0.00,0.00,819,819,819,819
9037,0,0.00,0.02,0.00,0.00,-0.04,-0.11,0.00,0.00,0.00,0.00,0.00,819,819,819,819
9043,0,0.00,0.02,0.00,0.00,-0.04,-0.12,0.00,0.00,0.00,0.00,0.00,819,819,819,819
9050,0,0.00,0.02,0.00,0.00,-0.04,-0.11,0.00,0.00,0.00,0.00,0.00,819,819,819,819
9056,0,0.00,0.02,0.00,0.00,-0.05,-0.13,0.00,0.00,0.00,0.00,0.00,819,819,819,819
9062,0,0.00,0.02,0.00,0.00,-0.04,-0.13,0.00,0.00,0.00,0.00,0.00,819,819,819,819
9069,0,0.00,0.02,0.00,0.00,-0.04,-0.11,0.00,0.00,0.00,0.00,0.00,819,819,819,819
9076,0,0.00,0.02,0.00,0.00,-0.04,-0.11,0.00,0.00,0.00,0.00,0.00,819,819,819,819
9082,0,0.00,0.02,0.00,0.00,-0.05,-0.13,0.00,0.00,0.00,0.00,0.00,819,819,819,819
9090,0,0.00,0.02,0.00,0.00,-0.04,-0.11,0.00,0.00,0.00,0.00,0.00,819,819,819,819
9097,0,0.00,0.02,0.00,0.00,-0.04,-0.11,0.00,0.00,0.00,0.00,0.00,819,819,819,819
9103,0,0.00,0.02,0.00,0.00,-0.05,-0.13,0.00,0.00,0.00,0.00,0.00,819,819,819,819
9110,0,0.00,0.02,0.00,0.00,-0.04,-0.11,0.00,0.00,0.00,0.00,0.00,819,819,819,819
9117,0,0.00,0.02,0.00,0.01,-0.04,-0.11,0.00,0.00,0.00,0.00,0.00,819,819,819,819
9123,0,0.00,0.02,0.00,0.01,-0.04,-0.13,0.00,0.00,0.00,0.00,0.00,819,819,819,819
9130,0,0.00,0.02,0.00,0.01,-0.04,-0.11,0.00,0.00,0.00,0.00,0.00,819,819,819,819
9139,0,0.00,0.02,0.00,0.04,-0.03,-0.08,0.00,-0.02,0.15,-0.08,0.09,835,939,835,891
9147,0,0.00,0.02,0.00,0.04,-0.00,-0.00,0.00,0.04,0.04,0.04,0.04,851,853,850,852
9153,0,0.00,0.02,0.00,0.04,-0.00,-0.00,0.00,0.04,0.05,0.04,0.04,854,856,853,855
9160,0,0.00,0.02,0.00,0.05,-0.00,-0.00,0.00,0.05,0.05,0.04,0.05,856,859,855,858
9167,0,0.00,0.02,0.00,0.05,-0.00,-0.00,0.00,0.05,0.05,0.04,0.05,856,859,855,858
9173,0,0.00,0.02,0.00,0.05,-0.00,-0.00,0.00,0.05,0.05,0.04,0.05,856,859,855,858
9180,0,0.00,0.02,0.00,0.05,-0.00,-0.00,0.00,0.05,0.05,0.04,0.05,856,859,855,858
9187,0,0.00,0.02,0.00,0.05,-0.00,-0.00,0.00,0.05,0.05,0.04,0.05,856,859,855,858
9193,0,0.00,0.02,0.00,0.05,-0.00,-0.00,0.00,0.05,0.06,0.05,0.05,861,864,860,863
9200,0,0.00,0.02,0.00,0.05,-0.00,-0.00,0.00,0.05,0.06,0.05,0.05,861,864,860,863
9207,0,0.00,0.02,0.00,0.05,-0.00,-0.00,0.00,0.05,0.06,0.05,0.05,862,865,861,864
9213,0,0.00,0.02,0.00,0.05,-0.00,-0.00,0.00,0.05,0.06,0.05,0.05,862,865,861,864
9220,0,0.00,0.02,0.00,0.05,-0.00,-0.00,0.00,0.05,0.06,0.05,0.05,862,865,861,864
9227,0,0.00,0.02,0.00,0.05,-0.00,-0.00,0.00,0.05,0.06,0.05,0.05,862,865,861,864
9234,0,0.00,0.02,0.00,0.05,-0.00,-0.00,0.00,0.05,0.06,0.05,0.05,862,865,861,864
9240,0,0.00,0.02,0.00,0.05,-0.00,-0.00,0.00,0.05,0.06,0.05,0.05,862,865,861,864
9248,0,0.00,0.02,0.00,0.05,-0.00,-0.00,0.00,0.05,0.06,0.05,0.05,862,865,861,864
9254,0,0.00,0.02,0.00,0.05,-0.00,-0.00,0.00,0.05,0.06,0.05,0.05,862,865,861,864
9260,0,0.00,0.02,0.00,0.05,-0.00,-0.00,0.00,0.05,0.06,0.05,0.05,862,865,861,864
9268,0,0.00,0.02,0.00,0.05,-0.00,-0.00,0.00,0.05,0.06,0.05,0.05,862,865,861,864
9274,0,0.00,0.02,0.00,0.05,-0.00,-0.00,0.00,0.05,0.06,0.05,0.05,862,865,861,864
9281,0,0.00,0.02,0.00,0.05,-0.00,-0.00,0.00,0.05,0.06,0.05,0.05,862,865,861,864
9288,0,0.00,0.02,0.00,0.05,-0.00,-0.00,0.00,0.05,0.06,0.05,0.05,862,865,861,864
9294,0,0.00,0.02,0.00,0.05,-0.00,-0.00,0.00,0.05,0.06,0.05,0.05,862,865,861,864
9300,0,0.00,0.02,0.00,0.05,-0.00,-0.00,0.00,0.05,0.06,0.05,0.05,862,865,861,864
9306,0,0.00,0.02,0.00,0.05,-0.00,-0.00,0.00,0.05,0.06,0.05,0.05,862,865,861,864
9312,0,0.00,0.02,0.00,0.05,-0.00,-0.00,0.00,0.05,0.06,0.05,0.05,862,865,861,864
9319,0,0.00,0.02,0.00,0.05,-0.00,-0.00,0.00,0.05,0.06,0.05,0.05,862,865,861,864
9329,0,0.00,0.02,0.00,0.05,-0.00,-0.00,0.00,0.05,0.06,0.05,0.05,862,865,861,864
9336,0,0.00,0.02,0.00,0.05,-0.00,-0.00,0.00,0.05,0.06,0.05,0.05,862,865,861,864
9348,0,0.00,0.02,0.00,0.05,-0.00,-0.00,0.00,0.05,0.06,0.05,0.05,862,865,861,864
9354,0,0.00,0.02,0.00,0.07,-0.00,-0.00,0.00,0.07,0.07,0.07,0.07,874,877,873,876
9361,0,0.00,0.02,0.00,0.07,-0.00,-0.00,0.00,0.07,0.07,0.07,0.07,876,879,875,878
9368,0,0.00,0.02,0.00,0.07,-0.00,-0.00,0.00,0.07,0.07,0.07,0.07,876,879,875,878
9374,0,0.00,0.02,0.00,0.07,-0.00,-0.00,0.00,0.07,0.07,0.07,0.07,876,879,875,878
9381,0,0.00,0.02,0.00,0.07,-0.00,-0.00,0.00,0.07,0.07,0.07,0.07,876,879,875,878
9388,0,0.00,0.02,0.00,0.07,-0.00,-0.00,0.00,0.07,0.07,0.07,0.07,876,879,875,878
9394,0,0.00,0.02,0.00,0.08,-0.00,-0.00,0.00,0.08,0.09,0.08,0.08,887,889,886,888
9401,0,0.00,0.02,0.00,0.08,-0.00,-0.00,0.00,0.08,0.09,0.08,0.08,887,889,886,888
9407,0,0.00,0.02,0.00,0.08,-0.00,-0.00,0.00,0.08,0.09,0.08,0.08,887,889,886,888
9414,0,0.00,0.02,0.00,0.10,-0.00,-0.00,0.00,0.09,0.10,0.09,0.10,896,898,895,897
9421,0,0.00,0.02,0.00,0.10,-0.00,-0.00,0.00,0.09,0.10,0.09,0.10,896,898,895,897
9428,0,0.00,0.02,0.00,0.10,-0.00,-0.00,0.00,0.09,0.10,0.09,0.10,896,898,895,897
9434,0,0.00,0.02,0.00,0.10,-0.00,-0.00,0.00,0.09,0.10,0.09,0.10,896,898,895,897
9441,0,0.00,0.02,0.00,0.10,-0.00,-0.00,0.00,0.09,0.10,0.09,0.10,896,898,895,897
9448,0,0.00,0.02,0.00,0.11,-0.00,-0.00,0.00,0.11,0.11,0.11,0.11,909,911,908,910
9454,0,0.00,0.02,0.00,0.12,-0.00,-0.00,0.00,0.11,0.12,0.11,0.12,912,915,911,914
9461,0,0.00,0.02,0.00,0.12,-0.00,-0.00,0.00,0.11,0.12,0.11,0.12,912,915,911,914
9468,0,0.00,0.02,0.00,0.12,-0.00,-0.00,0.00,0.12,0.12,0.12,0.12,916,919,915,918
9474,0,0.00,0.01,0.00,0.12,-0.00,0.00,0.00,0.13,0.11,0.13,0.11,923,911,923,910
9481,0,0.00,0.01,0.00,0.12,-0.00,-0.00,0.00,0.12,0.12,0.12,0.12,916,919,915,918
9488,0,0.00,0.01,0.00,0.12,-0.00,-0.00,0.00,0.12,0.12,0.12,0.12,916,919,915,918
9494,0,0.00,0.01,0.00,0.13,-0.00,-0.00,-0.00,0.12,0.14,0.14,0.12,917,934,931,919
9501,0,0.00,0.01,0.00,0.13,-0.00,-0.00,-0.00,0.13,0.13,0.13,0.13,925,928,924,927
9507,0,0.00,0.01,0.00,0.13,-0.00,-0.00,-0.00,0.13,0.14,0.13,0.13,927,929,926,928
9513,0,0.00,0.01,0.00,0.13,-0.00,-0.00,-0.00,0.13,0.14,0.13,0.13,928,930,927,929
9521,0,0.00,0.01,0.00,0.13,-0.00,-0.00,-0.00,0.13,0.14,0.13,0.13,928,930,927,929
9528,0,0.00,0.01,0.00,0.13,-0.00,-0.00,-0.00,0.13,0.14,0.13,0.13,928,930,927,929
9534,0,0.00,0.01,0.00,0.13,-0.00,-0.00,-0.00,0.13,0.14,0.13,0.13,928,930,927,929
9541,0,0.00,0.01,0.00,0.13,-0.00,-0.00,-0.00,0.13,0.14,0.13,0.13,928,930,927,929
9548,0,0.00,0.01,0.00,0.14,-0.00,-0.00,-0.00,0.14,0.14,0.14,0.14,934,937,933,936
9561,0,0.00,0.01,0.00,0.14,-0.00,-0.00,-0.00,0.14,0.14,0.14,0.14,934,937,933,936
9568,0,0.00,0.01,0.00,0.14,-0.00,-0.00,-0.00,0.14,0.15,0.14,0.15,937,939,936,938
9575,0,0.00,0.01,0.00,0.14,-0.00,-0.00,-0.00,0.14,0.15,0.14,0.15,937,939,936,938
9581,0,0.00,0.01,0.00,0.14,-0.00,-0.00,-0.00,0.14,0.15,0.14,0.15,937,939,936,938
9588,0,0.00,0.01,0.00,0.14,-0.00,-0.00,-0.00,0.14,0.15,0.14,0.15,937,939,936,938
9595,0,0.00,0.01,0.00,0.14,-0.00,-0.00,-0.00,0.14,0.15,0.14,0.15,937,939,936,938
9601,0,0.00,0.01,0.00,0.14,-0.00,-0.00,-0.00,0.14,0.15,0.14,0.15,937,939,936,938
9608,0,0.00,0.01,0.00,0.14,-0.00,-0.00,-0.00,0.14,0.15,0.14,0.15,937,939,936,938
9614,0,0.00,0.01,0.00,0.14,-0.00,-0.00,-0.00,0.14,0.15,0.14,0.15,937,939,936,938
9621,0,0.00,0.01,0.00,0.14,-0.00,-0.00,-0.00,0.14,0.15,0.14,0.15,937,939,936,938
9628,0,0.00,0.01,0.00,0.14,-0.00,-0.00,-0.00,0.14,0.15,0.14,0.15,937,939,936,938
9634,0,0.00,0.02,0.00,0.14,-0.00,-0.01,-0.00,0.14,0.16,0.13,0.15,937,954,921,938
9641,0,0.00,0.02,0.00,0.14,-0.00,-0.00,-0.00,0.14,0.15,0.14,0.15,937,939,936,938
9648,0,0.00,0.02,0.00,0.14,-0.00,-0.00,-0.00,0.14,0.15,0.14,0.15,937,939,936,938
9654,0,0.00,0.02,0.00,0.14,-0.00,-0.00,-0.00,0.14,0.15,0.14,0.15,937,939,936,938
9660,0,0.00,0.02,0.00,0.14,-0.00,-0.00,-0.00,0.14,0.15,0.14,0.15,937,939,936,938
9667,0,0.00,0.02,0.00,0.14,-0.00,-0.00,-0.00,0.14,0.15,0.14,0.15,937,939,936,938
9673,0,0.00,0.02,0.00,0.14,-0.00,-0.00,-0.00,0.14,0.15,0.14,0.15,937,939,936,938
9680,0,0.00,0.02,0.00,0.14,-0.00,-0.00,-0.00,0.14,0.15,0.14,0.15,937,939,936,938
9687,0,0.00,0.02,0.00,0.14,-0.00,-0.00,-0.00,0.15,0.16,0.14,0.14,943,946,929,932
9693,0,0.00,0.02,0.00,0.14,-0.00,-0.00,0.00,0.15,0.14,0.13,0.15,944,932,928,946
9700,0,0.00,0.02,0.00,0.14,-0.00,-0.00,-0.00,0.14,0.15,0.14,0.15,937,939,936,938
9706,0,0.00,0.02,0.00,0.14,-0.00,-0.00,-0.00,0.14,0.15,0.14,0.15,937,939,936,938
9712,0,0.00,0.02,0.00,0.14,-0.01,-0.00,-0.00,0.15,0.16,0.13,0.14,944,947,928,931
9718,0,0.00,0.02,0.00,0.14,-0.00,-0.00,-0.00,0.14,0.15,0.14,0.15,937,939,935,938
9724,0,0.00,0.02,0.00,0.14,-0.00,-0.00,-0.00,0.14,0.15,0.14,0.15,937,939,935,938
9731,0,0.00,0.02,0.00,0.14,-0.00,-0.00,-0.00,0.14,0.15,0.14,0.15,937,939,935,938
9738,0,0.00,0.02,0.00,0.14,-0.00,-0.00,-0.00,0.14,0.15,0.14,0.15,937,939,935,938
9744,0,0.00,0.02,0.00,0.14,-0.00,-0.00,-0.00,0.14,0.15,0.14,0.15,937,939,935,938
9752,0,0.00,0.02,0.00,0.14,-0.00,-0.00,-0.00,0.14,0.15,0.14,0.15,937,939,935,938
9758,0,0.01,0.02,0.00,0.14,-0.00,-0.00,-0.00,0.15,0.16,0.13,0.14,944,946,929,931
9771,0,0.01,0.02,0.00,0.14,-0.00,-0.00,-0.00,0.14,0.15,0.14,0.15,937,939,935,938
9779,0,0.01,0.02,0.00,0.14,-0.00,-0.00,-0.00,0.14,0.15,0.14,0.15,937,939,935,938
9786,0,0.01,0.01,0.00,0.14,-0.00,0.00,-0.00,0.15,0.14,0.15,0.14,944,933,942,931
9792,0,0.01,0.01,0.00,0.14,-0.01,-0.00,-0.00,0.15,0.16,0.13,0.14,944,946,928,931
9799,0,0.01,0.01,0.00,0.14,-0.00,-0.00,-0.00,0.14,0.15,0.14,0.14,936,939,935,937
9805,0,0.01,0.01,0.00,0.14,-0.00,-0.00,-0.00,0.14,0.15,0.14,0.14,936,939,935,937
9812,0,0.01,0.01,0.00,0.14,-0.00,-0.00,-0.00,0.14,0.15,0.14,0.14,936,939,935,937
9819,0,0.01,0.01,0.00,0.14,-0.00,-0.00,-0.00,0.14,0.15,0.14,0.14,936,939,935,937
9826,0,0.01,0.01,0.00,0.14,-0.00,-0.00,-0.00,0.14,0.15,0.14,0.15,937,939,935,938
9832,0,0.01,0.01,0.00,0.14,-0.00,-0.00,-0.00,0.14,0.15,0.14,0.15,937,939,935,938
9839,0,0.01,0.01,0.00,0.14,-0.00,-0.00,-0.00,0.14,0.15,0.14,0.14,936,939,935,937
9846,0,0.01,0.01,0.00,0.14,-0.00,-0.00,-0.00,0.15,0.16,0.13,0.14,944,946,929,931
9853,0,0.01,0.01,0.00,0.14,-0.00,-0.00,-0.00,0.14,0.15,0.14,0.14,936,939,934,937
9859,0,0.01,0.01,0.00,0.14,-0.00,-0.00,-0.00,0.14,0.15,0.14,0.14,936,939,934,937
9865,0,0.01,0.01,0.00,0.14,-0.00,-0.00,-0.00,0.14,0.15,0.14,0.14,936,939,934,937
9872,0,0.01,0.01,0.00,0.14,-0.00,-0.00,-0.00,0.14,0.15,0.14,0.14,936,939,934,937
9879,0,0.01,0.01,0.00,0.14,-0.00,-0.00,-0.00,0.14,0.15,0.14,0.14,936,939,934,937
9885,0,0.01,0.01,0.00,0.14,-0.01,-0.00,-0.00,0.15,0.16,0.13,0.14,944,946,927,929
9892,0,0.01,0.01,0.00,0.14,-0.00,-0.00,-0.00,0.14,0.15,0.14,0.14,937,939,934,937
9899,0,0.01,0.01,0.00,0.14,-0.00,-0.00,-0.00,0.14,0.15,0.14,0.14,937,939,934,937
9905,0,0.01,0.01,0.00,0.14,-0.00,-0.00,-0.00,0.14,0.15,0.14,0.14,937,939,934,937
9912,0,0.01,0.01,0.00,0.14,-0.00,-0.00,-0.00,0.14,0.15,0.14,0.14,937,939,934,937
9919,0,0.01,0.01,0.00,0.14,-0.00,-0.00,-0.00,0.14,0.15,0.14,0.14,937,939,934,937
9925,0,0.01,0.01,0.00,0.14,-0.00,-0.00,-0.00,0.14,0.15,0.14,0.14,937,939,934,937
9932,0,0.01,0.01,0.00,0.14,-0.00,-0.00,-0.00,0.14,0.15,0.14,0.14,937,939,934,937
9939,0,0.01,0.01,0.00,0.14,-0.00,-0.00,-0.00,0.14,0.15,0.14,0.15,937,940,935,938
9946,0,0.01,0.01,0.00,0.14,-0.01,-0.00,-0.00,0.15,0.16,0.13,0.14,944,947,928,931
9953,0,0.01,0.01,0.00,0.14,-0.00,-0.00,-0.00,0.14,0.15,0.14,0.15,937,940,935,937
9960,0,0.01,0.01,0.00,0.14,-0.00,-0.00,-0.00,0.14,0.15,0.14,0.15,937,940,935,937
9967,0,0.01,0.01,0.00,0.14,-0.00,-0.00,-0.00,0.14,0.15,0.14,0.15,937,940,935,937
9973,0,0.01,0.01,0.00,0.14,-0.00,-0.00,-0.00,0.14,0.15,0.14,0.15,937,940,935,937
9984,0,0.01,0.01,0.00,0.14,-0.00,-0.00,-0.00,0.14,0.15,0.14,0.15,937,940,935,937
9992,0,0.01,0.01,0.00,0.14,-0.00,-0.00,-0.00,0.14,0.15,0.14,0.15,937,940,935,937
9999,0,0.01,0.01,0.00,0.14,-0.00,-0.00,-0.00,0.14,0.15,0.14,0.15,937,940,935,937
10005,0,0.01,0.01,0.00,0.14,-0.00,-0.00,-0.00,0.14,0.15,0.14,0.15,937,940,935,937
10012,0,0.01,0.01,0.00,0.14,-0.00,-0.00,-0.00,0.14,0.15,0.14,0.15,937,940,935,937
10019,0,0.01,0.01,0.00,0.14,0.00,-0.00,-0.00,0.14,0.14,0.15,0.15,931,934,941,944
10025,0,0.01,0.01,0.00,0.14,-0.00,-0.00,-0.00,0.14,0.15,0.14,0.14,937,939,934,937
10032,0,0.01,0.01,0.00,0.14,-0.00,-0.00,-0.00,0.14,0.15,0.14,0.14,937,939,934,937
10039,0,0.01,0.01,0.00,0.14,-0.00,-0.00,-0.00,0.14,0.15,0.14,0.15,937,940,935,938
10045,0,0.01,0.01,0.00,0.14,-0.01,-0.00,-0.00,0.15,0.16,0.13,0.13,944,946,927,929
10052,0,0.01,0.01,0.00,0.14,-0.00,-0.00,-0.00,0.14,0.15,0.14,0.14,937,939,934,937
10058,0,0.01,0.01,0.00,0.14,-0.00,-0.00,-0.00,0.14,0.15,0.14,0.14,937,939,934,937
10064,0,0.01,0.01,0.00,0.14,-0.00,-0.00,-0.00,0.14,0.15,0.14,0.14,937,939,934,937
10072,0,0.01,0.01,0.00,0.14,-0.00,-0.00,-0.00,0.14,0.15,0.14,0.14,937,939,934,937
10079,0,0.01,0.01,0.00,0.14,-0.00,-0.00,-0.00,0.14,0.15,0.14,0.14,937,939,934,937
10085,0,0.01,0.01,0.00,0.14,-0.00,-0.00,-0.00,0.14,0.15,0.14,0.14,937,939,934,937
10092,0,0.01,0.01,0.00,0.14,-0.00,-0.00,-0.00,0.14,0.15,0.14,0.14,937,939,934,937
10099,0,0.01,0.01,0.00,0.14,-0.00,-0.00,-0.00,0.14,0.15,0.14,0.14,937,939,934,937
10105,0,0.01,0.01,0.00,0.14,-0.00,-0.00,-0.00,0.14,0.15,0.14,0.14,937,939,934,937
10112,0,0.01,0.01,0.00,0.14,-0.00,-0.00,-0.00,0.14,0.15,0.14,0.14,937,939,934,937
10120,0,0.01,0.01,0.00,0.14,-0.00,-0.00,-0.00,0.14,0.15,0.14,0.14,937,939,934,937
10126,0,0.01,0.01,0.00,0.14,-0.00,0.00,-0.00,0.15,0.14,0.15,0.14,943,932,941,930
10133,0,0.01,0.01,0.00,0.14,-0.00,-0.00,-0.00,0.15,0.15,0.14,0.14,938,940,935,937
10140,0,0.01,0.01,0.00,0.14,-0.00,-0.00,-0.00,0.14,0.15,0.14,0.14,937,939,934,937
10147,0,0.01,0.01,0.00,0.14,-0.00,-0.00,-0.00,0.15,0.15,0.14,0.14,938,940,935,937
10153,0,0.01,0.01,0.00,0.14,-0.00,-0.00,-0.00,0.15,0.15,0.14,0.14,938,940,935,937
10160,0,0.01,0.01,0.00,0.14,-0.00,-0.00,-0.00,0.15,0.15,0.14,0.14,938,940,935,937
10167,0,0.01,0.01,0.00,0.14,-0.00,-0.00,-0.00,0.15,0.15,0.14,0.14,938,940,935,937
10174,0,0.01,0.01,0.00,0.14,-0.00,-0.00,-0.00,0.15,0.15,0.14,0.14,938,940,935,937
10181,0,0.01,0.01,0.00,0.14,-0.00,-0.00,-0.00,0.15,0.15,0.14,0.14,938,940,935,937
10188,0,0.01,0.01,0.00,0.14,-0.00,-0.00,-0.00,0.15,0.15,0.14,0.14,938,940,935,937
10197,0,0.01,0.01,0.00,0.14,-0.00,-0.00,-0.00,0.15,0.15,0.14,0.14,938,940,935,937
10204,0,0.01,0.01,0.00,0.14,-0.00,-0.00,-0.00,0.15,0.15,0.14,0.14,938,940,935,937
10211,0,0.01,0.01,0.00,0.14,-0.00,-0.00,-0.00,0.15,0.15,0.14,0.14,938,940,935,937
10218,0,0.01,0.01,0.00,0.14,-0.00,-0.00,-0.00,0.14,0.15,0.14,0.14,937,939,934,937
10224,0,0.01,0.01,0.00,0.14,-0.00,-0.00,-0.00,0.14,0.15,0.14,0.14,937,939,934,937
10231,0,0.01,0.01,0.00,0.14,-0.00,-0.00,-0.00,0.14,0.15,0.14,0.14,937,939,934,937
10239,0,0.01,0.01,0.00,0.14,-0.00,-0.00,-0.00,0.14,0.15,0.14,0.14,937,939,934,937
10245,0,0.01,0.01,0.00,0.14,-0.00,-0.00,-0.00,0.15,0.15,0.14,0.14,938,940,935,937
10252,0,0.01,0.01,0.00,0.14,-0.00,-0.00,-0.00,0.15,0.15,0.14,0.14,938,940,935,937
10258,0,0.01,0.01,0.00,0.14,-0.00,-0.00,-0.00,0.15,0.15,0.14,0.14,938,940,935,937
10264,0,0.01,0.01,0.00,0.14,-0.00,-0.00,-0.00,0.15,0.15,0.14,0.14,938,940,935,937
10272,0,0.01,0.01,0.00,0.14,-0.00,-0.00,-0.00,0.14,0.15,0.14,0.14,937,939,934,937
10279,0,0.01,0.01,0.00,0.14,-0.00,-0.00,-0.00,0.15,0.15,0.14,0.14,938,940,935,937
10285,0,0.01,0.01,0.00,0.14,-0.00,-0.00,-0.00,0.15,0.15,0.14,0.14,938,940,935,937
10292,0,0.01,0.01,0.00,0.14,-0.00,-0.00,-0.00,0.15,0.15,0.14,0.14,938,940,935,937
10300,0,0.01,0.01,0.00,0.14,-0.00,-0.00,-0.00,0.15,0.15,0.14,0.14,938,940,935,937
10306,0,0.01,0.01,0.00,0.14,-0.00,-0.00,-0.00,0.15,0.15,0.14,0.14,938,940,935,937
10313,0,0.01,0.01,0.00,0.14,-0.00,-0.00,-0.00,0.15,0.15,0.14,0.14,938,940,935,937
10320,0,0.01,0.01,0.00,0.14,0.00,-0.00,-0.00,0.14,0.14,0.15,0.15,931,933,942,944
10326,0,0.01,0.01,0.00,0.14,-0.01,-0.00,-0.00,0.15,0.16,0.13,0.14,945,947,928,930
10333,0,0.01,0.01,0.00,0.14,-0.00,-0.00,-0.00,0.15,0.15,0.14,0.14,938,940,935,937
10340,0,0.01,0.01,0.00,0.14,-0.00,-0.00,-0.00,0.15,0.15,0.14,0.14,938,940,935,937
10346,0,0.01,0.01,0.00,0.14,-0.00,-0.00,-0.00,0.14,0.15,0.14,0.14,937,939,934,937
10353,0,0.01,0.01,0.00,0.14,-0.00,-0.00,-0.00,0.14,0.15,0.14,0.14,937,939,934,937
10359,0,0.01,0.01,0.00,0.14,-0.00,-0.01,-0.00,0.14,0.16,0.13,0.15,930,946,927,944
10365,0,0.01,0.01,0.00,0.14,-0.00,-0.00,-0.00,0.14,0.15,0.14,0.14,937,939,934,937
10372,0,0.01,0.01,0.00,0.14,-0.00,-0.00,-0.00,0.14,0.15,0.14,0.14,937,939,934,937
10379,0,0.01,0.01,0.00,0.14,-0.00,-0.00,-0.00,0.14,0.15,0.14,0.14,937,939,934,937
10385,0,0.01,0.01,0.00,0.14,-0.00,-0.00,-0.00,0.14,0.15,0.14,0.14,937,939,934,937
10392,0,0.01,0.01,0.00,0.14,-0.00,-0.00,-0.00,0.14,0.15,0.14,0.15,937,940,935,937
10399,0,0.01,0.01,0.00,0.14,-0.00,-0.00,-0.00,0.14,0.15,0.14,0.15,937,940,935,937
10410,0,0.01,0.01,0.00,0.14,-0.00,-0.00,-0.00,0.14,0.15,0.14,0.15,937,940,935,937
10418,0,0.01,0.01,0.00,0.14,-0.00,-0.00,-0.00,0.14,0.15,0.14,0.14,937,939,934,937
10424,0,0.01,0.01,0.00,0.14,-0.00,-0.00,-0.00,0.14,0.15,0.14,0.14,937,939,934,937
10431,0,0.01,0.01,0.00,0.14,-0.00,-0.00,-0.00,0.14,0.15,0.14,0.14,937,939,934,937
10438,0,0.01,0.01,0.00,0.14,0.00,-0.00,-0.00,0.14,0.14,0.15,0.15,930,933,941,943
10445,0,0.01,0.01,0.00,0.14,-0.01,-0.00,-0.00,0.15,0.16,0.13,0.14,944,946,927,929
10452,0,0.01,0.01,0.00,0.14,-0.00,-0.00,-0.00,0.14,0.15,0.14,0.14,937,939,934,937
10458,0,0.01,0.01,0.00,0.14,-0.00,-0.00,-0.00,0.14,0.15,0.14,0.14,937,939,934,937
10464,0,0.01,0.01,0.00,0.14,-0.00,-0.00,-0.00,0.14,0.15,0.14,0.14,937,939,934,937
10471,0,0.01,0.01,0.00,0.14,-0.00,-0.00,-0.00,0.14,0.15,0.14,0.15,937,940,935,937
10479,0,0.01,0.01,0.00,0.14,-0.00,-0.00,-0.00,0.14,0.15,0.14,0.14,937,939,934,937
10485,0,0.01,0.01,0.00,0.14,-0.00,-0.00,-0.00,0.14,0.15,0.14,0.14,937,939,934,937
10492,0,0.01,0.01,0.00,0.14,-0.00,-0.00,-0.00,0.14,0.15,0.14,0.14,937,939,934,937
10499,0,0.01,0.01,0.00,0.14,-0.00,-0.00,-0.00,0.14,0.15,0.14,0.14,937,939,934,937
10505,0,0.01,0.01,0.00,0.14,-0.00,-0.00,-0.00,0.14,0.15,0.14,0.14,937,939,934,937
10512,0,0.01,0.01,0.00,0.14,-0.00,-0.00,-0.00,0.14,0.15,0.14,0.14,937,939,934,937
10518,0,0.01,0.01,0.00,0.14,0.00,-0.00,-0.00,0.14,0.14,0.15,0.15,929,932,942,944
10524,0,0.01,0.01,0.00,0.14,-0.01,-0.00,-0.00,0.15,0.16,0.13,0.14,944,946,927,929
10531,0,0.01,0.01,0.00,0.14,-0.00,-0.00,-0.00,0.14,0.15,0.14,0.15,937,940,935,937
10538,0,0.01,0.01,0.00,0.14,-0.00,-0.00,-0.00,0.14,0.15,0.14,0.14,937,939,934,937
10544,0,0.01,0.01,0.00,0.14,-0.00,-0.00,-0.00,0.14,0.15,0.14,0.14,937,939,934,937
10552,0,0.01,0.01,0.00,0.14,-0.00,-0.00,-0.00,0.14,0.15,0.14,0.14,937,939,934,937
10558,0,0.01,0.01,0.00,0.14,-0.00,-0.00,-0.00,0.14,0.15,0.14,0.14,937,939,934,937
10564,0,0.01,0.01,0.00,0.14,-0.00,-0.00,-0.00,0.14,0.15,0.14,0.14,937,939,934,937
10571,0,0.01,0.01,0.00,0.14,-0.00,-0.00,-0.00,0.14,0.15,0.14,0.14,937,939,934,937
10578,0,0.01,0.01,0.00,0.14,-0.00,-0.00,-0.00,0.14,0.15,0.14,0.15,937,940,935,937
10585,0,0.01,0.01,0.00,0.14,-0.00,-0.00,-0.00,0.14,0.15,0.14,0.14,937,939,934,937
10592,0,0.01,0.01,0.00,0.14,-0.00,-0.00,-0.00,0.14,0.15,0.14,0.14,937,939,934,937
10599,0,0.01,0.01,0.00,0.14,-0.00,-0.00,-0.00,0.14,0.15,0.14,0.14,937,939,934,937
10605,0,0.01,0.01,0.00,0.14,-0.00,-0.00,-0.00,0.14,0.15,0.14,0.14,937,939,934,937
10613,0,0.01,0.01,0.00,0.14,-0.00,-0.00,-0.00,0.14,0.15,0.14,0.14,937,939,934,937
10625,0,0.01,0.01,0.00,0.14,-0.00,-0.00,-0.00,0.14,0.15,0.14,0.14,937,939,934,937
10632,0,0.01,0.01,0.00,0.14,-0.00,-0.00,-0.00,0.14,0.15,0.14,0.14,937,939,934,937
10639,0,0.01,0.01,0.00,0.14,-0.00,-0.00,-0.00,0.14,0.15,0.14,0.14,937,939,934,937
10646,0,0.01,0.01,0.00,0.14,-0.00,-0.00,-0.00,0.14,0.15,0.14,0.14,937,939,934,937
10653,0,0.01,0.01,0.00,0.14,-0.00,-0.00,-0.00,0.14,0.15,0.14,0.14,937,939,934,937
10659,0,0.01,0.01,0.00,0.14,-0.00,-0.00,-0.00,0.14,0.15,0.14,0.14,937,939,934,937
10665,0,0.01,0.01,0.00,0.14,-0.00,-0.00,-0.00,0.14,0.15,0.14,0.14,937,939,934,937
10672,0,0.01,0.01,0.00,0.14,-0.00,-0.00,-0.00,0.14,0.15,0.14,0.14,937,939,934,937
10678,0,0.01,0.01,0.00,0.14,-0.00,-0.00,-0.00,0.14,0.15,0.14,0.14,937,939,934,937
10684,0,0.01,0.01,0.00,0.14,-0.00,-0.00,-0.00,0.14,0.15,0.14,0.14,937,939,934,937
10691,0,0.01,0.01,0.00,0.14,-0.00,-0.00,-0.00,0.14,0.15,0.14,0.14,937,939,934,937
10701,0,0.01,0.01,0.00,0.14,-0.00,-0.00,-0.00,0.14,0.15,0.14,0.14,937,939,934,937
10707,0,0.01,0.01,0.00,0.14,-0.00,0.00,-0.00,0.15,0.14,0.15,0.13,944,931,942,929
10714,0,0.01,0.01,0.00,0.14,-0.00,-0.00,-0.00,0.14,0.15,0.14,0.14,937,939,934,937
10721,0,0.01,0.01,0.00,0.14,-0.00,-0.00,-0.00,0.14,0.15,0.14,0.14,937,939,934,937
10726,0,0.01,0.01,0.00,0.14,-0.00,-0.00,-0.00,0.14,0.15,0.14,0.14,937,939,934,937
10733,0,0.01,0.01,0.00,0.14,-0.00,-0.00,-0.00,0.15,0.15,0.14,0.14,938,940,935,937
10740,0,0.01,0.01,0.00,0.14,-0.00,-0.00,-0.00,0.15,0.15,0.14,0.14,938,940,935,937
10747,0,0.01,0.01,0.00,0.14,-0.00,-0.00,-0.00,0.14,0.15,0.14,0.14,937,939,934,937
10754,0,0.01,0.01,0.00,0.14,-0.00,-0.00,-0.00,0.14,0.15,0.14,0.14,937,939,934,937
10760,0,0.01,0.01,0.00,0.14,-0.00,-0.00,-0.00,0.14,0.15,0.14,0.14,937,939,934,937
10767,0,0.01,0.01,0.00,0.14,-0.00,-0.00,-0.00,0.14,0.15,0.14,0.14,937,939,934,937
10774,0,0.01,0.01,0.00,0.14,-0.00,-0.00,-0.00,0.14,0.15,0.14,0.14,937,939,934,937
10781,0,0.01,0.01,0.00,0.14,-0.00,-0.00,-0.00,0.15,0.15,0.14,0.14,938,940,935,937
10787,0,0.01,0.01,0.00,0.14,-0.00,-0.00,-0.00,0.15,0.15,0.14,0.14,938,940,935,937
10794,0,0.01,0.01,0.00,0.14,-0.00,-0.00,-0.00,0.15,0.15,0.14,0.14,938,940,935,937
10801,0,0.01,0.01,0.00,0.14,-0.00,-0.00,-0.00,0.15,0.15,0.14,0.14,938,940,935,937
10807,0,0.01,0.01,0.00,0.14,-0.00,-0.00,-0.00,0.14,0.15,0.14,0.14,937,939,934,937
10814,0,0.01,0.01,0.00,0.14,-0.00,-0.00,-0.00,0.14,0.15,0.14,0.14,937,939,934,937
10821,0,0.01,0.01,0.00,0.14,-0.00,-0.00,-0.00,0.14,0.15,0.14,0.14,937,939,934,937
10834,0,0.01,0.01,0.00,0.14,-0.00,-0.00,-0.00,0.14,0.15,0.14,0.14,937,939,934,937
10841,0,0.01,0.01,0.00,0.14,-0.00,-0.00,-0.00,0.14,0.15,0.14,0.14,937,939,934,937
10848,0,0.01,0.01,0.00,0.14,-0.00,-0.00,-0.00,0.14,0.15,0.14,0.14,937,939,934,937
10855,0,0.01,0.01,0.00,0.14,-0.00,-0.00,-0.00,0.14,0.15,0.14,0.14,937,939,934,937
10862,0,0.01,0.01,0.00,0.14,-0.00,-0.00,-0.00,0.15,0.15,0.14,0.14,938,940,935,937
10868,0,0.02,0.01,0.00,0.14,-0.00,-0.00,-0.00,0.15,0.16,0.13,0.14,944,946,929,931
10875,0,0.02,0.01,0.00,0.14,-0.00,-0.00,-0.00,0.15,0.15,0.14,0.14,938,940,935,937
10882,0,0.02,0.01,0.00,0.14,-0.00,-0.00,-0.00,0.15,0.15,0.14,0.14,938,940,935,937
10889,0,0.02,0.01,0.00,0.14,-0.00,-0.00,-0.00,0.15,0.15,0.14,0.14,938,940,935,937
10895,0,0.02,0.01,0.00,0.15,-0.00,-0.00,-0.00,0.15,0.15,0.14,0.15,938,941,936,938
10902,0,0.02,0.01,0.00,0.15,-0.00,-0.00,-0.00,0.15,0.15,0.14,0.15,938,941,936,938
10909,0,0.02,0.01,0.00,0.15,-0.00,-0.00,-0.00,0.15,0.15,0.14,0.15,938,941,936,938
10915,0,0.01,0.01,0.00,0.15,0.00,-0.00,-0.00,0.14,0.14,0.15,0.15,931,933,943,945
10922,0,0.01,0.01,0.00,0.15,-0.00,-0.00,-0.00,0.15,0.15,0.14,0.15,938,941,936,938
10929,0,0.01,0.01,0.00,0.15,-0.00,-0.00,-0.00,0.15,0.15,0.14,0.15,938,941,936,938
10935,0,0.01,0.01,0.00,0.15,-0.00,-0.00,-0.00,0.15,0.15,0.14,0.15,938,941,936,938
10943,0,0.01,0.01,0.00,0.15,-0.00,-0.00,-0.00,0.15,0.15,0.14,0.15,938,941,936,938
10950,0,0.01,0.01,0.00,0.15,-0.00,-0.00,-0.00,0.15,0.15,0.14,0.15,938,941,936,938
10956,0,0.01,0.01,0.00,0.15,-0.00,-0.00,-0.00,0.15,0.15,0.14,0.15,938,941,936,938
10963,0,0.01,0.01,0.00,0.15,-0.00,-0.00,-0.00,0.15,0.15,0.14,0.15,938,941,936,938
10970,0,0.01,0.01,0.00,0.15,-0.00,-0.00,-0.00,0.15,0.15,0.14,0.15,938,941,936,938
10977,0,0.01,0.01,0.00,0.15,-0.00,-0.00,-0.00,0.15,0.15,0.14,0.15,939,941,937,939
10984,0,0.01,0.01,0.00,0.15,-0.00,-0.00,-0.00,0.15,0.15,0.14,0.15,939,941,937,939
10991,0,0.01,0.01,0.00,0.15,-0.00,-0.00,-0.00,0.15,0.15,0.14,0.15,939,941,937,939
10997,0,0.01,0.01,0.00,0.15,-0.00,-0.00,-0.00,0.15,0.15,0.14,0.15,939,941,937,939
11004,0,0.01,0.01,0.00,0.15,-0.00,-0.00,-0.00,0.15,0.15,0.14,0.15,939,941,937,939
11010,0,0.01,0.01,0.00,0.15,-0.00,-0.00,-0.00,0.15,0.15,0.14,0.15,939,941,937,939
11017,0,0.01,0.01,0.00,0.15,-0.00,-0.00,-0.00,0.15,0.15,0.14,0.15,939,941,937,939
11024,0,0.01,0.01,0.00,0.15,-0.00,-0.00,-0.00,0.15,0.15,0.14,0.15,939,941,937,939
11031,0,0.01,0.01,0.00,0.15,-0.00,-0.00,-0.00,0.15,0.15,0.14,0.15,939,941,937,939
11037,0,0.01,0.01,0.00,0.15,-0.00,-0.00,-0.00,0.15,0.15,0.14,0.15,939,941,937,939
11048,0,0.01,0.01,0.00,0.15,-0.00,-0.00,-0.00,0.15,0.15,0.14,0.15,939,941,937,939
11055,0,0.01,0.01,0.00,0.15,-0.00,-0.00,-0.00,0.15,0.15,0.14,0.15,939,941,937,939
11062,0,0.01,0.01,0.00,0.15,-0.00,-0.00,-0.00,0.15,0.15,0.14,0.15,939,941,937,939
11069,0,0.01,0.01,0.00,0.15,-0.00,-0.00,-0.00,0.15,0.15,0.14,0.15,939,941,937,939
11075,0,0.01,0.01,0.00,0.15,-0.00,-0.00,-0.00,0.15,0.15,0.14,0.15,939,941,937,939
11082,0,0.01,0.01,0.00,0.15,-0.00,-0.00,-0.00,0.15,0.15,0.14,0.15,939,941,937,939
11088,0,0.01,0.01,0.00,0.15,-0.00,-0.00,-0.00,0.15,0.15,0.14,0.15,939,941,937,939
11095,0,0.01,0.01,0.00,0.15,-0.00,-0.00,-0.00,0.15,0.15,0.14,0.15,939,941,937,939
11102,0,0.01,0.01,0.00,0.15,-0.00,-0.00,-0.00,0.15,0.15,0.14,0.15,939,941,937,939
11108,0,0.01,0.01,0.00,0.15,-0.00,-0.00,-0.00,0.15,0.15,0.14,0.15,939,941,937,939
11115,0,0.01,0.01,0.00,0.15,-0.00,-0.00,-0.00,0.15,0.15,0.14,0.15,939,941,937,939
11122,0,0.01,0.01,0.00,0.15,-0.00,-0.00,-0.00,0.15,0.15,0.14,0.15,939,941,937,939
11129,0,0.01,0.01,0.00,0.15,-0.00,-0.00,-0.00,0.15,0.15,0.14,0.15,939,941,937,939
11135,0,0.01,0.01,0.00,0.15,-0.00,-0.00,-0.00,0.15,0.15,0.14,0.15,939,941,937,939
11142,0,0.01,0.01,0.00,0.15,-0.00,-0.00,-0.00,0.15,0.15,0.14,0.15,939,941,937,939
11150,0,0.01,0.01,0.00,0.15,-0.00,-0.00,-0.00,0.15,0.15,0.15,0.15,940,942,938,940
11156,0,0.01,0.01,0.00,0.15,-0.00,-0.00,-0.00,0.15,0.15,0.15,0.15,940,942,938,940
11163,0,0.01,0.01,0.00,0.15,-0.00,-0.00,-0.00,0.15,0.15,0.15,0.15,940,942,938,940
11170,0,0.01,0.01,0.00,0.15,-0.00,-0.00,-0.00,0.15,0.15,0.15,0.15,940,942,938,940
11176,0,0.01,0.01,0.00,0.15,-0.00,-0.00,-0.00,0.15,0.15,0.15,0.15,940,942,938,940
11184,0,0.01,0.01,0.00,0.15,-0.00,-0.00,-0.00,0.15,0.15,0.15,0.15,940,942,938,940
11191,0,0.01,0.01,0.00,0.15,-0.00,-0.00,-0.00,0.15,0.15,0.15,0.15,940,942,938,940
11197,0,0.01,0.01,0.00,0.15,0.00,-0.00,-0.00,0.14,0.14,0.15,0.16,933,935,945,947
11204,0,0.01,0.01,0.00,0.15,-0.00,-0.00,-0.00,0.15,0.15,0.15,0.15,940,942,938,940
11210,0,0.01,0.01,0.00,0.15,-0.01,-0.00,-0.00,0.16,0.16,0.14,0.14,948,950,931,933
11217,0,0.01,0.01,0.00,0.15,-0.00,-0.00,-0.00,0.15,0.15,0.15,0.15,941,943,938,941
11224,0,0.01,0.01,0.00,0.15,-0.00,-0.00,-0.00,0.15,0.15,0.15,0.15,941,943,938,941
11231,0,0.01,0.01,0.00,0.15,-0.00,-0.00,-0.00,0.15,0.15,0.15,0.15,941,943,938,941
11237,0,0.01,0.01,0.00,0.15,-0.00,-0.00,-0.00,0.15,0.15,0.15,0.15,941,943,938,941
11244,0,0.01,0.01,0.00,0.15,-0.00,-0.00,-0.00,0.15,0.15,0.15,0.15,941,943,938,941
11251,0,0.01,0.01,0.00,0.15,-0.00,-0.00,-0.00,0.15,0.15,0.15,0.15,941,943,938,941
11264,0,0.01,0.01,0.00,0.15,-0.00,-0.00,-0.00,0.15,0.15,0.15,0.15,941,943,938,941
11272,0,0.01,0.01,0.00,0.15,-0.00,-0.00,-0.00,0.15,0.15,0.15,0.15,943,945,941,943
11278,0,0.01,0.01,0.00,0.15,-0.00,-0.00,-0.00,0.15,0.15,0.15,0.15,943,945,941,943
11285,0,0.01,0.01,0.00,0.15,-0.00,-0.00,-0.00,0.15,0.16,0.15,0.15,944,946,942,944
11292,0,0.01,0.01,0.00,0.15,-0.00,-0.00,-0.00,0.15,0.16,0.15,0.15,944,946,942,944
11299,0,0.01,0.01,0.00,0.15,-0.00,-0.00,-0.00,0.15,0.16,0.15,0.15,944,946,942,944
11306,0,0.01,0.01,0.00,0.15,-0.00,-0.00,-0.00,0.15,0.16,0.15,0.15,944,946,942,944
11312,0,0.01,0.01,0.00,0.15,-0.00,-0.00,-0.00,0.15,0.16,0.15,0.15,944,946,942,944
11318,0,0.01,0.01,0.00,0.15,-0.00,-0.00,-0.00,0.15,0.16,0.15,0.15,944,946,942,944
11325,0,0.01,0.01,0.00,0.15,-0.00,-0.00,-0.00,0.15,0.16,0.15,0.15,944,946,942,944
11332,0,0.02,0.01,0.00,0.15,-0.00,-0.00,-0.00,0.16,0.16,0.14,0.15,950,953,935,938
11339,0,0.02,0.01,0.00,0.15,-0.00,-0.00,-0.00,0.15,0.16,0.15,0.15,944,946,942,944
11345,0,0.02,0.01,0.00,0.15,-0.00,-0.00,-0.00,0.15,0.16,0.15,0.15,944,946,942,944
11352,0,0.01,0.01,0.00,0.15,0.00,-0.00,-0.00,0.15,0.15,0.16,0.16,938,940,948,950
11358,0,0.01,0.01,0.00,0.15,-0.00,-0.00,-0.00,0.15,0.16,0.15,0.15,944,946,942,944
11365,0,0.01,0.01,0.00,0.15,-0.00,-0.00,-0.00,0.15,0.16,0.15,0.15,944,946,942,944
11372,0,0.01,0.01,0.00,0.15,-0.00,-0.00,-0.00,0.15,0.16,0.15,0.15,945,947,943,945
11378,0,0.01,0.01,0.00,0.15,-0.00,-0.00,-0.00,0.15,0.16,0.15,0.15,945,947,943,945
11385,0,0.01,0.01,0.00,0.15,-0.00,-0.00,-0.00,0.15,0.16,0.15,0.15,945,947,943,945
11392,0,0.01,0.01,0.00,0.15,-0.00,-0.00,-0.00,0.15,0.16,0.15,0.15,945,947,943,945
11398,0,0.01,0.01,0.00,0.15,-0.00,-0.00,-0.00,0.15,0.16,0.15,0.15,945,947,943,945
11405,0,0.01,0.01,0.00,0.15,-0.00,-0.00,-0.00,0.15,0.16,0.15,0.15,945,947,943,945
11411,0,0.01,0.01,0.00,0.15,-0.00,-0.00,-0.00,0.15,0.16,0.15,0.15,945,947,943,945
11417,0,0.01,0.01,0.00,0.15,-0.00,-0.00,-0.00,0.15,0.16,0.15,0.15,945,947,943,945
11424,0,0.01,0.01,0.00,0.15,-0.00,-0.00,-0.00,0.15,0.16,0.15,0.15,945,947,943,945
11431,0,0.01,0.01,0.00,0.15,-0.00,-0.00,-0.00,0.15,0.16,0.15,0.15,945,947,943,945
11438,0,0.01,0.01,0.00,0.15,-0.00,-0.00,-0.00,0.15,0.16,0.15,0.15,945,947,943,945
11445,0,0.01,0.01,0.00,0.15,-0.00,-0.00,-0.00,0.15,0.16,0.15,0.15,945,947,943,945
11452,0,0.01,0.01,0.00,0.15,-0.00,-0.00,-0.00,0.15,0.16,0.15,0.15,945,947,943,945
11458,0,0.01,0.01,0.00,0.15,-0.00,-0.00,-0.00,0.15,0.16,0.15,0.15,945,947,943,945
11465,0,0.01,0.01,0.00,0.15,-0.00,-0.00,-0.00,0.15,0.16,0.15,0.15,945,947,943,945
11477,0,0.01,0.01,0.00,0.15,-0.00,-0.00,-0.00,0.15,0.16,0.15,0.15,945,947,943,945
11485,0,0.01,0.01,0.00,0.15,-0.00,-0.00,-0.00,0.15,0.16,0.15,0.15,945,947,943,945
11492,0,0.01,0.01,0.00,0.15,-0.00,-0.00,-0.00,0.15,0.16,0.15,0.15,945,947,943,945
11498,0,0.01,0.01,0.00,0.15,-0.00,-0.00,-0.00,0.15,0.16,0.15,0.15,945,947,943,945
11506,0,0.01,0.01,0.00,0.15,-0.00,-0.00,-0.00,0.15,0.16,0.15,0.15,945,947,943,945
11512,0,0.02,0.01,0.00,0.15,-0.01,-0.00,-0.00,0.16,0.17,0.14,0.15,952,954,935,938
11518,0,0.01,0.01,0.00,0.15,0.00,-0.00,-0.00,0.15,0.15,0.16,0.16,938,940,950,952
11524,0,0.01,0.01,0.00,0.15,-0.00,-0.00,-0.00,0.15,0.16,0.15,0.15,945,947,943,945
11531,0,0.02,0.01,0.00,0.15,-0.00,-0.00,-0.00,0.16,0.16,0.14,0.15,951,953,936,938
11538,0,0.01,0.01,0.00,0.15,0.00,-0.00,-0.00,0.15,0.15,0.16,0.16,938,940,950,952
11545,0,0.01,0.01,0.00,0.15,-0.00,-0.00,-0.00,0.15,0.16,0.15,0.15,945,947,943,945
11552,0,0.01,0.01,0.00,0.15,-0.00,-0.00,-0.00,0.15,0.16,0.15,0.15,945,947,943,945
11558,0,0.01,0.01,0.00,0.15,-0.00,-0.00,-0.00,0.15,0.16,0.15,0.15,945,947,943,945
11565,0,0.01,0.01,0.00,0.15,-0.00,-0.00,-0.00,0.15,0.16,0.15,0.15,945,947,943,945
11573,0,0.01,0.01,0.00,0.15,-0.00,-0.00,-0.00,0.15,0.16,0.15,0.15,945,947,943,945
11579,0,0.02,0.01,0.00,0.15,-0.01,-0.00,-0.00,0.16,0.17,0.14,0.14,952,954,935,937
11586,0,0.02,0.01,0.00,0.15,-0.00,-0.00,-0.00,0.15,0.16,0.15,0.15,945,947,942,945
11593,0,0.02,0.01,0.00,0.15,-0.00,-0.00,-0.00,0.15,0.16,0.15,0.15,945,947,942,945
11599,0,0.02,0.01,0.00,0.15,-0.00,-0.00,-0.00,0.15,0.16,0.15,0.15,945,947,942,945
11606,0,0.02,0.01,0.00,0.15,-0.00,-0.00,-0.00,0.15,0.16,0.15,0.15,945,947,942,945
11612,0,0.02,0.01,0.00,0.15,-0.00,-0.00,-0.00,0.15,0.16,0.15,0.15,945,947,942,945
11619,0,0.02,0.01,0.00,0.15,-0.00,-0.00,-0.00,0.15,0.16,0.15,0.15,945,947,942,945
11626,0,0.02,0.01,0.00,0.15,-0.00,-0.00,-0.00,0.15,0.16,0.15,0.15,945,947,942,945
11633,0,0.02,0.01,0.00,0.15,-0.00,-0.00,-0.00,0.15,0.16,0.15,0.15,945,947,942,945
11639,0,0.02,0.01,0.00,0.15,-0.00,-0.00,-0.00,0.15,0.16,0.15,0.15,945,947,942,945
11646,0,0.02,0.01,0.00,0.15,-0.00,-0.00,-0.00,0.15,0.16,0.15,0.15,945,947,942,945
11653,0,0.02,0.01,0.00,0.15,-0.00,-0.00,-0.00,0.15,0.16,0.15,0.15,945,947,942,945
11659,0,0.02,0.01,0.00,0.15,-0.00,-0.00,-0.00,0.15,0.16,0.15,0.15,945,947,942,945
11666,0,0.02,0.01,0.00,0.15,-0.00,-0.00,-0.00,0.15,0.16,0.15,0.15,945,947,942,945
11673,0,0.02,0.01,0.00,0.15,-0.00,-0.00,-0.00,0.15,0.16,0.15,0.15,945,947,942,945
11680,0,0.02,0.01,0.00,0.15,-0.00,-0.00,-0.00,0.15,0.16,0.15,0.15,945,947,942,945
11692,0,0.02,0.01,0.00,0.15,-0.00,-0.00,-0.00,0.15,0.16,0.15,0.15,945,947,942,945
11699,0,0.02,0.01,0.00,0.15,-0.00,-0.00,-0.00,0.15,0.16,0.15,0.15,945,947,942,945
11706,0,0.02,0.01,0.00,0.15,-0.00,-0.00,-0.00,0.15,0.16,0.15,0.15,945,947,942,945
11712,0,0.02,0.01,0.00,0.15,-0.00,-0.00,-0.00,0.15,0.16,0.15,0.15,945,947,942,945
11718,0,0.02,0.01,0.00,0.15,-0.00,-0.00,-0.00,0.15,0.16,0.15,0.15,945,947,942,945
11726,0,0.02,0.01,0.00,0.15,-0.00,-0.00,-0.00,0.15,0.16,0.15,0.15,945,947,942,945
11733,0,0.02,0.01,0.00,0.15,-0.00,-0.00,-0.00,0.15,0.16,0.15,0.15,945,947,942,945
11739,0,0.02,0.01,0.00,0.15,-0.00,-0.00,-0.00,0.15,0.16,0.15,0.15,945,947,942,945
11746,0,0.02,0.01,0.00,0.15,-0.00,-0.00,-0.00,0.15,0.16,0.15,0.15,945,947,942,945
11752,0,0.02,0.01,0.00,0.15,-0.00,-0.00,-0.00,0.15,0.16,0.15,0.15,945,947,942,945
11758,0,0.02,0.01,0.00,0.15,-0.00,-0.00,-0.00,0.15,0.17,0.16,0.14,937,955,950,937
11765,0,0.02,0.01,0.00,0.15,-0.00,-0.00,-0.00,0.15,0.16,0.15,0.15,945,947,943,945
11773,0,0.02,0.01,0.00,0.15,-0.00,-0.00,-0.00,0.15,0.16,0.15,0.15,945,947,943,945
11779,0,0.02,0.01,0.00,0.15,-0.00,-0.00,-0.00,0.15,0.16,0.15,0.15,945,947,943,945
11786,0,0.02,0.01,0.00,0.15,-0.00,-0.00,-0.00,0.15,0.16,0.15,0.15,945,947,943,945
11793,0,0.02,0.01,0.00,0.16,-0.00,-0.00,-0.00,0.16,0.16,0.15,0.15,946,948,943,945
11799,0,0.02,0.01,0.00,0.16,-0.00,-0.00,-0.00,0.16,0.16,0.15,0.15,946,948,943,945
11807,0,0.02,0.01,0.00,0.16,-0.00,-0.00,-0.00,0.16,0.16,0.15,0.15,946,948,943,945
11813,0,0.01,0.01,0.00,0.16,0.00,-0.00,-0.00,0.15,0.15,0.16,0.16,939,941,951,953
11819,0,0.01,0.01,0.00,0.16,-0.00,-0.00,-0.00,0.15,0.16,0.15,0.15,946,948,943,945
11826,0,0.01,0.01,0.00,0.16,-0.00,-0.00,-0.00,0.15,0.16,0.15,0.15,946,948,943,945
11833,0,0.01,0.01,0.00,0.16,-0.00,-0.00,-0.00,0.15,0.16,0.15,0.15,946,948,943,945
11840,0,0.02,0.01,0.00,0.16,-0.01,-0.00,-0.00,0.16,0.17,0.14,0.15,952,955,937,939
11847,0,0.02,0.01,0.00,0.16,-0.00,-0.00,-0.00,0.16,0.16,0.15,0.15,946,948,943,945
11854,0,0.02,0.01,0.00,0.16,-0.00,-0.00,-0.00,0.16,0.16,0.15,0.15,946,948,943,945
11860,0,0.02,0.01,0.00,0.16,-0.00,-0.00,-0.00,0.16,0.16,0.15,0.15,946,948,943,945
11867,0,0.02,0.01,0.00,0.16,-0.00,-0.00,-0.00,0.16,0.16,0.15,0.15,946,948,943,945
11874,0,0.02,0.01,0.00,0.16,-0.00,-0.00,-0.00,0.16,0.16,0.15,0.16,947,949,944,946
11881,0,0.01,0.01,0.00,0.16,0.00,-0.00,-0.00,0.15,0.15,0.16,0.16,940,942,951,953
11887,0,0.01,0.01,0.00,0.16,-0.00,-0.00,-0.00,0.16,0.16,0.15,0.16,946,949,944,946
11894,0,0.01,0.01,0.00,0.16,-0.00,-0.00,-0.00,0.16,0.16,0.15,0.16,946,949,944,946
11904,0,0.01,0.01,0.00,0.16,-0.00,-0.00,-0.00,0.16,0.16,0.15,0.16,947,950,945,947
11910,0,0.01,0.01,0.00,0.16,-0.00,-0.00,-0.00,0.16,0.16,0.15,0.16,947,950,945,947
11917,0,0.01,0.01,0.00,0.16,-0.00,-0.00,-0.00,0.16,0.16,0.15,0.16,947,950,945,947
11924,0,0.01,0.01,0.00,0.16,-0.00,-0.00,-0.00,0.16,0.16,0.15,0.16,947,950,945,947
11931,0,0.01,0.01,0.00,0.16,-0.00,-0.00,-0.00,0.16,0.16,0.15,0.16,947,950,945,947
11937,0,0.01,0.01,0.00,0.16,-0.00,-0.00,-0.00,0.16,0.16,0.15,0.16,947,950,945,947
11944,0,0.01,0.01,0.00,0.16,-0.00,-0.00,-0.00,0.16,0.16,0.15,0.16,947,950,945,947
11951,0,0.01,0.01,0.00,0.17,-0.00,-0.00,-0.00,0.16,0.17,0.16,0.16,954,956,952,954
11957,0,0.02,0.01,0.00,0.17,-0.01,-0.00,-0.00,0.17,0.18,0.15,0.16,961,963,944,946
11965,0,0.02,0.01,0.00,0.17,-0.00,-0.00,-0.00,0.17,0.17,0.16,0.17,956,958,953,955
11972,0,0.02,0.01,0.00,0.17,-0.00,-0.00,-0.00,0.17,0.17,0.16,0.17,956,958,953,955
11978,0,0.02,0.01,0.00,0.17,-0.00,-0.00,-0.00,0.17,0.17,0.17,0.17,956,959,954,956
11985,0,0.02,0.01,0.00,0.17,-0.00,-0.00,-0.00,0.17,0.17,0.17,0.17,956,959,954,956
11992,0,0.02,0.01,0.00,0.17,-0.00,-0.00,-0.00,0.17,0.17,0.17,0.17,956,959,954,956
11999,0,0.02,0.01,0.00,0.17,-0.00,-0.00,-0.00,0.17,0.17,0.17,0.17,956,959,954,956
12006,0,0.02,0.01,0.00,0.17,-0.00,-0.00,-0.00,0.17,0.17,0.17,0.17,956,959,954,956
12012,0,0.02,0.01,0.00,0.17,-0.00,-0.00,-0.00,0.17,0.17,0.17,0.17,956,959,954,956
12018,0,0.02,0.01,0.00,0.17,-0.00,-0.00,-0.00,0.17,0.17,0.17,0.17,956,959,954,956
12025,0,0.02,0.01,0.00,0.17,-0.00,-0.00,-0.00,0.17,0.17,0.17,0.17,957,960,955,957
12032,0,0.02,0.01,0.00,0.17,-0.00,-0.00,-0.00,0.17,0.17,0.17,0.17,957,960,955,957
12038,0,0.02,0.01,0.00,0.17,-0.00,-0.00,-0.00,0.17,0.17,0.17,0.17,957,960,955,957
12045,0,0.02,0.01,0.00,0.17,-0.00,-0.00,-0.00,0.17,0.17,0.17,0.17,957,960,955,957
12051,0,0.02,0.01,0.00,0.17,-0.00,-0.00,-0.00,0.17,0.17,0.17,0.17,957,960,955,957
12061,0,0.02,0.01,0.00,0.17,-0.00,-0.00,-0.00,0.17,0.17,0.17,0.17,957,960,955,957
12067,0,0.02,0.01,0.00,0.17,-0.00,-0.00,-0.00,0.17,0.17,0.17,0.17,957,960,955,957
12073,0,0.02,0.01,0.00,0.17,-0.01,-0.00,-0.00,0.18,0.18,0.16,0.16,964,966,947,949
12079,0,0.02,0.01,0.00,0.17,-0.00,-0.00,-0.00,0.17,0.17,0.17,0.17,956,959,954,956
12086,0,0.02,0.01,0.00,0.17,-0.00,-0.00,-0.00,0.17,0.17,0.17,0.17,956,959,954,956
12093,0,0.02,0.01,0.00,0.17,-0.00,-0.00,-0.00,0.17,0.17,0.17,0.17,956,959,954,956
12099,0,0.02,0.01,0.00,0.17,-0.00,-0.00,-0.00,0.17,0.17,0.17,0.17,956,959,954,956
12110,0,0.02,0.01,0.00,0.17,-0.00,-0.00,-0.00,0.17,0.17,0.17,0.17,956,959,954,956
12117,0,0.02,0.01,0.00,0.17,-0.00,-0.00,-0.00,0.17,0.17,0.17,0.17,957,960,955,957
12124,0,0.02,0.01,0.00,0.17,-0.00,-0.00,-0.00,0.17,0.17,0.17,0.17,957,960,955,957
12130,0,0.02,0.01,0.00,0.17,-0.01,-0.00,-0.00,0.18,0.18,0.16,0.16,964,967,948,950
12137,0,0.02,0.01,0.00,0.17,-0.00,-0.00,-0.00,0.17,0.17,0.17,0.17,957,960,955,957
12145,0,0.02,0.01,0.00,0.17,-0.00,-0.00,-0.00,0.17,0.17,0.17,0.17,957,960,955,957
12151,0,0.02,0.01,0.00,0.17,-0.01,0.00,-0.00,0.19,0.17,0.17,0.15,971,960,955,943
12158,0,0.02,0.01,0.00,0.17,-0.00,-0.00,-0.00,0.17,0.17,0.17,0.17,958,960,955,956
12165,0,0.02,0.01,0.00,0.17,-0.00,-0.00,-0.00,0.17,0.17,0.17,0.17,958,960,955,956
12172,0,0.02,0.01,0.00,0.17,-0.00,-0.00,-0.00,0.17,0.17,0.17,0.17,958,960,955,956
12178,0,0.02,0.01,0.00,0.17,-0.00,-0.01,-0.00,0.16,0.18,0.16,0.18,950,967,947,964
12185,0,0.02,0.01,0.00,0.17,-0.00,-0.00,-0.00,0.17,0.17,0.17,0.17,957,960,955,957
12193,0,0.02,0.01,0.00,0.17,-0.00,-0.00,-0.00,0.17,0.17,0.17,0.17,957,960,955,957
12199,0,0.02,0.01,0.00,0.17,-0.00,-0.00,-0.00,0.17,0.17,0.17,0.17,957,960,955,957
12206,0,0.02,0.01,0.00,0.17,-0.00,-0.00,-0.00,0.17,0.17,0.17,0.17,957,960,955,957
12212,0,0.02,0.01,0.00,0.17,-0.00,-0.00,-0.00,0.17,0.17,0.17,0.17,957,960,955,957
12218,0,0.02,0.01,0.00,0.17,-0.00,-0.00,-0.00,0.17,0.17,0.17,0.17,957,960,955,957
12226,0,0.02,0.01,0.00,0.17,-0.00,-0.00,-0.00,0.17,0.17,0.17,0.17,957,960,955,957
12233,0,0.02,0.01,0.00,0.17,-0.01,-0.00,-0.00,0.18,0.18,0.16,0.16,964,966,948,950
12239,0,0.02,0.01,0.00,0.17,-0.00,-0.00,-0.00,0.17,0.17,0.17,0.17,958,960,954,956
12246,0,0.02,0.01,0.00,0.17,-0.00,-0.00,-0.00,0.17,0.17,0.17,0.17,958,960,954,956
12253,0,0.02,0.01,0.00,0.17,-0.00,-0.00,-0.00,0.17,0.17,0.17,0.17,958,960,954,956
12259,0,0.02,0.01,0.00,0.17,-0.00,-0.00,-0.00,0.17,0.17,0.17,0.17,958,960,954,956
12266,0,0.02,0.01,0.00,0.17,-0.00,-0.00,-0.00,0.17,0.17,0.17,0.17,958,960,954,956
12272,0,0.02,0.01,0.00,0.17,-0.00,-0.00,-0.00,0.17,0.17,0.17,0.17,958,960,954,956
12278,0,0.02,0.01,0.00,0.17,0.00,-0.00,-0.00,0.16,0.16,0.17,0.18,950,953,962,964
12285,0,0.02,0.01,0.00,0.17,-0.00,-0.00,-0.00,0.17,0.17,0.17,0.17,957,960,955,957
12293,0,0.02,0.01,0.00,0.17,-0.00,-0.00,-0.00,0.17,0.17,0.17,0.17,957,960,955,957
12299,0,0.02,0.01,0.00,0.17,-0.00,-0.00,-0.00,0.17,0.17,0.17,0.17,957,960,955,957
12306,0,0.02,0.01,0.00,0.17,-0.00,-0.00,-0.00,0.17,0.17,0.17,0.17,957,960,955,957
12312,0,0.02,0.01,0.00,0.17,-0.00,-0.00,-0.00,0.17,0.17,0.17,0.17,957,960,955,957
12325,0,0.02,0.01,0.00,0.17,-0.00,-0.00,-0.00,0.17,0.17,0.17,0.17,957,960,955,957
12333,0,0.02,0.01,0.00,0.17,-0.00,-0.00,-0.00,0.17,0.17,0.17,0.17,957,960,955,957
12339,0,0.02,0.01,0.00,0.17,-0.01,-0.00,-0.00,0.18,0.18,0.16,0.16,965,967,947,949
12346,0,0.02,0.01,0.00,0.17,-0.00,-0.00,-0.00,0.17,0.17,0.17,0.17,958,960,954,956
12353,0,0.02,0.01,0.00,0.17,-0.00,-0.00,-0.00,0.17,0.17,0.17,0.17,958,960,954,956
12360,0,0.02,0.01,0.00,0.17,0.00,-0.00,-0.00,0.16,0.16,0.17,0.18,950,953,962,964
12367,0,0.02,0.01,0.00,0.17,-0.00,-0.00,-0.00,0.17,0.17,0.17,0.17,957,960,955,957
12374,0,0.02,0.01,0.00,0.17,-0.00,-0.00,-0.00,0.17,0.17,0.17,0.17,957,960,955,957
12380,0,0.02,0.01,0.00,0.17,-0.00,-0.00,-0.00,0.17,0.17,0.17,0.17,957,960,955,957
12387,0,0.02,0.01,0.00,0.17,-0.00,-0.00,-0.00,0.17,0.17,0.17,0.17,957,960,955,957
12394,0,0.02,0.01,0.00,0.17,-0.00,-0.00,-0.00,0.17,0.17,0.17,0.17,957,960,955,957
12400,0,0.02,0.01,0.00,0.17,-0.00,-0.00,-0.00,0.17,0.17,0.17,0.17,957,960,955,957
12407,0,0.02,0.01,0.00,0.17,-0.00,-0.00,-0.00,0.17,0.17,0.17,0.17,957,960,955,957
12413,0,0.02,0.01,0.00,0.17,-0.00,-0.00,-0.00,0.17,0.17,0.17,0.17,957,960,955,957
12419,0,0.02,0.01,0.00,0.17,-0.01,0.00,-0.00,0.19,0.17,0.17,0.15,973,960,955,941
12425,0,0.02,0.01,0.00,0.17,-0.00,-0.00,-0.00,0.17,0.17,0.17,0.17,958,960,955,956
12432,0,0.02,0.01,0.00,0.17,-0.00,-0.00,-0.00,0.17,0.17,0.17,0.17,958,960,955,956
12438,0,0.02,0.01,0.00,0.17,-0.00,-0.00,-0.00,0.17,0.17,0.17,0.17,958,960,955,956
12445,0,0.02,0.01,0.00,0.17,-0.00,-0.00,-0.00,0.17,0.17,0.17,0.17,958,960,955,956
12452,0,0.02,0.01,0.00,0.17,-0.00,-0.00,-0.00,0.17,0.17,0.17,0.17,958,960,955,956
12458,0,0.02,0.01,0.00,0.17,-0.00,-0.00,-0.00,0.17,0.17,0.17,0.17,958,960,955,956
12465,0,0.02,0.01,0.00,0.17,-0.00,-0.00,-0.00,0.17,0.17,0.17,0.17,958,960,955,956
12471,0,0.02,0.01,0.00,0.17,-0.00,-0.00,-0.00,0.17,0.17,0.17,0.17,958,960,955,956
12478,0,0.02,0.01,0.00,0.17,-0.00,-0.00,-0.00,0.17,0.17,0.17,0.17,958,960,955,956
12485,0,0.02,0.01,0.00,0.17,-0.00,-0.00,-0.00,0.16,0.18,0.16,0.18,951,966,948,963
12492,0,0.02,0.01,0.00,0.17,0.00,-0.00,-0.00,0.16,0.16,0.17,0.18,951,953,961,963
12498,0,0.02,0.01,0.00,0.17,-0.00,-0.00,-0.00,0.17,0.17,0.17,0.17,957,960,955,957
12506,0,0.02,0.01,0.00,0.17,-0.00,-0.00,-0.00,0.17,0.17,0.17,0.17,957,960,955,957
12512,0,0.02,0.01,0.00,0.17,-0.00,-0.00,-0.00,0.17,0.17,0.17,0.17,957,960,955,957
12518,0,0.02,0.01,0.00,0.17,0.00,-0.00,-0.00,0.16,0.16,0.17,0.18,950,953,962,964
12524,0,0.02,0.01,0.00,0.17,-0.00,-0.00,-0.00,0.17,0.17,0.17,0.17,957,960,955,957
12538,0,0.02,0.01,0.00,0.17,-0.00,-0.00,-0.00,0.17,0.17,0.17,0.17,957,960,955,957
12545,0,0.02,0.01,0.00,0.17,-0.00,-0.00,-0.00,0.17,0.17,0.17,0.17,957,960,955,957
12551,0,0.02,0.01,0.00,0.17,-0.00,-0.00,-0.00,0.17,0.17,0.17,0.17,957,960,955,957
12558,0,0.02,0.01,0.00,0.17,-0.00,-0.00,-0.00,0.17,0.17,0.17,0.17,957,960,955,957
12565,0,0.02,0.01,0.00,0.17,-0.00,0.00,-0.00,0.18,0.16,0.17,0.16,964,953,961,950
12572,0,0.02,0.01,0.00,0.17,-0.00,-0.00,-0.00,0.17,0.17,0.17,0.17,957,960,955,957
12578,0,0.02,0.01,0.00,0.17,-0.00,-0.00,-0.00,0.17,0.17,0.17,0.17,957,960,955,957
12586,0,0.02,0.01,0.00,0.17,-0.00,-0.00,-0.00,0.16,0.18,0.16,0.18,951,966,948,963
12592,0,0.02,0.01,0.00,0.17,-0.00,-0.00,-0.00,0.17,0.17,0.17,0.17,957,960,955,957
12599,0,0.02,0.01,0.00,0.17,-0.00,-0.00,-0.00,0.17,0.17,0.17,0.17,957,960,955,957
12606,0,0.02,0.01,0.00,0.17,-0.00,-0.00,-0.00,0.17,0.17,0.17,0.17,957,960,955,957
12612,0,0.02,0.01,0.00,0.17,-0.00,-0.00,-0.00,0.17,0.17,0.17,0.17,958,961,955,957
12618,0,0.02,0.01,0.00,0.17,-0.00,-0.00,-0.00,0.17,0.17,0.17,0.17,958,961,955,957
12625,0,0.02,0.01,0.00,0.17,-0.01,-0.00,-0.00,0.18,0.18,0.16,0.16,966,969,949,951
12631,0,0.02,0.01,0.00,0.17,-0.00,-0.00,-0.00,0.17,0.17,0.17,0.17,959,961,956,958
12638,0,0.02,0.01,0.00,0.17,-0.00,-0.00,-0.00,0.17,0.17,0.17,0.17,959,961,956,958
12645,0,0.02,0.01,0.00,0.17,-0.00,-0.00,-0.00,0.17,0.17,0.17,0.17,959,961,956,958
12652,0,0.02,0.01,0.00,0.17,-0.00,-0.00,-0.00,0.17,0.17,0.17,0.17,959,961,956,958
12659,0,0.02,0.01,0.00,0.17,-0.00,-0.00,-0.00,0.17,0.17,0.17,0.17,959,961,956,958
12666,0,0.02,0.01,0.00,0.17,0.00,-0.00,-0.00,0.16,0.17,0.18,0.18,953,955,963,965
12672,0,0.02,0.01,0.00,0.17,-0.00,-0.00,-0.00,0.17,0.17,0.17,0.17,959,961,956,958
12679,0,0.02,0.01,0.00,0.17,-0.00,-0.00,-0.00,0.17,0.17,0.17,0.17,959,961,956,958
12686,0,0.02,0.01,0.00,0.17,-0.00,-0.00,-0.00,0.17,0.17,0.17,0.17,959,961,956,958
12693,0,0.02,0.01,0.00,0.17,-0.00,-0.00,-0.00,0.17,0.17,0.17,0.17,959,961,956,958
12699,0,0.02,0.01,0.00,0.17,-0.00,-0.00,-0.00,0.17,0.17,0.17,0.17,959,961,956,958
12706,0,0.02,0.01,0.00,0.17,-0.00,-0.00,-0.00,0.17,0.17,0.17,0.17,959,961,956,958
12712,0,0.02,0.01,0.00,0.17,-0.00,-0.00,-0.00,0.17,0.18,0.17,0.17,960,962,957,959
12719,0,0.02,0.01,0.00,0.17,-0.00,-0.00,-0.00,0.17,0.18,0.17,0.17,960,962,957,959
12725,0,0.02,0.01,0.00,0.17,-0.01,0.00,-0.00,0.19,0.18,0.17,0.16,973,962,957,946
12732,0,0.02,0.01,0.00,0.17,-0.00,-0.00,-0.00,0.17,0.18,0.17,0.17,960,962,957,959
12739,0,0.02,0.01,0.00,0.17,-0.00,-0.00,-0.00,0.17,0.18,0.17,0.17,960,962,957,959
12751,0,0.02,0.01,0.00,0.17,0.00,-0.00,-0.00,0.17,0.17,0.17,0.18,956,958,961,963
12758,0,0.02,0.01,0.00,0.17,-0.00,-0.00,-0.00,0.17,0.18,0.17,0.17,961,963,958,960
12764,0,0.02,0.01,0.00,0.17,-0.01,-0.00,-0.00,0.18,0.19,0.16,0.16,968,970,950,952
12770,0,0.02,0.01,0.00,0.17,0.00,-0.00,-0.00,0.16,0.17,0.18,0.18,953,955,965,967
12777,0,0.02,0.01,0.00,0.17,-0.00,-0.00,-0.00,0.17,0.18,0.17,0.17,961,963,958,960
12784,0,0.02,0.01,0.00,0.17,-0.00,-0.00,-0.00,0.17,0.18,0.17,0.17,961,963,958,960
12790,0,0.02,0.01,0.00,0.17,-0.01,-0.00,-0.00,0.18,0.18,0.16,0.16,968,970,951,953
12797,0,0.02,0.01,0.00,0.17,-0.00,-0.00,-0.00,0.17,0.18,0.17,0.17,962,964,959,961
12804,0,0.02,0.01,0.00,0.17,-0.00,-0.00,-0.00,0.17,0.18,0.17,0.17,962,964,959,961
12811,0,0.02,0.01,0.00,0.17,-0.00,-0.00,-0.00,0.17,0.18,0.17,0.17,962,964,959,961
12817,0,0.02,0.01,0.00,0.17,-0.00,-0.00,-0.00,0.18,0.18,0.17,0.17,962,965,960,961
12823,0,0.02,0.01,0.00,0.17,-0.00,-0.00,-0.00,0.18,0.18,0.17,0.17,962,965,960,961
12829,0,0.02,0.01,0.00,0.17,-0.00,-0.00,-0.00,0.18,0.18,0.17,0.17,962,965,960,961
12837,0,0.02,0.01,0.00,0.17,-0.00,-0.00,-0.00,0.18,0.18,0.17,0.17,962,965,960,961
12844,0,0.02,0.01,0.00,0.17,-0.00,-0.00,-0.00,0.18,0.18,0.17,0.17,962,965,960,961
12850,0,0.02,0.01,0.00,0.18,-0.00,-0.00,-0.00,0.18,0.18,0.17,0.18,963,965,960,962
12857,0,0.02,0.01,0.00,0.18,-0.00,-0.00,-0.00,0.18,0.18,0.17,0.18,964,966,961,963
12863,0,0.02,0.01,0.00,0.18,-0.00,-0.00,-0.00,0.18,0.18,0.17,0.18,964,966,961,963
12870,0,0.02,0.01,0.00,0.18,-0.00,-0.00,-0.00,0.18,0.18,0.17,0.18,964,966,961,963
12877,0,0.02,0.01,0.00,0.18,-0.00,-0.00,-0.00,0.18,0.18,0.17,0.18,964,966,961,963
12884,0,0.02,0.01,0.00,0.18,-0.00,-0.00,-0.00,0.18,0.18,0.17,0.18,964,966,961,963
12890,0,0.02,0.01,0.00,0.18,-0.00,-0.00,-0.00,0.18,0.18,0.17,0.18,964,966,961,963
12898,0,0.02,0.01,0.00,0.18,-0.00,-0.00,-0.00,0.18,0.18,0.18,0.18,966,968,963,965
12905,0,0.02,0.01,0.00,0.18,-0.00,-0.00,-0.00,0.18,0.18,0.18,0.18,966,968,963,965
12911,0,0.02,0.01,0.00,0.18,-0.00,-0.00,-0.00,0.18,0.19,0.18,0.18,970,972,967,969
12918,0,0.02,0.01,0.00,0.18,-0.00,-0.00,-0.00,0.18,0.19,0.18,0.18,970,972,967,969
12925,0,0.02,0.01,0.00,0.18,-0.00,-0.00,-0.00,0.18,0.19,0.18,0.18,970,972,967,969
12932,0,0.02,0.01,0.00,0.18,-0.00,-0.00,-0.00,0.18,0.19,0.18,0.18,970,972,967,969
12939,0,0.02,0.01,0.00,0.18,-0.00,-0.00,-0.00,0.18,0.19,0.18,0.18,970,972,967,969
12946,0,0.02,0.01,0.00,0.18,-0.00,-0.00,-0.00,0.18,0.19,0.18,0.18,970,972,967,969
