t,is_crashed,roll,pitch,yaw,throttle,roll_pid_out,pitch_pid_out,yaw_pid_out,motor_fl,motor_bl,motor_fr,motor_br,pwm_fl,pwm_bl,pwm_fr,pwm_br
6894,0,0.00,0.00,0.00,0.00,-0.00,0.00,0.00,0.00,0.00,0.00,0.00,819,819,819,819
6902,0,0.03,-0.00,0.00,0.00,0.00,0.00,0.00,0.00,0.00,0.00,0.00,819,819,819,819
6909,0,0.03,-0.00,0.00,0.00,0.00,0.00,0.00,0.00,0.00,0.00,0.00,819,819,819,819
6916,0,0.03,-0.00,0.00,0.00,0.00,0.00,0.00,0.00,0.00,0.00,0.00,819,819,819,819
6923,0,0.03,-0.00,0.00,0.00,0.00,0.00,0.00,0.00,0.00,0.00,0.00,819,819,819,819
6930,0,0.03,-0.00,0.00,0.05,0.00,0.00,0.00,0.05,0.05,0.06,0.06,858,856,916,873
6937,0,0.03,-0.00,0.00,0.05,0.00,0.00,0.00,0.05,0.05,0.05,0.05,861,861,913,871
6950,0,0.03,-0.00,0.00,0.05,0.00,0.00,0.00,0.05,0.05,0.05,0.05,861,861,913,871
6958,0,0.03,-0.00,0.00,0.05,0.00,0.00,0.00,0.05,0.05,0.05,0.05,861,861,913,871
6964,0,0.03,-0.00,0.00,0.05,0.00,0.00,0.00,0.05,0.05,0.05,0.05,861,861,913,871
6972,0,0.03,-0.00,0.00,0.05,0.00,0.00,0.00,0.05,0.05,0.05,0.05,861,861,913,871
6979,0,0.03,-0.00,0.00,0.05,0.00,0.00,0.00,0.05,0.05,0.05,0.05,861,861,913,871
6986,0,0.03,-0.00,0.00,0.05,0.00,0.00,0.00,0.05,0.05,0.05,0.05,861,861,913,871
6993,0,0.03,-0.00,0.00,0.05,0.00,0.00,0.00,0.05,0.05,0.05,0.05,861,861,913,871
7000,0,0.03,-0.00,0.00,0.05,0.00,0.00,0.00,0.05,0.05,0.05,0.05,861,861,913,871
7008,0,0.03,-0.00,0.00,0.06,0.00,0.00,0.00,0.05,0.05,0.06,0.06,864,863,915,874
7015,0,0.03,-0.00,0.00,0.06,0.00,0.00,0.00,0.06,0.06,0.06,0.06,864,864,916,874
7022,0,0.03,-0.00,0.00,0.06,0.00,0.00,0.00,0.06,0.06,0.06,0.06,865,865,917,875
7029,0,0.03,-0.00,0.00,0.06,0.00,0.00,0.00,0.06,0.06,0.06,0.06,867,866,918,877
7036,0,0.03,-0.00,0.00,0.06,0.00,0.00,0.00,0.06,0.06,0.06,0.06,869,869,921,879
7043,0,0.03,-0.00,0.00,0.06,0.00,0.00,0.00,0.06,0.06,0.06,0.06,869,869,921,879
7050,0,0.03,-0.00,0.00,0.06,0.00,0.00,0.00,0.06,0.06,0.06,0.06,869,869,921,879
7058,0,0.03,-0.00,0.00,0.08,0.00,0.00,0.00,0.08,0.08,0.08,0.08,881,880,932,891
7065,0,0.03,-0.00,0.00,0.08,0.00,0.00,0.00,0.08,0.08,0.08,0.08,885,884,936,895
7072,0,0.03,-0.00,0.00,0.08,0.00,0.00,0.00,0.08,0.08,0.08,0.08,885,884,936,895
7079,0,0.03,-0.00,0.00,0.08,0.00,0.00,0.00,0.08,0.08,0.08,0.08,885,884,936,895
7086,0,0.03,-0.00,0.00,0.08,0.00,0.00,0.00,0.08,0.08,0.08,0.08,885,884,936,895
7093,0,0.03,-0.00,0.00,0.08,0.00,0.00,0.00,0.08,0.08,0.08,0.08,885,884,936,895
7100,0,0.03,-0.00,0.00,0.08,0.00,0.00,0.00,0.08,0.08,0.08,0.08,885,884,936,895
7108,0,0.03,-0.00,0.00,0.10,0.00,0.00,0.00,0.10,0.10,0.10,0.10,897,897,949,907
7114,0,0.03,-0.00,0.00,0.10,0.00,0.00,0.00,0.10,0.10,0.10,0.10,897,897,949,907
7122,0,0.03,-0.00,0.00,0.10,0.00,0.00,0.00,0.10,0.10,0.11,0.11,904,903,955,914
7129,0,0.03,-0.00,0.00,0.11,0.00,0.00,0.00,0.11,0.11,0.11,0.11,905,905,957,915
7136,0,0.03,-0.00,0.00,0.11,0.00,0.00,0.00,0.11,0.11,0.11,0.11,907,906,959,917
7143,0,0.03,-0.00,0.00,0.11,0.00,0.00,0.00,0.11,0.11,0.11,0.11,909,908,960,919
7150,0,0.03,-0.00,0.00,0.11,0.00,0.00,0.00,0.11,0.11,0.11,0.11,909,908,960,919
7158,0,0.03,-0.00,0.00,0.11,0.00,0.00,0.00,0.11,0.11,0.11,0.11,909,908,960,919
7165,0,0.03,-0.00,0.00,0.11,0.00,0.00,0.00,0.11,0.11,0.11,0.11,909,908,960,919
7173,0,0.03,-0.00,0.00,0.11,0.00,0.00,0.00,0.11,0.11,0.11,0.11,909,908,960,919
7181,0,0.03,-0.00,0.00,0.11,0.00,0.00,0.00,0.11,0.11,0.11,0.11,909,908,960,919
7187,0,0.03,-0.00,0.00,0.11,0.00,0.00,0.00,0.11,0.11,0.11,0.11,909,908,960,919
7194,0,0.03,-0.00,0.00,0.11,0.00,0.00,0.00,0.11,0.11,0.11,0.11,909,908,960,919
7202,0,0.03,-0.00,0.00,0.11,0.00,0.00,0.00,0.11,0.11,0.11,0.11,909,908,960,919
7209,0,0.03,-0.00,0.00,0.11,0.00,0.00,0.00,0.11,0.11,0.11,0.11,909,908,960,919
7216,0,0.03,-0.00,0.00,0.11,0.00,0.00,0.00,0.11,0.11,0.11,0.11,909,908,960,919
7223,0,0.03,-0.00,0.00,0.11,0.00,0.00,0.00,0.11,0.11,0.11,0.11,909,908,960,919
7230,0,0.03,-0.00,0.00,0.12,0.00,0.00,0.00,0.12,0.12,0.12,0.12,919,918,970,928
7236,0,0.03,-0.00,0.00,0.12,0.00,0.00,0.00,0.12,0.12,0.12,0.12,919,918,970,928
7243,0,0.03,-0.00,0.00,0.13,0.00,0.00,0.00,0.13,0.13,0.13,0.13,924,924,976,934
7250,0,0.03,-0.00,0.00,0.13,0.00,0.00,0.00,0.13,0.13,0.13,0.13,924,924,976,934
7258,0,0.03,-0.00,0.00,0.13,0.00,0.00,0.00,0.13,0.13,0.13,0.13,924,924,976,934
7264,0,0.03,-0.00,0.00,0.13,0.00,0.00,0.00,0.13,0.13,0.13,0.13,924,924,976,934
7271,0,0.03,-0.00,0.00,0.13,0.00,0.00,0.00,0.13,0.13,0.13,0.13,924,924,976,934
7279,0,0.03,-0.00,0.00,0.13,0.00,0.00,0.00,0.13,0.13,0.13,0.13,924,924,976,934
7285,0,0.03,-0.00,0.00,0.13,0.00,0.00,0.00,0.13,0.13,0.13,0.13,924,924,976,934
7292,0,0.03,-0.00,0.00,0.13,0.00,0.00,0.00,0.13,0.13,0.13,0.13,924,924,976,934
7299,0,0.03,-0.00,0.00,0.14,0.00,0.00,0.00,0.14,0.14,0.14,0.14,935,934,986,945
7307,0,0.03,-0.00,0.00,0.15,0.00,0.00,0.00,0.14,0.14,0.15,0.15,937,937,989,947
7313,0,0.03,-0.00,0.00,0.15,0.00,0.00,0.00,0.14,0.14,0.15,0.15,937,937,989,947
7321,0,0.03,-0.00,0.00,0.15,0.00,0.00,0.00,0.14,0.14,0.15,0.15,937,937,989,947
7329,0,0.03,-0.00,0.00,0.15,0.00,0.00,0.00,0.14,0.14,0.15,0.15,937,937,989,947
7335,0,0.03,-0.00,0.00,0.16,0.00,0.00,0.00,0.16,0.16,0.16,0.16,950,949,1001,960
7342,0,0.03,-0.00,0.00,0.16,0.00,0.00,0.00,0.16,0.16,0.17,0.17,952,951,1004,962
7350,0,0.03,-0.00,0.00,0.16,0.00,0.00,0.00,0.16,0.16,0.17,0.17,952,951,1004,962
7358,0,0.03,-0.00,0.00,0.16,0.00,0.00,0.00,0.16,0.16,0.17,0.17,952,951,1004,962
7364,0,0.03,-0.00,0.00,0.16,0.00,0.00,0.00,0.16,0.16,0.17,0.17,952,951,1004,962
7372,0,0.03,-0.00,0.00,0.16,0.00,0.00,0.00,0.16,0.16,0.17,0.17,952,951,1004,962
7379,0,0.03,-0.00,0.00,0.16,0.00,0.00,0.00,0.16,0.16,0.17,0.17,952,951,1004,962
7386,0,0.03,-0.00,0.00,0.16,0.00,0.00,0.00,0.16,0.16,0.17,0.17,952,951,1004,962
7399,0,0.03,-0.00,0.00,0.16,0.00,0.00,0.00,0.16,0.16,0.17,0.17,952,951,1004,962
7406,0,0.03,-0.00,0.00,0.17,0.00,0.00,0.00,0.17,0.17,0.17,0.17,957,956,1009,967
7413,0,0.03,-0.00,0.00,0.17,0.00,0.00,0.00,0.17,0.17,0.17,0.17,959,958,1010,969
7420,0,0.03,-0.00,0.00,0.17,0.00,0.00,0.00,0.17,0.17,0.17,0.17,959,959,1011,969
7428,0,0.03,-0.00,0.00,0.17,0.00,0.00,0.00,0.17,0.17,0.18,0.18,960,960,1012,970
7434,0,0.03,-0.00,0.00,0.17,0.00,0.00,0.00,0.17,0.17,0.18,0.18,961,961,1013,971
7442,0,0.03,-0.00,0.00,0.17,0.00,0.00,0.00,0.17,0.17,0.18,0.18,961,961,1013,971
7450,0,0.03,-0.00,0.00,0.17,0.00,0.00,0.00,0.17,0.17,0.18,0.18,961,961,1013,971
7457,0,0.03,-0.00,0.00,0.17,0.00,0.00,0.00,0.17,0.17,0.18,0.18,961,961,1013,971
7463,0,0.03,-0.00,0.00,0.17,0.00,0.00,0.00,0.17,0.17,0.18,0.18,961,961,1013,971
7471,0,0.03,-0.00,0.00,0.17,0.00,0.00,0.00,0.17,0.17,0.18,0.18,961,961,1013,971
7478,0,0.03,-0.00,0.00,0.17,0.00,0.00,0.00,0.17,0.17,0.18,0.18,961,961,1013,971
7485,0,0.03,-0.00,0.00,0.18,0.00,0.00,0.00,0.18,0.18,0.18,0.18,964,964,1016,974
7492,0,0.03,-0.00,0.00,0.18,0.00,0.00,0.00,0.18,0.18,0.18,0.18,964,964,1016,974
7500,0,0.03,-0.00,0.00,0.18,0.00,0.00,0.00,0.18,0.18,0.18,0.18,964,964,1016,974
7508,0,0.03,-0.00,0.00,0.18,0.00,0.00,0.00,0.18,0.18,0.18,0.18,964,964,1016,974
7514,0,0.03,-0.00,0.00,0.18,0.00,0.00,0.00,0.18,0.18,0.18,0.18,964,964,1016,974
7522,0,0.03,-0.00,0.00,0.18,0.00,0.00,0.00,0.18,0.18,0.18,0.18,965,965,1017,975
7529,0,0.03,-0.00,0.00,0.18,0.00,0.00,0.00,0.18,0.18,0.18,0.18,966,965,1018,976
7536,0,0.03,-0.00,0.00,0.18,0.00,0.00,0.00,0.18,0.18,0.18,0.18,968,967,1019,978
7543,0,0.03,-0.00,0.00,0.18,0.00,0.00,0.00,0.18,0.18,0.18,0.18,968,967,1019,978
7550,0,0.03,-0.00,0.00,0.18,0.00,0.00,0.00,0.18,0.18,0.18,0.18,968,967,1019,978
7558,0,0.03,-0.00,0.00,0.18,0.00,0.00,0.00,0.18,0.18,0.18,0.18,968,967,1019,978
7565,0,0.03,-0.00,0.00,0.18,0.00,0.00,0.00,0.18,0.18,0.18,0.18,968,967,1019,978
7572,0,0.03,-0.00,0.00,0.18,0.00,0.00,0.00,0.18,0.18,0.18,0.18,968,967,1019,978
7580,0,0.03,-0.00,0.00,0.18,0.00,0.00,0.00,0.18,0.18,0.18,0.18,968,967,1019,978
7586,0,0.03,-0.00,0.00,0.18,0.00,0.00,0.00,0.18,0.18,0.18,0.18,968,967,1019,978
7593,0,0.03,-0.00,0.00,0.18,0.00,0.00,0.00,0.18,0.18,0.18,0.18,968,967,1019,978
7600,0,0.03,-0.00,0.00,0.20,0.00,0.00,0.00,0.20,0.20,0.20,0.20,983,983,1035,993
7608,0,0.03,-0.00,0.00,0.20,0.00,0.00,0.00,0.20,0.20,0.20,0.20,983,983,1035,993
7614,0,0.03,-0.00,0.00,0.20,0.00,0.00,0.00,0.20,0.20,0.20,0.20,983,983,1035,993
7623,0,0.03,-0.00,0.00,0.21,0.00,0.00,0.00,0.21,0.21,0.21,0.21,991,990,1042,1001
7631,0,0.03,-0.00,0.00,0.21,0.00,0.00,0.00,0.21,0.21,0.21,0.21,991,990,1042,1001
7637,0,0.03,-0.00,0.00,0.22,0.00,0.00,0.00,0.21,0.21,0.22,0.22,994,993,1045,1004
7644,0,0.03,-0.00,0.00,0.22,0.00,0.00,0.00,0.22,0.22,0.22,0.22,996,996,1048,1006
7651,0,0.03,-0.00,0.00,0.22,0.00,0.00,0.00,0.22,0.22,0.22,0.22,998,997,1050,1008
7658,0,0.03,-0.00,0.00,0.22,0.00,0.00,0.00,0.22,0.22,0.22,0.22,998,997,1050,1008
7665,0,0.03,-0.00,0.00,0.22,0.00,0.00,0.00,0.22,0.22,0.22,0.22,998,997,1050,1008
7672,0,0.03,-0.00,0.00,0.22,0.00,0.00,0.00,0.22,0.22,0.22,0.22,998,997,1050,1008
7680,0,0.03,-0.00,0.00,0.22,0.00,0.00,0.00,0.22,0.22,0.22,0.22,998,997,1050,1008
7686,0,0.03,-0.00,0.00,0.22,0.00,0.00,0.00,0.22,0.22,0.22,0.22,998,997,1050,1008
7693,0,0.03,-0.00,0.00,0.22,0.00,0.00,0.00,0.22,0.22,0.22,0.22,998,997,1050,1008
7701,0,0.03,-0.00,0.00,0.23,0.00,0.00,0.00,0.23,0.23,0.23,0.23,1005,1004,1056,1014
7708,0,0.03,-0.00,0.00,0.24,0.00,0.00,0.00,0.24,0.24,0.24,0.24,1012,1011,1063,1022
7715,0,0.03,-0.00,0.00,0.24,0.00,0.00,0.00,0.24,0.24,0.24,0.24,1014,1013,1065,1023
7723,0,0.03,-0.00,0.00,0.24,0.00,0.00,0.00,0.24,0.24,0.24,0.24,1014,1014,1066,1024
7730,0,0.03,-0.00,0.00,0.24,0.00,0.00,0.00,0.24,0.24,0.24,0.24,1014,1014,1066,1024
7737,0,0.03,-0.00,0.00,0.24,0.00,0.00,0.00,0.24,0.24,0.24,0.24,1014,1014,1066,1024
7744,0,0.03,-0.00,0.00,0.25,0.00,0.00,0.00,0.24,0.24,0.25,0.25,1018,1018,1070,1028
7752,0,0.03,-0.00,0.00,0.25,0.00,0.00,0.00,0.25,0.25,0.25,0.25,1021,1020,1072,1031
7760,0,0.03,-0.00,0.00,0.25,0.00,0.00,0.00,0.25,0.25,0.25,0.25,1023,1022,1074,1033
7766,0,0.03,-0.00,0.00,0.25,0.00,0.00,0.00,0.25,0.25,0.25,0.25,1023,1022,1074,1033
7773,0,0.03,-0.00,0.00,0.25,0.00,0.00,0.00,0.25,0.25,0.25,0.25,1023,1022,1074,1033
7781,0,0.03,-0.00,0.00,0.25,0.00,0.00,0.00,0.25,0.25,0.25,0.25,1023,1022,1074,1033
7788,0,0.03,-0.00,0.00,0.25,0.00,0.00,0.00,0.25,0.25,0.25,0.25,1023,1022,1074,1033
7794,0,0.03,-0.00,0.00,0.25,0.00,0.00,0.00,0.25,0.25,0.25,0.25,1023,1022,1074,1033
7802,0,0.03,-0.00,0.00,0.25,0.00,0.00,0.00,0.25,0.25,0.25,0.25,1023,1022,1074,1033
7810,0,0.03,-0.00,0.00,0.25,0.00,0.00,0.00,0.25,0.25,0.25,0.25,1023,1022,1074,1033
7816,0,0.03,-0.00,0.00,0.25,0.00,0.00,0.00,0.25,0.25,0.25,0.25,1023,1022,1074,1033
7823,0,0.03,-0.00,0.00,0.25,0.00,0.00,0.00,0.25,0.25,0.25,0.25,1023,1022,1074,1033
7831,0,0.03,-0.00,0.00,0.26,0.00,0.00,0.00,0.26,0.26,0.26,0.26,1029,1028,1081,1039
7838,0,0.03,-0.00,0.00,0.26,0.00,0.00,0.00,0.26,0.26,0.26,0.26,1029,1028,1081,1039
7846,0,0.03,-0.00,0.00,0.26,0.00,0.00,0.00,0.26,0.26,0.26,0.26,1029,1028,1081,1039
7853,0,0.03,-0.00,0.00,0.26,0.00,0.00,0.00,0.26,0.26,0.26,0.26,1029,1028,1081,1039
7861,0,0.03,-0.00,0.00,0.26,0.00,0.00,0.00,0.26,0.26,0.26,0.26,1030,1029,1081,1040
7868,0,0.03,-0.00,0.00,0.26,0.00,0.00,0.00,0.26,0.26,0.26,0.26,1030,1029,1081,1040
7875,0,0.03,-0.00,0.00,0.26,0.00,0.00,0.00,0.26,0.26,0.26,0.26,1030,1029,1081,1040
7883,0,0.03,-0.00,0.00,0.26,0.00,0.00,0.00,0.26,0.26,0.26,0.26,1030,1029,1081,1040
7890,0,0.03,-0.00,0.00,0.26,0.00,0.00,0.00,0.26,0.26,0.26,0.26,1030,1029,1081,1040
7896,0,0.03,-0.00,0.00,0.26,0.00,0.00,0.00,0.26,0.26,0.26,0.26,1030,1029,1081,1040
7903,0,0.03,-0.00,0.00,0.26,0.00,0.00,0.00,0.26,0.26,0.26,0.26,1030,1029,1081,1040
7911,0,0.03,-0.00,0.00,0.26,0.00,0.00,0.00,0.26,0.26,0.26,0.26,1030,1029,1081,1040
7919,0,0.03,-0.00,0.00,0.26,0.00,0.00,0.00,0.26,0.26,0.26,0.26,1030,1029,1081,1040
7925,0,0.03,-0.00,0.00,0.26,0.00,0.00,0.00,0.26,0.26,0.26,0.26,1030,1029,1081,1040
7933,0,0.03,-0.00,0.00,0.26,0.00,0.00,0.00,0.26,0.26,0.26,0.26,1030,1029,1081,1040
7939,0,0.03,-0.00,0.00,0.26,0.00,0.00,0.00,0.26,0.26,0.26,0.26,1030,1029,1081,1040
7946,0,0.03,-0.00,0.00,0.26,0.00,0.00,0.00,0.26,0.26,0.26,0.26,1030,1029,1081,1040
7953,0,0.03,-0.00,0.00,0.26,0.00,0.00,0.00,0.26,0.26,0.26,0.26,1030,1029,1081,1040
7960,0,0.03,-0.00,0.00,0.26,0.00,0.00,0.00,0.26,0.26,0.26,0.26,1030,1029,1081,1040
7967,0,0.03,-0.00,0.00,0.26,0.00,0.00,0.00,0.26,0.26,0.26,0.26,1030,1029,1081,1040
7974,0,0.03,-0.00,0.00,0.26,0.00,0.00,0.00,0.26,0.26,0.26,0.26,1029,1028,1081,1039
7981,0,0.03,-0.00,0.00,0.26,0.00,0.00,0.00,0.26,0.26,0.26,0.26,1029,1028,1081,1039
7988,0,0.03,-0.00,0.00,0.26,0.00,0.00,0.00,0.26,0.26,0.26,0.26,1029,1028,1081,1039
7994,0,0.03,-0.00,0.00,0.26,0.00,0.00,0.00,0.26,0.26,0.26,0.26,1029,1028,1081,1039
8001,0,0.03,-0.00,0.00,0.26,0.00,0.00,0.00,0.26,0.26,0.26,0.26,1029,1028,1081,1039
8009,0,0.03,-0.00,0.00,0.26,0.00,0.00,0.00,0.26,0.26,0.26,0.26,1028,1028,1080,1038
8015,0,0.03,-0.00,0.00,0.25,0.00,0.00,0.00,0.25,0.25,0.26,0.26,1027,1026,1078,1037
8023,0,0.03,-0.00,0.00,0.25,0.00,0.00,0.00,0.25,0.25,0.26,0.26,1027,1026,1078,1037
8030,0,0.03,-0.00,0.00,0.23,0.00,0.00,0.00,0.23,0.23,0.23,0.23,1007,1006,1059,1017
8037,0,0.03,-0.00,0.00,0.20,0.00,0.00,0.00,0.20,0.20,0.20,0.20,982,981,1033,992
8044,0,0.03,-0.00,0.00,0.20,0.00,0.00,0.00,0.20,0.20,0.20,0.20,982,981,1033,992
8051,0,0.03,-0.00,0.00,0.17,0.00,0.00,0.00,0.17,0.17,0.17,0.17,956,956,1008,966
8059,0,0.03,-0.00,0.00,0.17,0.00,0.00,0.00,0.17,0.17,0.17,0.17,956,956,1008,966
8072,0,0.03,-0.00,0.00,0.17,0.00,0.00,0.00,0.17,0.17,0.17,0.17,956,956,1008,966
8080,0,0.03,-0.00,0.00,0.17,0.00,0.00,0.00,0.17,0.17,0.17,0.17,956,956,1008,966
8086,0,0.03,-0.00,0.00,0.17,0.00,0.00,0.00,0.17,0.17,0.17,0.17,956,956,1008,966
8093,0,0.03,-0.00,0.00,0.17,0.00,0.00,0.00,0.17,0.17,0.17,0.17,956,956,1008,966
8101,0,0.03,-0.00,0.00,0.13,0.00,0.00,0.00,0.13,0.13,0.13,0.13,923,923,975,933
8109,0,0.03,-0.00,0.00,0.07,0.00,0.00,0.00,0.06,0.06,0.07,0.07,872,871,923,882
8116,0,0.03,-0.00,0.00,0.04,0.00,0.00,0.00,0.04,0.04,0.04,0.04,851,850,902,860
8123,0,0.03,-0.00,0.00,0.02,0.00,0.00,0.00,0.02,0.02,0.02,0.02,835,835,886,845
8131,0,0.03,-0.00,0.00,0.00,0.00,0.00,0.00,0.00,0.00,0.00,0.00,819,819,819,819
8137,0,0.03,-0.00,0.00,0.00,0.00,0.00,0.00,0.00,0.00,0.00,0.00,819,819,819,819
8144,0,0.03,-0.00,0.00,0.00,0.00,0.00,0.00,0.00,0.00,0.00,0.00,819,819,819,819
8151,0,0.03,-0.00,0.00,0.00,0.00,0.00,0.00,0.00,0.00,0.00,0.00,819,819,819,819
8159,0,0.03,-0.00,0.00,0.00,0.00,0.00,0.00,0.00,0.00,0.00,0.00,819,819,819,819
8166,0,0.03,-0.00,0.00,0.00,0.00,0.00,0.00,0.00,0.00,0.00,0.00,819,819,819,819
8173,0,0.03,-0.00,0.00,0.00,0.00,0.00,0.00,0.00,0.00,0.00,0.00,819,819,819,819
8181,0,0.03,-0.00,0.00,0.00,0.00,0.00,0.00,0.00,0.00,0.00,0.00,819,819,819,819
8187,0,0.03,-0.00,0.00,0.00,0.00,0.00,0.00,0.00,0.00,0.00,0.00,819,819,819,819
8194,0,0.03,-0.00,0.00,0.00,0.00,0.00,0.00,0.00,0.00,0.00,0.00,819,819,819,819
8202,0,0.03,-0.00,0.00,0.00,0.00,0.00,0.00,0.00,0.00,0.00,0.00,819,819,819,819
8209,0,0.03,-0.00,0.00,0.00,0.00,0.00,0.00,0.00,0.00,0.00,0.00,819,819,819,819
8216,0,0.03,-0.00,0.00,0.00,0.00,0.00,0.00,0.00,0.00,0.00,0.00,819,819,819,819
8223,0,0.03,-0.00,0.00,0.00,0.00,0.00,0.00,0.00,0.00,0.00,0.00,819,819,819,819
8231,0,0.03,-0.00,0.00,0.00,0.00,0.00,0.00,0.00,0.00,0.00,0.00,819,819,819,819
8237,0,0.03,-0.00,0.00,0.00,0.00,0.00,0.00,0.00,0.00,0.00,0.00,819,819,819,819
8244,0,0.03,-0.00,0.00,0.00,0.00,0.00,0.00,0.00,0.00,0.00,0.00,819,819,819,819
8252,0,0.03,-0.00,0.00,0.00,0.00,0.00,0.00,0.00,0.00,0.00,0.00,819,819,819,819
8259,0,0.03,-0.00,0.00,0.00,0.00,0.00,0.00,0.00,0.00,0.00,0.00,819,819,819,819
8266,0,0.03,-0.00,0.00,0.00,0.00,0.00,0.00,0.00,0.00,0.00,0.00,819,819,819,819
8274,0,0.03,-0.00,0.00,0.00,0.00,0.00,0.00,0.00,0.00,0.00,0.00,819,819,819,819
8281,0,0.03,-0.00,0.00,0.00,0.00,0.00,0.00,0.00,0.00,0.00,0.00,819,819,819,819
8288,0,0.03,-0.00,0.00,0.00,0.00,0.00,0.00,0.00,0.00,0.00,0.00,819,819,819,819
8296,0,0.03,-0.00,0.00,0.00,0.00,0.00,0.00,0.00,0.00,0.00,0.00,819,819,819,819
8304,0,0.03,-0.00,0.00,0.00,0.00,0.00,0.00,0.00,0.00,0.00,0.00,819,819,819,819
8311,0,0.03,-0.00,0.00,0.00,0.00,0.00,0.00,0.00,0.00,0.00,0.00,819,819,819,819
8318,0,0.03,-0.00,0.00,0.00,0.00,0.00,0.00,0.00,0.00,0.00,0.00,819,819,819,819
8324,0,0.03,-0.00,0.00,0.00,0.00,0.00,0.00,0.00,0.00,0.00,0.00,819,819,819,819
8332,0,0.03,-0.00,0.00,0.00,0.00,0.00,0.00,0.00,0.00,0.00,0.00,819,819,819,819
8338,0,0.03,-0.00,0.00,0.00,0.00,0.00,0.00,0.00,0.00,0.00,0.00,819,819,819,819
8348,0,0.03,-0.00,0.00,0.00,0.00,0.00,0.00,0.00,0.00,0.00,0.00,819,819,819,819
8355,0,0.03,-0.00,0.00,0.00,0.00,0.00,0.00,0.00,0.00,0.00,0.00,819,819,819,819
8362,0,0.03,-0.00,0.00,0.00,0.00,0.00,0.00,0.00,0.00,0.00,0.00,819,819,819,819
8369,0,0.03,-0.00,0.00,0.00,0.00,0.00,0.00,0.00,0.00,0.00,0.00,819,819,819,819
8375,0,0.03,-0.00,0.00,0.00,0.00,0.00,0.00,0.00,0.00,0.00,0.00,819,819,819,819
8383,0,0.03,-0.00,0.00,0.00,0.00,0.00,0.00,0.00,0.00,0.00,0.00,819,819,819,819
8389,0,0.03,-0.00,0.00,0.00,0.00,0.00,0.00,0.00,0.00,0.00,0.00,819,819,819,819
8395,0,0.03,-0.00,0.00,0.00,0.00,0.00,0.00,0.00,0.00,0.00,0.00,819,819,819,819
8403,0,0.03,-0.00,0.00,0.00,0.00,0.00,0.00,0.00,0.00,0.00,0.00,819,819,819,819
8411,0,0.03,-0.00,0.00,0.00,0.00,0.00,0.00,0.00,0.00,0.00,0.00,819,819,819,819
8417,0,0.03,-0.00,0.00,0.00,0.00,0.00,0.00,0.00,0.00,0.00,0.00,819,819,819,819
8424,0,0.03,-0.00,0.00,0.00,0.00,0.00,0.00,0.00,0.00,0.00,0.00,819,819,819,819
8432,0,0.03,-0.00,0.00,0.00,0.00,0.00,0.00,0.00,0.00,0.00,0.00,819,819,819,819
8439,0,0.03,-0.00,0.00,0.00,0.00,0.00,0.00,0.00,0.00,0.00,0.00,819,819,819,819
8445,0,0.03,-0.00,0.00,0.00,0.00,0.00,0.00,0.00,0.00,0.00,0.00,819,819,819,819
8453,0,0.03,-0.00,0.00,0.00,0.00,0.00,0.00,0.00,0.00,0.00,0.00,819,819,819,819
8460,0,0.03,-0.00,0.00,0.00,0.00,0.00,0.00,0.00,0.00,0.00,0.00,819,819,819,819
8467,0,0.03,-0.00,0.00,0.00,0.00,0.00,0.00,0.00,0.00,0.00,0.00,819,819,819,819
8474,0,0.03,-0.00,0.00,0.00,0.00,0.00,0.00,0.00,0.00,0.00,0.00,819,819,819,819
8482,0,0.03,-0.00,0.00,0.00,0.00,0.00,0.00,0.00,0.00,0.00,0.00,819,819,819,819
8488,0,0.03,-0.00,0.00,0.00,0.00,0.00,0.00,0.00,0.00,0.00,0.00,819,819,819,819
8495,0,0.03,-0.00,0.00,0.00,0.00,0.00,0.00,0.00,0.00,0.00,0.00,819,819,819,819
8502,0,0.03,-0.00,0.00,0.00,0.00,0.00,0.00,0.00,0.00,0.00,0.00,819,819,819,819
8515,0,0.03,-0.00,0.00,0.00,0.00,0.00,0.00,0.00,0.00,0.00,0.00,819,819,819,819
8522,0,0.03,-0.00,0.00,0.00,0.00,0.00,0.00,0.00,0.00,0.00,0.00,819,819,819,819
8530,0,0.03,-0.00,0.00,0.00,0.00,0.00,0.00,0.00,0.00,0.00,0.00,819,819,819,819
8536,0,0.03,-0.00,0.00,0.00,0.00,0.00,0.00,0.00,0.00,0.00,0.00,819,819,819,819
8544,0,0.03,-0.00,0.00,0.00,0.00,0.00,0.00,0.00,0.00,0.00,0.00,819,819,819,819
8551,0,0.03,-0.00,0.00,0.00,0.00,0.00,0.00,0.00,0.00,0.00,0.00,819,819,819,819
8558,0,0.03,-0.00,0.00,0.00,0.00,0.00,0.00,0.00,0.00,0.00,0.00,819,819,819,819
8565,0,0.03,-0.00,0.00,0.00,0.00,0.00,0.00,0.00,0.00,0.00,0.00,819,819,819,819
8572,0,0.03,-0.00,0.00,0.00,0.00,0.00,0.00,0.00,0.00,0.00,0.00,819,819,819,819
8580,0,0.03,-0.00,0.00,0.00,0.00,0.00,0.00,0.00,0.00,0.00,0.00,819,819,819,819
8586,0,0.03,-0.00,0.00,0.00,0.00,0.00,0.00,0.00,0.00,0.00,0.00,819,819,819,819
8594,0,0.03,-0.00,0.00,0.00,0.00,0.00,0.00,0.00,0.00,0.00,0.00,819,819,819,819
8602,0,0.03,-0.00,0.00,0.00,0.00,0.00,0.00,0.00,0.00,0.00,0.00,819,819,819,819
8608,0,0.03,-0.00,0.00,0.00,0.00,0.00,0.00,0.00,0.00,0.00,0.00,819,819,819,819
8615,0,0.03,-0.00,0.00,0.00,0.00,0.00,0.00,0.00,0.00,0.00,0.00,819,819,819,819
8623,0,0.03,-0.00,0.00,0.00,0.00,0.00,0.00,0.00,0.00,0.00,0.00,819,819,819,819
8630,0,0.03,-0.00,0.00,0.00,0.00,0.00,0.00,0.00,0.00,0.00,0.00,819,819,819,819
8670,0,0.03,-0.00,0.00,0.00,0.00,0.00,0.00,0.00,0.00,0.00,0.00,819,819,819,819
8679,0,0.03,-0.00,0.00,0.00,0.00,0.00,0.00,0.00,0.00,0.00,0.00,819,819,819,819
8686,0,0.03,-0.00,0.00,0.00,0.00,0.00,0.00,0.00,0.00,0.00,0.00,819,819,819,819
8693,0,0.03,-0.00,0.00,0.00,0.00,0.00,0.00,0.00,0.00,0.00,0.00,819,819,819,819
8701,0,0.03,-0.00,0.00,0.00,0.00,0.00,0.00,0.00,0.00,0.00,0.00,819,819,819,819
8708,0,0.03,-0.00,0.00,0.00,0.00,0.00,0.00,0.00,0.00,0.00,0.00,819,819,819,819
8715,0,0.03,-0.00,0.00,0.00,0.00,0.00,0.00,0.00,0.00,0.00,0.00,819,819,819,819
8722,0,0.03,-0.00,0.00,0.00,0.00,0.00,0.00,0.00,0.00,0.00,0.00,819,819,819,819
8728,0,0.03,-0.00,0.00,0.00,0.00,0.00,0.00,0.00,0.00,0.00,0.00,819,819,819,819
8735,0,0.03,-0.00,0.00,0.00,0.00,0.00,0.00,0.00,0.00,0.00,0.00,819,819,819,819
8741,0,0.03,-0.00,0.00,0.00,0.00,0.00,0.00,0.00,0.00,0.00,0.00,819,819,819,819
8748,0,0.03,-0.00,0.00,0.00,0.00,0.00,0.00,0.00,0.00,0.00,0.00,819,819,819,819
8755,0,0.03,-0.00,0.00,0.00,0.00,0.00,0.00,0.00,0.00,0.00,0.00,819,819,819,819
8762,0,0.03,-0.00,0.00,0.00,0.00,0.00,0.00,0.00,0.00,0.00,0.00,819,819,819,819
8769,0,0.03,-0.00,0.00,0.00,0.00,0.00,0.00,0.00,0.00,0.00,0.00,819,819,819,819
8775,0,0.03,-0.00,0.00,0.00,0.00,0.00,0.00,0.00,0.00,0.00,0.00,819,819,819,819
8783,0,0.03,-0.00,0.00,0.00,0.00,0.00,0.00,0.00,0.00,0.00,0.00,819,819,819,819
8789,0,0.03,-0.00,0.00,0.00,0.00,0.00,0.00,0.00,0.00,0.00,0.00,819,819,819,819
8795,0,0.03,-0.00,0.00,0.00,0.00,0.00,0.00,0.00,0.00,0.00,0.00,819,819,819,819
8803,0,0.03,-0.00,0.00,0.00,0.00,0.00,0.00,0.00,0.00,0.00,0.00,819,819,819,819
8810,0,0.03,-0.00,0.00,0.00,0.00,0.00,0.00,0.00,0.00,0.00,0.00,819,819,819,819
8817,0,0.03,-0.00,0.00,0.00,0.00,0.00,0.00,0.00,0.00,0.00,0.00,819,819,819,819
8825,0,0.03,-0.00,0.00,0.00,0.00,0.00,0.00,0.00,0.00,0.00,0.00,819,819,819,819
8832,0,0.03,-0.00,0.00,0.00,0.00,0.00,0.00,0.00,0.00,0.00,0.00,819,819,819,819
8839,0,0.03,-0.00,0.00,0.00,0.00,0.00,0.00,0.00,0.00,0.00,0.00,819,819,819,819
8846,0,0.03,-0.00,0.00,0.00,0.00,0.00,0.00,0.00,0.00,0.00,0.00,819,819,819,819
8853,0,0.03,-0.00,0.00,0.00,0.00,0.00,0.00,0.00,0.00,0.00,0.00,819,819,819,819
8861,0,0.03,-0.00,0.00,0.00,0.00,0.00,0.00,0.00,0.00,0.00,0.00,819,819,819,819
8867,0,0.03,-0.00,0.00,0.00,0.00,0.00,0.00,0.00,0.00,0.00,0.00,819,819,819,819
8875,0,0.03,-0.00,0.00,0.00,0.00,0.00,0.00,0.00,0.00,0.00,0.00,819,819,819,819
8882,0,0.03,-0.00,0.00,0.00,0.00,0.00,0.00,0.00,0.00,0.00,0.00,819,819,819,819
8894,0,0.03,-0.00,0.00,0.00,0.00,0.00,0.00,0.00,0.00,0.00,0.00,819,819,819,819
8903,0,0.03,-0.00,0.00,0.00,0.00,0.00,0.00,0.00,0.00,0.00,0.00,819,819,819,819
8911,0,0.03,-0.00,0.00,0.00,0.00,0.00,0.00,0.00,0.00,0.00,0.00,819,819,819,819
8917,0,0.03,-0.00,0.00,0.00,0.00,0.00,0.00,0.00,0.00,0.00,0.00,819,819,819,819
8925,0,0.03,-0.00,0.00,0.00,0.00,0.00,0.00,0.00,0.00,0.00,0.00,819,819,819,819
8933,0,0.03,-0.00,0.00,0.00,0.00,0.00,0.00,0.00,0.00,0.00,0.00,819,819,819,819
8939,0,0.03,-0.00,0.00,0.00,0.00,0.00,0.00,0.00,0.00,0.00,0.00,819,819,819,819
8946,0,0.03,-0.00,0.00,0.00,0.00,0.00,0.00,0.00,0.00,0.00,0.00,819,819,819,819
8953,0,0.03,-0.00,0.00,0.00,0.00,0.00,0.00,0.00,0.00,0.00,0.00,819,819,819,819
8961,0,0.03,-0.00,0.00,0.00,0.00,0.00,0.00,0.00,0.00,0.00,0.00,819,819,819,819
8967,0,0.03,-0.00,0.00,0.00,0.00,0.00,0.00,0.00,0.00,0.00,0.00,819,819,819,819
8975,0,0.03,-0.00,0.00,0.00,0.00,0.00,0.00,0.00,0.00,0.00,0.00,819,819,819,819
8982,0,0.03,-0.00,0.00,0.00,0.00,0.00,0.00,0.00,0.00,0.00,0.00,819,819,819,819
8989,0,0.03,-0.00,0.00,0.00,0.00,0.00,0.00,0.00,0.00,0.00,0.00,819,819,819,819
8996,0,0.03,-0.00,0.00,0.00,0.00,0.00,0.00,0.00,0.00,0.00,0.00,819,819,819,819
9003,0,0.03,-0.00,0.00,0.00,0.00,0.00,0.00,0.00,0.00,0.00,0.00,819,819,819,819
9011,0,0.03,-0.00,0.00,0.00,0.00,0.00,0.00,0.00,0.00,0.00,0.00,819,819,819,819
9017,0,0.03,-0.00,0.00,0.00,0.00,0.00,0.00,0.00,0.00,0.00,0.00,819,819,819,819
9025,0,0.03,-0.00,0.00,0.00,0.00,0.00,0.00,0.00,0.00,0.00,0.00,819,819,819,819
9032,0,0.03,-0.00,0.00,0.00,0.00,0.00,0.00,0.00,0.00,0.00,0.00,819,819,819,819
9039,0,0.03,-0.00,0.00,0.00,0.00,0.00,0.00,0.00,0.00,0.00,0.00,819,819,819,819
9046,0,0.03,-0.00,0.00,0.00,0.00,0.00,0.00,0.00,0.00,0.00,0.00,819,819,819,819
9053,0,0.03,-0.00,0.00,0.00,0.00,0.00,0.00,0.00,0.00,0.00,0.00,819,819,819,819
9061,0,0.03,-0.00,0.00,0.00,0.00,0.00,0.00,0.00,0.00,0.00,0.00,819,819,819,819
9067,0,0.03,-0.00,0.00,0.00,0.00,0.00,0.00,0.00,0.00,0.00,0.00,819,819,819,819
9075,0,0.03,-0.00,0.00,0.00,0.00,0.00,0.00,0.00,0.00,0.00,0.00,819,819,819,819
9082,0,0.03,-0.00,0.00,0.00,0.00,0.00,0.00,0.00,0.00,0.00,0.00,819,819,819,819
9089,0,0.03,-0.00,0.00,0.00,0.00,0.00,0.00,0.00,0.00,0.00,0.00,819,819,819,819
9096,0,0.03,-0.00,0.00,0.00,0.00,0.00,0.00,0.00,0.00,0.00,0.00,819,819,819,819
9103,0,0.03,-0.00,0.00,0.00,0.00,0.00,0.00,0.00,0.00,0.00,0.00,819,819,819,819
9110,0,0.03,-0.00,0.00,0.00,0.00,0.00,0.00,0.00,0.00,0.00,0.00,819,819,819,819
9122,0,0.03,-0.00,0.00,0.01,0.00,0.00,0.00,0.00,0.00,0.00,0.00,819,819,819,819
9131,0,0.03,-0.00,0.00,0.01,0.00,0.00,0.00,0.00,0.00,0.00,0.00,819,819,819,819
9138,0,0.03,-0.00,0.00,0.01,0.00,0.00,0.00,0.00,0.00,0.00,0.00,819,819,819,819
9145,0,0.03,-0.00,0.00,0.03,0.00,0.00,0.00,0.03,0.02,0.04,0.04,841,839,899,856
9152,0,0.03,-0.00,0.00,0.04,0.00,0.00,0.00,0.04,0.04,0.04,0.04,849,848,900,859
9159,0,0.03,-0.00,0.00,0.04,0.00,0.00,0.00,0.04,0.04,0.04,0.04,849,848,900,859
9166,0,0.03,-0.00,0.00,0.04,0.00,0.00,0.00,0.04,0.04,0.04,0.04,849,848,900,859
9173,0,0.03,-0.00,0.00,0.04,0.00,0.00,0.00,0.04,0.04,0.04,0.04,849,848,900,859
9181,0,0.03,-0.00,0.00,0.04,0.00,0.00,0.00,0.04,0.04,0.04,0.04,849,848,900,859
9188,0,0.03,-0.00,0.00,0.04,0.00,0.00,0.00,0.04,0.04,0.04,0.04,849,848,900,859
9195,0,0.03,-0.00,0.00,0.04,0.00,0.00,0.00,0.04,0.04,0.04,0.04,849,848,900,859
9203,0,0.03,-0.00,0.00,0.04,0.00,0.00,0.00,0.04,0.04,0.05,0.05,854,853,905,864
9210,0,0.03,-0.00,0.00,0.06,0.00,0.00,0.00,0.06,0.06,0.06,0.06,869,868,920,879
9217,0,0.03,-0.00,0.00,0.06,0.00,0.00,0.00,0.06,0.06,0.06,0.06,869,868,920,879
9225,0,0.03,-0.00,0.00,0.06,0.00,0.00,0.00,0.06,0.06,0.06,0.06,869,868,920,879
9232,0,0.03,-0.00,0.00,0.06,0.00,0.00,0.00,0.06,0.06,0.06,0.06,869,868,920,879
9239,0,0.03,-0.00,0.00,0.06,0.00,0.00,0.00,0.06,0.06,0.06,0.06,869,868,920,879
9246,0,0.03,-0.00,0.00,0.06,0.00,0.00,0.00,0.06,0.06,0.06,0.06,869,869,921,879
9254,0,0.03,-0.00,0.00,0.06,0.00,0.00,0.00,0.06,0.06,0.06,0.06,869,869,921,879
9261,0,0.03,-0.00,0.00,0.06,0.00,0.00,0.00,0.06,0.06,0.06,0.06,869,869,921,879
9268,0,0.03,-0.00,0.00,0.06,0.00,0.00,0.00,0.06,0.06,0.06,0.06,869,869,921,879
9276,0,0.03,-0.00,0.00,0.06,0.00,0.00,0.00,0.06,0.06,0.06,0.06,869,869,921,879
9283,0,0.03,-0.00,0.00,0.06,0.00,0.00,0.00,0.06,0.06,0.06,0.06,869,869,921,879
9290,0,0.03,-0.00,0.00,0.06,0.00,0.00,0.00,0.06,0.06,0.06,0.06,869,869,921,879
9297,0,0.03,-0.00,0.00,0.06,0.00,0.00,0.00,0.06,0.06,0.06,0.06,869,869,921,879
9304,0,0.03,-0.00,0.00,0.06,0.00,0.00,0.00,0.06,0.06,0.06,0.06,869,869,921,879
9312,0,0.03,-0.00,0.00,0.06,0.00,0.00,0.00,0.06,0.06,0.06,0.06,869,869,921,879
9319,0,0.03,-0.00,0.00,0.06,0.00,0.00,0.00,0.06,0.06,0.06,0.06,869,869,921,879
9326,0,0.03,-0.00,0.00,0.06,0.00,0.00,0.00,0.06,0.06,0.06,0.06,869,869,921,879
9334,0,0.03,-0.00,0.00,0.06,0.00,0.00,0.00,0.06,0.06,0.06,0.06,869,869,921,879
9340,0,0.03,-0.00,0.00,0.06,0.00,0.00,0.00,0.06,0.06,0.06,0.06,869,869,921,879
9367,0,0.03,-0.00,0.00,0.06,0.00,0.00,0.00,0.06,0.06,0.06,0.06,869,869,921,879
9429,0,0.03,-0.00,0.00,0.06,0.00,0.00,0.00,0.06,0.06,0.06,0.06,869,869,921,879
9437,0,0.03,-0.00,0.00,0.06,0.00,0.00,0.00,0.06,0.06,0.06,0.06,869,869,921,879
9444,0,0.03,-0.00,0.00,0.06,0.00,0.00,0.00,0.06,0.06,0.06,0.06,869,869,921,879
9452,0,0.03,-0.00,0.00,0.06,0.00,0.00,0.00,0.06,0.06,0.06,0.06,869,869,921,879
9459,0,0.03,-0.00,0.00,0.06,0.00,0.00,0.00,0.06,0.06,0.06,0.06,869,869,921,879
9466,0,0.03,-0.00,0.00,0.06,0.00,0.00,0.00,0.06,0.06,0.06,0.06,869,869,921,879
9474,0,0.03,-0.00,0.00,0.06,0.00,0.00,0.00,0.06,0.06,0.06,0.06,869,869,921,879
9481,0,0.03,-0.00,0.00,0.06,0.00,0.00,0.00,0.06,0.06,0.06,0.06,869,869,921,879
9488,0,0.03,-0.00,0.00,0.06,0.00,0.00,0.00,0.06,0.06,0.06,0.06,869,869,921,879
9496,0,0.03,-0.00,0.00,0.06,0.00,0.00,0.00,0.06,0.06,0.06,0.06,869,869,921,879
9504,0,0.03,-0.00,0.00,0.06,0.00,0.00,0.00,0.06,0.06,0.06,0.06,869,869,921,879
9511,0,0.03,-0.00,0.00,0.06,0.00,0.00,0.00,0.06,0.06,0.06,0.06,869,869,921,879
9518,0,0.03,-0.00,0.00,0.06,0.00,0.00,0.00,0.06,0.06,0.06,0.06,869,869,921,879
9525,0,0.03,-0.00,0.00,0.06,0.00,0.00,0.00,0.06,0.06,0.06,0.06,869,869,921,879
9533,0,0.03,-0.00,0.00,0.06,0.00,0.00,0.00,0.06,0.06,0.06,0.06,869,869,921,879
9539,0,0.03,-0.00,0.00,0.06,0.00,0.00,0.00,0.06,0.06,0.06,0.06,869,869,921,879
9546,0,0.03,-0.00,0.00,0.06,0.00,0.00,0.00,0.06,0.06,0.06,0.06,869,869,921,879
9554,0,0.03,-0.00,0.00,0.06,0.00,0.00,0.00,0.06,0.06,0.06,0.06,869,869,921,879
9561,0,0.03,-0.00,0.00,0.06,0.00,0.00,0.00,0.06,0.06,0.06,0.06,869,869,921,879
9567,0,0.03,-0.00,0.00,0.06,0.00,0.00,0.00,0.06,0.06,0.06,0.06,869,869,921,879
9575,0,0.03,-0.00,0.00,0.06,0.00,0.00,0.00,0.06,0.06,0.06,0.06,869,869,921,879
9583,0,0.03,-0.00,0.00,0.06,0.00,0.00,0.00,0.06,0.06,0.06,0.06,869,869,921,879
9589,0,0.03,-0.00,0.00,0.06,0.00,0.00,0.00,0.06,0.06,0.06,0.06,869,869,921,879
9596,0,0.03,-0.00,0.00,0.06,0.00,0.00,0.00,0.06,0.06,0.06,0.06,869,869,921,879
9604,0,0.03,-0.00,0.00,0.06,0.00,0.00,0.00,0.06,0.06,0.06,0.06,869,869,921,879
9610,0,0.03,-0.00,0.00,0.06,0.00,0.00,0.00,0.06,0.06,0.06,0.06,869,869,921,879
9617,0,0.03,-0.00,0.00,0.07,0.00,0.00,0.00,0.07,0.07,0.07,0.07,875,874,927,885
9625,0,0.03,-0.00,0.00,0.07,0.00,0.00,0.00,0.07,0.07,0.08,0.08,878,878,930,888
9632,0,0.03,-0.00,0.00,0.08,0.00,0.00,0.00,0.08,0.08,0.08,0.08,881,880,932,891
9639,0,0.03,-0.00,0.00,0.08,0.00,0.00,0.00,0.08,0.08,0.08,0.08,882,882,934,892
9646,0,0.03,-0.00,0.00,0.08,0.00,0.00,0.00,0.08,0.08,0.08,0.08,883,883,935,893
9677,0,0.03,-0.00,0.00,0.08,0.00,0.00,0.00,0.08,0.08,0.08,0.08,884,884,936,894
9685,0,0.03,-0.00,0.00,0.08,0.00,0.00,0.00,0.08,0.08,0.08,0.08,886,885,937,896
9692,0,0.03,-0.00,0.00,0.08,0.00,0.00,0.00,0.08,0.08,0.08,0.08,886,885,937,896
9699,0,0.03,-0.00,0.00,0.08,0.00,0.00,0.00,0.08,0.08,0.09,0.09,887,886,938,897
9706,0,0.03,-0.00,0.00,0.08,0.00,0.00,0.00,0.08,0.08,0.09,0.09,887,887,939,897
9714,0,0.03,-0.00,0.00,0.08,0.00,0.00,0.00,0.08,0.08,0.09,0.09,887,887,939,897
9722,0,0.03,-0.00,0.00,0.08,0.00,0.00,0.00,0.08,0.08,0.09,0.09,887,887,939,897
9728,0,0.03,-0.00,0.00,0.08,0.00,0.00,0.00,0.08,0.08,0.09,0.09,887,887,939,897
9736,0,0.03,-0.00,0.00,0.08,0.00,0.00,0.00,0.08,0.08,0.09,0.09,887,887,939,897
9743,0,0.03,-0.00,0.00,0.08,0.00,0.00,0.00,0.08,0.08,0.09,0.09,887,887,939,897
9750,0,0.03,-0.00,0.00,0.08,0.00,0.00,0.00,0.08,0.08,0.09,0.09,887,887,939,897
9757,0,0.03,-0.00,0.00,0.08,0.00,0.00,0.00,0.08,0.08,0.09,0.09,887,887,939,897
9765,0,0.03,-0.00,0.00,0.09,0.00,0.00,0.00,0.09,0.09,0.09,0.09,891,891,943,901
9772,0,0.03,-0.00,0.00,0.09,0.00,0.00,0.00,0.09,0.09,0.09,0.09,892,892,944,902
9779,0,0.03,-0.00,0.00,0.09,0.00,0.00,0.00,0.09,0.09,0.09,0.09,892,892,944,902
9787,0,0.03,-0.00,0.00,0.09,0.00,0.00,0.00,0.09,0.09,0.09,0.09,892,892,944,902
9793,0,0.03,-0.00,0.00,0.09,0.00,0.00,0.00,0.09,0.09,0.09,0.09,893,893,945,903
9800,0,0.03,-0.00,0.00,0.09,0.00,0.00,0.00,0.09,0.09,0.09,0.09,893,893,945,903
9807,0,0.03,-0.00,0.00,0.09,0.00,0.00,0.00,0.09,0.09,0.10,0.09,894,893,946,904
9815,0,0.03,-0.00,0.00,0.09,0.00,0.00,0.00,0.09,0.09,0.10,0.09,895,894,946,905
9822,0,0.03,-0.00,0.00,0.09,0.00,0.00,0.00,0.09,0.09,0.10,0.09,895,894,946,905
9829,0,0.03,-0.00,0.00,0.10,0.00,0.00,0.00,0.09,0.09,0.10,0.10,896,895,947,905
9837,0,0.03,-0.00,0.00,0.10,0.00,0.00,0.00,0.09,0.09,0.10,0.10,896,895,947,905
9844,0,0.03,-0.00,0.00,0.10,0.00,0.00,0.00,0.09,0.09,0.10,0.10,896,895,947,905
9850,0,0.03,-0.00,0.00,0.10,0.00,0.00,0.00,0.09,0.09,0.10,0.10,896,895,947,905
9857,0,0.03,-0.00,0.00,0.10,0.00,0.00,0.00,0.09,0.09,0.10,0.10,896,895,947,905
9865,0,0.03,-0.00,0.00,0.10,0.00,0.00,0.00,0.09,0.09,0.10,0.10,896,895,947,905
9873,0,0.03,-0.00,0.00,0.10,0.00,0.00,0.00,0.09,0.09,0.10,0.10,896,895,947,905
9879,0,0.03,-0.00,0.00,0.10,0.00,0.00,0.00,0.09,0.09,0.10,0.10,896,895,947,905
9887,0,0.03,-0.00,0.00,0.10,0.00,0.00,0.00,0.09,0.09,0.10,0.10,896,895,947,905
9894,0,0.03,-0.00,0.00,0.10,0.00,0.00,0.00,0.09,0.09,0.10,0.10,896,895,947,905
9907,0,0.03,-0.00,0.00,0.10,0.00,0.00,0.00,0.09,0.09,0.10,0.10,896,895,947,905
9939,0,0.03,-0.00,0.00,0.10,0.00,0.00,0.00,0.09,0.09,0.10,0.10,896,895,947,905
9947,0,0.03,-0.00,0.00,0.10,0.00,0.00,0.00,0.09,0.09,0.10,0.10,896,895,947,905
9954,0,0.03,-0.00,0.00,0.10,0.00,0.00,0.00,0.09,0.09,0.10,0.10,896,895,947,905
9961,0,0.03,-0.00,0.00,0.10,0.00,0.00,0.00,0.09,0.09,0.10,0.10,896,895,947,905
9968,0,0.03,-0.00,0.00,0.10,0.00,0.00,0.00,0.09,0.09,0.10,0.10,895,895,947,906
9975,0,0.03,-0.00,0.00,0.10,0.00,0.00,0.00,0.09,0.09,0.10,0.10,896,895,947,906
9983,0,0.03,-0.00,0.00,0.10,0.00,0.00,0.00,0.09,0.09,0.10,0.10,896,895,947,906
9989,0,0.03,-0.00,0.00,0.10,0.00,0.00,0.00,0.09,0.09,0.10,0.10,896,895,947,906
9999,0,0.03,-0.00,0.00,0.10,0.00,0.00,0.00,0.09,0.09,0.10,0.10,896,895,947,906
10006,0,0.03,-0.00,0.00,0.10,0.00,0.00,0.00,0.09,0.09,0.10,0.10,896,895,947,906
10014,0,0.03,-0.00,0.00,0.10,0.00,0.00,0.00,0.09,0.09,0.10,0.10,896,895,947,906
10020,0,0.03,-0.00,0.00,0.10,0.00,0.00,0.00,0.09,0.09,0.10,0.10,896,895,947,906
10027,0,0.03,-0.00,0.00,0.10,0.00,0.00,0.00,0.09,0.09,0.10,0.10,896,895,947,906
10035,0,0.03,-0.00,0.00,0.10,0.00,0.00,0.00,0.09,0.09,0.10,0.10,896,895,947,906
10041,0,0.03,-0.00,0.00,0.10,0.00,0.00,0.00,0.09,0.09,0.10,0.10,896,895,947,906
10048,0,0.03,-0.00,0.00,0.10,0.00,0.00,0.00,0.09,0.09,0.10,0.10,896,896,948,906
10055,0,0.03,-0.00,0.00,0.10,0.00,0.00,0.00,0.09,0.09,0.10,0.10,896,896,948,906
10063,0,0.03,-0.00,0.00,0.10,0.00,0.00,0.00,0.09,0.09,0.10,0.10,896,896,948,906
10070,0,0.03,-0.00,0.00,0.10,0.00,0.00,0.00,0.09,0.09,0.10,0.10,896,896,948,906
10077,0,0.03,-0.00,0.00,0.10,0.00,0.00,0.00,0.09,0.09,0.10,0.10,896,896,948,906
10085,0,0.03,-0.00,0.00,0.10,0.00,0.00,0.00,0.09,0.09,0.10,0.10,896,896,948,906
10092,0,0.03,-0.00,0.00,0.10,0.00,0.00,0.00,0.09,0.09,0.10,0.10,896,896,948,906
10098,0,0.03,-0.00,0.00,0.10,0.00,0.00,0.00,0.09,0.09,0.10,0.10,896,896,948,906
10106,0,0.03,-0.00,0.00,0.10,0.00,0.00,0.00,0.09,0.09,0.10,0.10,896,896,948,906
10114,0,0.03,-0.00,0.00,0.10,0.00,0.00,0.00,0.09,0.09,0.10,0.10,896,896,948,906
10120,0,0.03,-0.00,0.00,0.10,0.00,0.00,0.00,0.09,0.09,0.10,0.10,896,896,948,906
10128,0,0.03,-0.00,0.00,0.10,0.00,0.00,0.00,0.09,0.09,0.10,0.10,896,896,948,906
10135,0,0.03,-0.00,0.00,0.10,0.00,0.00,0.00,0.09,0.09,0.10,0.10,896,896,948,906
10142,0,0.03,-0.00,0.00,0.10,0.00,0.00,0.00,0.09,0.09,0.10,0.10,896,896,948,906
10149,0,0.03,-0.00,0.00,0.10,0.00,0.00,0.00,0.09,0.09,0.10,0.10,896,896,948,907
10167,0,0.03,-0.00,0.00,0.10,0.00,0.00,0.00,0.09,0.09,0.10,0.10,896,896,948,906
10176,0,0.03,-0.00,0.00,0.10,0.00,0.00,0.00,0.10,0.09,0.10,0.10,897,896,948,906
10183,0,0.03,-0.00,0.00,0.10,0.00,0.00,0.00,0.09,0.09,0.10,0.10,896,896,948,906
10190,0,0.03,-0.00,0.00,0.10,0.00,0.00,0.00,0.09,0.09,0.10,0.10,896,896,948,906
10198,0,0.03,-0.00,0.00,0.10,0.00,0.00,0.00,0.09,0.09,0.10,0.10,896,896,948,906
10205,0,0.03,-0.00,0.00,0.10,0.00,0.00,0.00,0.09,0.09,0.10,0.10,896,896,948,906
10212,0,0.03,-0.00,0.00,0.10,0.00,0.00,0.00,0.09,0.09,0.10,0.10,896,896,948,906
10218,0,0.03,-0.00,0.00,0.10,0.00,0.00,0.00,0.09,0.09,0.10,0.10,896,896,948,906
10226,0,0.03,-0.00,0.00,0.10,0.00,0.00,0.00,0.09,0.09,0.10,0.10,896,896,948,906
10234,0,0.03,-0.00,0.00,0.10,0.00,0.00,0.00,0.09,0.09,0.10,0.10,896,896,948,906
10240,0,0.03,-0.00,0.00,0.10,0.00,0.00,0.00,0.09,0.09,0.10,0.10,896,896,948,906
10248,0,0.03,-0.00,0.00,0.10,0.00,0.00,0.00,0.09,0.09,0.10,0.10,896,896,948,906
10255,0,0.03,-0.00,0.00,0.10,0.00,0.00,0.00,0.09,0.09,0.10,0.10,896,896,948,906
10263,0,0.03,-0.00,0.00,0.10,0.00,0.00,0.00,0.09,0.09,0.10,0.10,896,896,948,906
10270,0,0.03,-0.00,0.00,0.10,0.00,0.00,0.00,0.09,0.09,0.10,0.10,896,896,948,906
10278,0,0.03,-0.00,0.00,0.10,0.00,0.00,0.00,0.09,0.09,0.10,0.10,896,896,948,906
10285,0,0.03,-0.00,0.00,0.10,0.00,0.00,0.00,0.10,0.10,0.10,0.10,897,897,949,907
10292,0,0.03,-0.00,0.00,0.10,0.00,0.00,0.00,0.10,0.10,0.10,0.10,897,897,949,907
10299,0,0.03,-0.00,0.00,0.10,0.00,0.00,0.00,0.10,0.10,0.10,0.10,897,897,949,907
10306,0,0.03,-0.00,0.00,0.10,0.00,0.00,0.00,0.10,0.10,0.10,0.10,897,897,949,907
10314,0,0.03,-0.00,0.00,0.10,0.00,0.00,0.00,0.10,0.10,0.10,0.10,897,897,949,907
10321,0,0.03,-0.00,0.00,0.10,0.00,0.00,0.00,0.10,0.10,0.10,0.10,897,897,949,907
10328,0,0.03,-0.00,0.00,0.10,0.00,0.00,0.00,0.10,0.10,0.10,0.10,897,897,949,907
10335,0,0.03,-0.00,0.00,0.10,0.00,0.00,0.00,0.10,0.10,0.10,0.10,897,897,949,907
10342,0,0.03,-0.00,0.00,0.10,0.00,0.00,0.00,0.10,0.10,0.10,0.10,897,897,949,907
10348,0,0.03,-0.00,0.00,0.10,0.00,0.00,0.00,0.10,0.10,0.10,0.10,897,897,949,907
10356,0,0.03,-0.00,0.00,0.10,0.00,0.00,0.00,0.10,0.10,0.10,0.10,897,897,949,907
10363,0,0.03,-0.00,0.00,0.10,0.00,0.00,0.00,0.10,0.10,0.10,0.10,897,897,949,907
10369,0,0.03,-0.00,0.00,0.10,0.00,0.00,0.00,0.10,0.10,0.10,0.10,897,897,949,907
10377,0,0.03,-0.00,0.00,0.10,0.00,0.00,0.00,0.10,0.10,0.10,0.10,897,897,949,907
10385,0,0.03,-0.00,0.00,0.10,0.00,0.00,0.00,0.10,0.10,0.10,0.10,897,897,949,907
10397,0,0.03,-0.00,0.00,0.10,0.00,0.00,0.00,0.10,0.10,0.10,0.10,897,897,949,907
10404,0,0.03,-0.00,0.00,0.10,0.00,0.00,0.00,0.10,0.10,0.10,0.10,897,897,949,907
10411,0,0.03,-0.00,0.00,0.10,0.00,0.00,0.00,0.10,0.10,0.10,0.10,897,897,949,907
10418,0,0.03,-0.00,0.00,0.10,0.00,0.00,0.00,0.10,0.10,0.10,0.10,897,897,949,907
10426,0,0.03,-0.00,0.00,0.10,0.00,0.00,0.00,0.10,0.09,0.10,0.10,897,896,948,906
10433,0,0.03,-0.00,0.00,0.10,0.00,0.00,0.00,0.10,0.09,0.10,0.10,897,896,949,907
10440,0,0.03,-0.00,0.00,0.10,0.00,0.00,0.00,0.10,0.09,0.10,0.10,897,896,949,907
10448,0,0.03,-0.00,0.00,0.10,0.00,0.00,0.00,0.10,0.09,0.10,0.10,897,896,949,907
10455,0,0.03,-0.00,0.00,0.10,0.00,0.00,0.00,0.10,0.09,0.10,0.10,897,896,949,907
10463,0,0.03,-0.00,0.00,0.10,0.00,0.00,0.00,0.10,0.09,0.10,0.10,897,896,949,907
10469,0,0.03,-0.00,0.00,0.10,0.00,0.00,0.00,0.10,0.09,0.10,0.10,897,896,949,907
10477,0,0.03,-0.00,0.00,0.10,0.00,0.00,0.00,0.10,0.09,0.10,0.10,896,896,948,906
10485,0,0.03,-0.00,0.00,0.10,0.00,0.00,0.00,0.10,0.09,0.10,0.10,896,896,948,906
10492,0,0.03,-0.00,0.00,0.10,0.00,0.00,0.00,0.10,0.09,0.10,0.10,896,896,948,906
10499,0,0.03,-0.00,0.00,0.10,0.00,0.00,0.00,0.10,0.09,0.10,0.10,896,896,948,906
10506,0,0.03,-0.00,0.00,0.10,0.00,0.00,0.00,0.09,0.09,0.10,0.10,896,896,948,906
10514,0,0.03,-0.00,0.00,0.10,0.00,0.00,0.00,0.09,0.09,0.10,0.10,896,896,948,906
10520,0,0.03,-0.00,0.00,0.10,0.00,0.00,0.00,0.09,0.09,0.10,0.10,896,896,948,906
10528,0,0.03,-0.00,0.00,0.10,0.00,0.00,0.00,0.09,0.09,0.10,0.10,896,896,948,906
10536,0,0.03,-0.00,0.00,0.10,0.00,0.00,0.00,0.10,0.09,0.10,0.10,897,896,948,906
10542,0,0.03,-0.00,0.00,0.10,0.00,0.00,0.00,0.09,0.09,0.10,0.10,896,896,948,906
10549,0,0.03,-0.00,0.00,0.10,0.00,0.00,0.00,0.09,0.09,0.10,0.10,896,896,948,906
10557,0,0.03,-0.00,0.00,0.10,0.00,0.00,0.00,0.10,0.10,0.10,0.10,897,897,949,907
10564,0,0.03,-0.00,0.00,0.10,0.00,0.00,0.00,0.10,0.09,0.10,0.10,897,896,948,906
10571,0,0.03,-0.00,0.00,0.10,0.00,0.00,0.00,0.10,0.09,0.10,0.10,896,896,948,906
10578,0,0.03,-0.00,0.00,0.10,0.00,0.00,0.00,0.10,0.09,0.10,0.10,896,896,948,906
10586,0,0.03,-0.00,0.00,0.10,0.00,0.00,0.00,0.10,0.09,0.10,0.10,896,896,948,906
10593,0,0.03,-0.00,0.00,0.10,0.00,0.00,0.00,0.10,0.09,0.10,0.10,897,896,949,907
10599,0,0.03,-0.00,0.00,0.10,0.00,0.00,0.00,0.10,0.09,0.10,0.10,897,896,949,907
10607,0,0.03,-0.00,0.00,0.10,0.00,0.00,0.00,0.10,0.09,0.10,0.10,897,896,949,907
10615,0,0.03,-0.00,0.00,0.10,0.00,0.00,0.00,0.10,0.09,0.10,0.10,897,896,949,907
10624,0,0.03,-0.00,0.00,0.10,0.00,0.00,0.00,0.10,0.09,0.10,0.10,897,896,949,907
10632,0,0.03,-0.00,0.00,0.10,0.00,0.00,0.00,0.10,0.09,0.10,0.10,896,896,948,906
10639,0,0.03,-0.00,0.00,0.10,0.00,0.00,0.00,0.10,0.09,0.10,0.10,897,896,949,907
10647,0,0.03,-0.00,0.00,0.10,0.00,0.00,0.00,0.10,0.09,0.10,0.10,897,896,949,907
10654,0,0.03,-0.00,0.00,0.10,0.00,0.00,0.00,0.10,0.09,0.10,0.10,897,896,949,907
10661,0,0.03,-0.00,0.00,0.10,0.00,0.00,0.00,0.10,0.09,0.10,0.10,897,896,949,907
10669,0,0.03,-0.00,0.00,0.10,0.00,0.00,0.00,0.10,0.09,0.10,0.10,897,896,949,907
10676,0,0.03,-0.00,0.00,0.10,0.00,0.00,0.00,0.10,0.09,0.10,0.10,897,896,949,907
10684,0,0.03,-0.00,0.00,0.10,0.00,0.00,0.00,0.10,0.09,0.10,0.10,897,896,949,907
10691,0,0.03,-0.00,0.00,0.10,0.00,0.00,0.00,0.10,0.09,0.10,0.10,897,896,949,907
10698,0,0.03,-0.00,0.00,0.10,0.00,0.00,0.00,0.10,0.09,0.10,0.10,897,896,949,907
10706,0,0.03,-0.00,0.00,0.10,0.00,0.00,0.00,0.10,0.09,0.10,0.10,897,896,949,907
10712,0,0.03,-0.00,0.00,0.10,0.00,0.00,0.00,0.10,0.09,0.10,0.10,897,896,949,907
10719,0,0.03,-0.00,0.00,0.10,0.00,0.00,0.00,0.10,0.09,0.10,0.10,897,896,949,907
10727,0,0.03,-0.00,0.00,0.10,0.00,0.00,0.00,0.10,0.09,0.10,0.10,897,896,949,907
10734,0,0.03,-0.00,0.00,0.10,0.00,0.00,0.00,0.10,0.09,0.10,0.10,897,896,949,907
10741,0,0.03,-0.00,0.00,0.10,0.00,0.00,0.00,0.10,0.09,0.10,0.10,897,896,949,907
10749,0,0.03,-0.00,0.00,0.10,0.00,0.00,0.00,0.10,0.09,0.10,0.10,897,896,949,907
10756,0,0.03,-0.00,0.00,0.10,0.00,0.00,0.00,0.10,0.09,0.10,0.10,897,896,949,907
10763,0,0.03,-0.00,0.00,0.10,0.00,0.00,0.00,0.10,0.09,0.10,0.10,897,896,949,907
10769,0,0.03,-0.00,0.00,0.10,0.00,0.00,0.00,0.10,0.09,0.10,0.10,897,896,949,907
10777,0,0.03,-0.00,0.00,0.10,0.00,0.00,0.00,0.10,0.09,0.10,0.10,897,896,949,907
10784,0,0.03,-0.00,0.00,0.10,0.00,0.00,0.00,0.10,0.09,0.10,0.10,897,896,949,907
10791,0,0.03,-0.00,0.00,0.10,0.00,0.00,0.00,0.10,0.09,0.10,0.10,897,896,949,907
10798,0,0.03,-0.00,0.00,0.10,0.00,0.00,0.00,0.10,0.09,0.10,0.10,897,896,949,907
10806,0,0.03,-0.00,0.00,0.10,0.00,0.00,0.00,0.10,0.09,0.10,0.10,897,896,949,907
10812,0,0.03,-0.00,0.00,0.10,0.00,0.00,0.00,0.10,0.10,0.10,0.10,897,897,949,907
10819,0,0.03,-0.00,0.00,0.10,0.00,0.00,0.00,0.10,0.10,0.10,0.10,897,897,949,907
10827,0,0.03,-0.00,0.00,0.10,0.00,0.00,0.00,0.10,0.10,0.10,0.10,897,897,949,907
10835,0,0.03,-0.00,0.00,0.10,0.00,0.00,0.00,0.10,0.09,0.10,0.10,897,896,949,907
10841,0,0.03,-0.00,0.00,0.10,0.00,0.00,0.00,0.10,0.09,0.10,0.10,897,896,949,907
10850,0,0.03,-0.00,0.00,0.10,0.00,0.00,0.00,0.10,0.09,0.10,0.10,897,896,949,907
10858,0,0.03,-0.00,0.00,0.10,0.00,0.00,0.00,0.10,0.09,0.10,0.10,897,896,949,907
10866,0,0.03,-0.00,0.00,0.10,0.00,0.00,0.00,0.09,0.09,0.10,0.10,896,895,948,906
10872,0,0.03,-0.00,0.00,0.10,0.00,0.00,0.00,0.09,0.09,0.10,0.10,896,896,948,906
10879,0,0.03,-0.00,0.00,0.10,0.00,0.00,0.00,0.09,0.09,0.10,0.10,896,896,948,906
10887,0,0.03,-0.00,0.00,0.10,0.00,0.00,0.00,0.09,0.09,0.10,0.10,896,896,948,906
10894,0,0.03,-0.00,0.00,0.10,0.00,0.00,0.00,0.10,0.09,0.10,0.10,897,896,949,907
10900,0,0.03,-0.00,0.00,0.10,0.00,0.00,0.00,0.10,0.09,0.10,0.10,897,896,949,907
10908,0,0.03,-0.00,0.00,0.10,0.00,0.00,0.00,0.09,0.09,0.10,0.10,896,896,948,906
10916,0,0.03,-0.00,0.00,0.10,0.00,0.00,0.00,0.09,0.09,0.10,0.10,896,896,948,906
10923,0,0.03,-0.00,0.00,0.10,0.00,0.00,0.00,0.09,0.09,0.10,0.10,896,896,948,906
10930,0,0.03,-0.00,0.00,0.10,0.00,0.00,0.00,0.09,0.09,0.10,0.10,896,896,948,906
10937,0,0.03,-0.00,0.00,0.10,0.00,0.00,0.00,0.09,0.09,0.10,0.10,896,896,948,906
10944,0,0.03,-0.00,0.00,0.10,0.00,0.00,0.00,0.09,0.09,0.10,0.10,896,896,948,906
10951,0,0.03,-0.00,0.00,0.10,0.00,0.00,0.00,0.09,0.09,0.10,0.10,896,896,948,906
10958,0,0.03,-0.00,0.00,0.10,0.00,0.00,0.00,0.09,0.09,0.10,0.10,896,896,948,906
10966,0,0.03,-0.00,0.00,0.10,0.00,0.00,0.00,0.10,0.09,0.10,0.10,897,896,949,907
10973,0,0.03,-0.00,0.00,0.10,0.00,0.00,0.00,0.09,0.09,0.10,0.10,896,896,948,906
10980,0,0.03,-0.00,0.00,0.10,0.00,0.00,0.00,0.09,0.09,0.10,0.10,896,896,948,906
10987,0,0.03,-0.00,0.00,0.10,0.00,0.00,0.00,0.09,0.09,0.10,0.10,896,896,948,906
10994,0,0.03,-0.00,0.00,0.10,0.00,0.00,0.00,0.09,0.09,0.10,0.10,896,896,948,906
11001,0,0.03,-0.00,0.00,0.10,0.00,0.00,0.00,0.09,0.09,0.10,0.10,896,896,948,906
11008,0,0.03,-0.00,0.00,0.10,0.00,0.00,0.00,0.09,0.09,0.10,0.10,896,896,948,906
11016,0,0.03,-0.00,0.00,0.10,0.00,0.00,0.00,0.09,0.09,0.10,0.10,896,896,948,906
11023,0,0.03,-0.00,0.00,0.10,0.00,0.00,0.00,0.09,0.09,0.10,0.10,896,896,948,906
11030,0,0.03,-0.00,0.00,0.10,0.00,0.00,0.00,0.09,0.09,0.10,0.10,896,896,948,906
11037,0,0.03,-0.00,0.00,0.10,0.00,0.00,0.00,0.09,0.09,0.10,0.10,896,896,948,906
11044,0,0.03,-0.00,0.00,0.10,0.00,0.00,0.00,0.09,0.09,0.10,0.10,896,896,948,906
11051,0,0.03,-0.00,0.00,0.10,0.00,0.00,0.00,0.09,0.09,0.10,0.10,896,896,948,906
11059,0,0.03,-0.00,0.00,0.10,0.00,0.00,0.00,0.09,0.09,0.10,0.10,896,896,948,906
11066,0,0.03,-0.00,0.00,0.10,0.00,0.00,0.00,0.09,0.09,0.10,0.10,896,896,948,906
11079,0,0.03,-0.00,0.00,0.10,0.00,0.00,0.00,0.09,0.09,0.10,0.10,896,896,948,906
11086,0,0.03,-0.00,0.00,0.10,0.00,0.00,0.00,0.09,0.09,0.10,0.10,896,896,948,906
11093,0,0.03,-0.00,0.00,0.10,0.00,0.00,0.00,0.09,0.09,0.10,0.10,896,896,948,906
11100,0,0.03,-0.00,0.00,0.10,0.00,0.00,0.00,0.09,0.09,0.10,0.10,896,896,948,906
11107,0,0.03,-0.00,0.00,0.10,0.00,0.00,0.00,0.09,0.09,0.10,0.10,896,896,948,906
11114,0,0.03,-0.00,0.00,0.10,0.00,0.00,0.00,0.09,0.09,0.10,0.10,896,896,948,906
11121,0,0.03,-0.00,0.00,0.10,0.00,0.00,0.00,0.09,0.09,0.10,0.10,896,896,948,906
11128,0,0.03,-0.00,0.00,0.10,0.00,0.00,0.00,0.09,0.09,0.10,0.10,896,896,948,906
11135,0,0.03,-0.00,0.00,0.10,0.00,0.00,0.00,0.09,0.09,0.10,0.10,896,896,948,906
11142,0,0.03,-0.00,0.00,0.10,0.00,0.00,0.00,0.09,0.09,0.10,0.10,896,896,948,906
11149,0,0.03,-0.00,0.00,0.10,0.00,0.00,0.00,0.09,0.09,0.10,0.10,896,896,948,906
11157,0,0.03,-0.00,0.00,0.10,0.00,0.00,0.00,0.09,0.09,0.10,0.10,896,896,948,906
11163,0,0.03,-0.00,0.00,0.10,0.00,0.00,0.00,0.09,0.09,0.10,0.10,896,896,948,906
11170,0,0.03,-0.00,0.00,0.10,0.00,0.00,0.00,0.09,0.09,0.10,0.10,896,896,948,906
11178,0,0.03,-0.00,0.00,0.10,0.00,0.00,0.00,0.09,0.09,0.10,0.10,896,896,948,906
11185,0,0.03,-0.00,0.00,0.10,0.00,0.00,0.00,0.09,0.09,0.10,0.10,896,896,948,906
11192,0,0.03,-0.00,0.00,0.10,0.00,0.00,0.00,0.09,0.09,0.10,0.10,896,896,948,906
11200,0,0.03,-0.00,0.00,0.10,0.00,0.00,0.00,0.09,0.09,0.10,0.10,896,896,948,906
11207,0,0.03,-0.00,0.00,0.10,0.00,0.00,0.00,0.09,0.09,0.10,0.10,896,896,948,906
11215,0,0.03,-0.00,0.00,0.10,0.00,0.00,0.00,0.09,0.09,0.10,0.10,896,896,948,906
11222,0,0.03,-0.00,0.00,0.10,0.00,0.00,0.00,0.09,0.09,0.10,0.10,896,896,948,906
11229,0,0.03,-0.00,0.00,0.10,0.00,0.00,0.00,0.09,0.09,0.10,0.10,896,896,948,906
11237,0,0.03,-0.00,0.00,0.10,0.00,0.00,0.00,0.09,0.09,0.10,0.10,896,896,948,906
11244,0,0.03,-0.00,0.00,0.10,0.00,0.00,0.00,0.09,0.09,0.10,0.10,896,896,948,906
11250,0,0.03,-0.00,0.00,0.10,0.00,0.00,0.00,0.09,0.09,0.10,0.10,896,896,948,906
11258,0,0.03,-0.00,0.00,0.10,0.00,0.00,0.00,0.09,0.09,0.10,0.10,896,896,948,906
11266,0,0.03,-0.00,0.00,0.10,0.00,0.00,0.00,0.09,0.09,0.10,0.10,896,896,948,906
11273,0,0.03,-0.00,0.00,0.10,0.00,0.00,0.00,0.09,0.09,0.10,0.10,896,896,948,906
11280,0,0.03,-0.00,0.00,0.10,0.00,0.00,0.00,0.09,0.09,0.10,0.10,896,896,948,906
11288,0,0.03,-0.00,0.00,0.10,0.00,0.00,0.00,0.09,0.09,0.10,0.10,896,896,948,906
11294,0,0.03,-0.00,0.00,0.10,0.00,0.00,0.00,0.09,0.09,0.10,0.10,896,896,948,906
11303,0,0.03,-0.00,0.00,0.10,0.00,0.00,0.00,0.09,0.09,0.10,0.10,896,896,948,906
11310,0,0.03,-0.00,0.00,0.10,0.00,0.00,0.00,0.09,0.09,0.10,0.10,896,896,948,906
11318,0,0.03,-0.00,0.00,0.10,0.00,0.00,0.00,0.09,0.09,0.10,0.10,896,896,948,906
11325,0,0.03,-0.00,0.00,0.10,0.00,0.00,0.00,0.09,0.09,0.10,0.10,896,896,948,906
11332,0,0.03,-0.00,0.00,0.10,0.00,0.00,0.00,0.09,0.09,0.10,0.10,896,896,948,906
11340,0,0.03,-0.00,0.00,0.10,0.00,0.00,0.00,0.09,0.09,0.10,0.10,896,896,948,906
11347,0,0.03,-0.00,0.00,0.10,0.00,0.00,0.00,0.09,0.09,0.10,0.10,896,896,948,906
11354,0,0.03,-0.00,0.00,0.10,0.00,0.00,0.00,0.09,0.09,0.10,0.10,896,896,948,906
11361,0,0.03,-0.00,0.00,0.10,0.00,0.00,0.00,0.09,0.09,0.10,0.10,896,896,948,906
11369,0,0.03,-0.00,0.00,0.10,0.00,0.00,0.00,0.09,0.09,0.10,0.10,896,896,948,906
11376,0,0.03,-0.00,0.00,0.10,0.00,0.00,0.00,0.10,0.09,0.10,0.10,897,896,948,906
11383,0,0.03,-0.00,0.00,0.10,0.00,0.00,0.00,0.10,0.09,0.10,0.10,896,896,948,906
11391,0,0.03,-0.00,0.00,0.10,0.00,0.00,0.00,0.10,0.09,0.10,0.10,896,896,948,906
11397,0,0.03,-0.00,0.00,0.10,0.00,0.00,0.00,0.10,0.09,0.10,0.10,896,896,948,906
11404,0,0.03,-0.00,0.00,0.10,0.00,0.00,0.00,0.10,0.09,0.10,0.10,896,896,948,906
11411,0,0.03,-0.00,0.00,0.10,0.00,0.00,0.00,0.10,0.09,0.10,0.10,896,896,948,906
11418,0,0.03,-0.00,0.00,0.10,0.00,0.00,0.00,0.10,0.09,0.10,0.10,896,896,948,906
11426,0,0.03,-0.00,0.00,0.10,0.00,0.00,0.00,0.10,0.09,0.10,0.10,896,896,948,906
11433,0,0.03,-0.00,0.00,0.10,0.00,0.00,0.00,0.10,0.09,0.10,0.10,896,896,948,906
11440,0,0.03,-0.00,0.00,0.10,0.00,0.00,0.00,0.10,0.09,0.10,0.10,896,896,948,906
11448,0,0.03,-0.00,0.00,0.10,0.00,0.00,0.00,0.10,0.09,0.10,0.10,896,896,948,906
11454,0,0.03,-0.00,0.00,0.10,0.00,0.00,0.00,0.10,0.09,0.10,0.10,896,896,948,906
11461,0,0.03,-0.00,0.00,0.10,0.00,0.00,0.00,0.10,0.09,0.10,0.10,896,896,948,906
11468,0,0.03,-0.00,0.00,0.10,0.00,0.00,0.00,0.10,0.09,0.10,0.10,896,896,948,906
11475,0,0.03,-0.00,0.00,0.10,0.00,0.00,0.00,0.10,0.09,0.10,0.10,896,896,948,906
11485,0,0.03,-0.00,0.00,0.10,0.00,0.00,0.00,0.10,0.09,0.10,0.10,897,895,948,906
11492,0,0.03,-0.00,0.00,0.10,0.00,0.00,0.00,0.10,0.09,0.10,0.10,897,896,948,906
11498,0,0.03,-0.00,0.00,0.10,0.00,0.00,0.00,0.10,0.09,0.10,0.10,897,896,948,906
11505,0,0.03,-0.00,0.00,0.10,0.00,0.00,0.00,0.10,0.09,0.10,0.10,897,896,948,906
11511,0,0.03,-0.00,0.00,0.10,0.00,0.00,0.00,0.10,0.09,0.10,0.10,897,896,948,906
11522,0,0.03,-0.00,0.00,0.10,0.00,0.00,0.00,0.10,0.09,0.10,0.10,897,896,948,906
11530,0,0.03,-0.00,0.00,0.10,0.00,0.00,0.00,0.10,0.09,0.10,0.10,897,896,948,906
11537,0,0.03,-0.00,0.00,0.10,0.00,0.00,0.00,0.10,0.09,0.10,0.10,897,896,948,906
11544,0,0.03,-0.00,0.00,0.10,0.00,0.00,0.00,0.10,0.09,0.10,0.10,897,896,948,906
11551,0,0.03,-0.00,0.00,0.10,0.00,0.00,0.00,0.10,0.09,0.10,0.10,897,896,948,906
11559,0,0.03,-0.00,0.00,0.10,0.00,0.00,0.00,0.10,0.09,0.10,0.10,897,896,948,906
11566,0,0.03,-0.00,0.00,0.10,0.00,0.00,0.00,0.10,0.09,0.10,0.10,897,896,948,906
11573,0,0.03,-0.00,0.00,0.10,0.00,0.00,0.00,0.10,0.09,0.10,0.10,897,896,948,906
11580,0,0.03,-0.00,0.00,0.10,0.00,0.00,0.00,0.10,0.09,0.10,0.10,897,896,948,906
11588,0,0.03,-0.00,0.00,0.10,0.00,0.00,0.00,0.10,0.09,0.10,0.10,897,896,948,906
11595,0,0.03,-0.00,0.00,0.10,0.00,0.00,0.00,0.10,0.09,0.10,0.10,897,896,948,906
11601,0,0.03,-0.00,0.00,0.10,0.00,0.00,0.00,0.10,0.09,0.10,0.10,897,896,948,906
11609,0,0.03,-0.00,0.00,0.10,0.00,0.00,0.00,0.10,0.09,0.10,0.10,897,896,948,906
11617,0,0.03,-0.00,0.00,0.10,0.00,0.00,0.00,0.10,0.09,0.10,0.10,897,896,948,906
11623,0,0.03,-0.00,0.00,0.10,0.00,0.00,0.00,0.10,0.09,0.10,0.10,897,896,948,906
11631,0,0.03,-0.00,0.00,0.10,0.00,0.00,0.00,0.10,0.09,0.10,0.10,897,896,948,906
11638,0,0.03,-0.00,0.00,0.10,0.00,0.00,0.00,0.10,0.09,0.10,0.10,897,896,948,906
11645,0,0.03,-0.00,0.00,0.10,0.00,0.00,0.00,0.10,0.09,0.10,0.10,897,896,948,906
11652,0,0.03,-0.00,0.00,0.10,0.00,0.00,0.00,0.10,0.09,0.10,0.10,897,896,948,906
11659,0,0.03,-0.00,0.00,0.10,0.00,0.00,0.00,0.10,0.09,0.10,0.10,897,896,948,906
11667,0,0.03,-0.00,0.00,0.10,0.00,0.00,0.00,0.10,0.09,0.10,0.10,897,896,948,906
11674,0,0.03,-0.00,0.00,0.10,0.00,0.00,0.00,0.10,0.09,0.10,0.10,897,896,948,906
11681,0,0.03,-0.00,0.00,0.10,0.00,0.00,0.00,0.10,0.09,0.10,0.10,897,896,948,906
11689,0,0.03,-0.00,0.00,0.10,0.00,0.00,0.00,0.10,0.09,0.10,0.10,897,896,948,906
11695,0,0.03,-0.00,0.00,0.10,0.00,0.00,0.00,0.10,0.09,0.10,0.10,897,896,948,906
11702,0,0.03,-0.00,0.00,0.10,0.00,0.00,0.00,0.10,0.09,0.10,0.10,897,896,948,906
11709,0,0.03,-0.00,0.00,0.10,0.00,0.00,0.00,0.10,0.09,0.10,0.10,897,896,948,906
11717,0,0.03,-0.00,0.00,0.10,0.00,0.00,0.00,0.10,0.09,0.10,0.10,897,896,948,906
11724,0,0.03,-0.00,0.00,0.10,0.00,0.00,0.00,0.10,0.09,0.10,0.10,897,896,948,906
11731,0,0.03,-0.00,0.00,0.10,0.00,0.00,0.00,0.10,0.09,0.10,0.10,897,896,948,906
11739,0,0.03,-0.00,0.00,0.10,0.00,0.00,0.00,0.10,0.09,0.10,0.10,897,896,948,906
11747,0,0.03,-0.00,0.00,0.10,0.00,0.00,0.00,0.10,0.09,0.10,0.10,897,896,948,906
11755,0,0.03,-0.00,0.00,0.10,0.00,0.00,0.00,0.10,0.09,0.10,0.10,897,896,948,906
11761,0,0.03,-0.00,0.00,0.10,0.00,0.00,0.00,0.10,0.09,0.10,0.10,897,896,948,906
11769,0,0.03,-0.00,0.00,0.10,0.00,0.00,0.00,0.10,0.09,0.10,0.10,897,896,948,906
11777,0,0.03,-0.00,0.00,0.10,0.00,0.00,0.00,0.10,0.09,0.10,0.10,897,896,948,906
11784,0,0.03,-0.00,0.00,0.10,0.00,0.00,0.00,0.10,0.09,0.10,0.10,897,896,948,906
11791,0,0.03,-0.00,0.00,0.10,0.00,0.00,0.00,0.10,0.09,0.10,0.10,897,896,948,906
11798,0,0.03,-0.00,0.00,0.10,0.00,0.00,0.00,0.10,0.09,0.10,0.10,897,896,948,906
11805,0,0.03,-0.00,0.00,0.10,0.00,0.00,0.00,0.10,0.09,0.10,0.10,897,896,948,906
11812,0,0.03,-0.00,0.00,0.10,0.00,0.00,0.00,0.10,0.09,0.10,0.10,897,896,948,906
11819,0,0.03,-0.00,0.00,0.10,0.00,0.00,0.00,0.10,0.09,0.10,0.10,897,896,948,906
11825,0,0.03,-0.00,0.00,0.10,0.00,0.00,0.00,0.10,0.09,0.10,0.10,897,896,948,906
11832,0,0.03,-0.00,0.00,0.10,0.00,0.00,0.00,0.10,0.09,0.10,0.10,897,896,948,906
11839,0,0.03,-0.00,0.00,0.10,0.00,0.00,0.00,0.10,0.09,0.10,0.10,897,896,948,906
11846,0,0.03,-0.00,0.00,0.10,0.00,0.00,0.00,0.10,0.09,0.10,0.10,897,896,948,906
11852,0,0.03,-0.00,0.00,0.10,0.00,0.00,0.00,0.10,0.09,0.10,0.10,897,896,948,906
11860,0,0.03,-0.00,0.00,0.10,0.00,0.00,0.00,0.10,0.09,0.10,0.10,897,896,948,906
11867,0,0.03,-0.00,0.00,0.10,0.00,0.00,0.00,0.10,0.09,0.10,0.10,897,896,948,906
11874,0,0.03,-0.00,0.00,0.10,0.00,0.00,0.00,0.10,0.09,0.10,0.10,897,896,948,906
11881,0,0.03,-0.00,0.00,0.10,0.00,0.00,0.00,0.10,0.09,0.10,0.10,897,896,948,906
11888,0,0.03,-0.00,0.00,0.10,0.00,0.00,0.00,0.10,0.09,0.10,0.10,897,896,948,906
11895,0,0.03,-0.00,0.00,0.10,0.00,0.00,0.00,0.10,0.09,0.10,0.10,897,896,948,906
11902,0,0.03,-0.00,0.00,0.10,0.00,0.00,0.00,0.10,0.09,0.10,0.10,897,896,948,906
11909,0,0.03,-0.00,0.00,0.10,0.00,0.00,0.00,0.10,0.09,0.10,0.10,897,896,948,906
11917,0,0.03,-0.00,0.00,0.10,0.00,0.00,0.00,0.10,0.09,0.10,0.10,897,896,948,906
11924,0,0.03,-0.00,0.00,0.10,0.00,0.00,0.00,0.10,0.09,0.10,0.10,897,896,948,906
11931,0,0.03,-0.00,0.00,0.10,0.00,0.00,0.00,0.10,0.09,0.10,0.10,897,896,948,906
11939,0,0.03,-0.00,0.00,0.10,0.00,0.00,0.00,0.10,0.09,0.10,0.10,897,896,948,906
11946,0,0.03,-0.00,0.00,0.10,0.00,0.00,0.00,0.10,0.09,0.10,0.10,897,896,948,906
11952,0,0.03,-0.00,0.00,0.10,0.00,0.00,0.00,0.10,0.09,0.10,0.10,897,896,948,906
11960,0,0.03,-0.00,0.00,0.10,0.00,0.00,0.00,0.10,0.09,0.10,0.10,897,896,948,906
11972,0,0.03,-0.00,0.00,0.10,0.00,0.00,0.00,0.10,0.09,0.10,0.10,897,896,948,906
11980,0,0.03,-0.00,0.00,0.10,0.00,0.00,0.00,0.10,0.09,0.10,0.10,897,896,948,906
11988,0,0.03,-0.00,0.00,0.10,0.00,0.00,0.00,0.10,0.09,0.10,0.10,897,896,949,907
11994,0,0.03,-0.00,0.00,0.10,0.00,0.00,0.00,0.10,0.09,0.10,0.10,897,896,949,907
12002,0,0.03,-0.00,0.00,0.10,0.00,0.00,0.00,0.10,0.09,0.10,0.10,897,896,949,907
12009,0,0.03,-0.00,0.00,0.10,0.00,0.00,0.00,0.10,0.09,0.10,0.10,897,896,949,907
12016,0,0.03,-0.00,0.00,0.10,0.00,0.00,0.00,0.10,0.09,0.10,0.10,897,896,949,907
12023,0,0.03,-0.00,0.00,0.10,0.00,0.00,0.00,0.10,0.09,0.10,0.10,897,896,949,907
12030,0,0.03,-0.00,0.00,0.10,0.00,0.00,0.00,0.10,0.09,0.10,0.10,897,896,949,907
12038,0,0.03,-0.00,0.00,0.10,0.00,0.00,0.00,0.10,0.09,0.10,0.10,897,896,949,907
12045,0,0.03,-0.00,0.00,0.10,0.00,0.00,0.00,0.10,0.09,0.10,0.10,897,896,949,907
12052,0,0.03,-0.00,0.00,0.10,0.00,0.00,0.00,0.10,0.09,0.10,0.10,897,896,949,907
12060,0,0.03,-0.00,0.00,0.10,0.00,0.00,0.00,0.10,0.09,0.10,0.10,897,896,949,907
12067,0,0.03,-0.00,0.00,0.10,0.00,0.00,0.00,0.10,0.10,0.10,0.10,899,898,951,909
12074,0,0.03,-0.00,0.00,0.10,0.00,0.00,0.00,0.10,0.10,0.11,0.11,904,903,956,914
12081,0,0.03,-0.00,0.00,0.11,0.00,0.00,0.00,0.11,0.11,0.12,0.11,910,909,962,920
12089,0,0.03,-0.00,0.00,0.12,0.00,0.00,0.00,0.12,0.12,0.12,0.12,915,914,966,924
12096,0,0.03,-0.00,0.00,0.13,0.00,0.00,0.00,0.13,0.13,0.13,0.13,924,923,976,934
12102,0,0.03,-0.00,0.00,0.13,0.00,0.00,0.00,0.13,0.13,0.13,0.13,924,923,976,934
12110,0,0.03,-0.00,0.00,0.14,0.00,0.00,0.00,0.14,0.14,0.14,0.14,931,930,983,941
12118,0,0.03,-0.00,0.00,0.14,0.00,0.00,0.00,0.14,0.14,0.14,0.14,932,931,983,941
12124,0,0.03,-0.00,0.00,0.14,0.00,0.00,0.00,0.14,0.14,0.14,0.14,932,931,983,941
12132,0,0.03,-0.00,0.00,0.14,0.00,0.00,0.00,0.14,0.14,0.14,0.14,932,931,983,941
12139,0,0.03,-0.00,0.00,0.14,0.00,0.00,0.00,0.14,0.14,0.14,0.14,932,931,983,941
12146,0,0.03,-0.00,0.00,0.14,0.00,0.00,0.00,0.14,0.14,0.14,0.14,932,931,983,941
12153,0,0.03,-0.00,0.00,0.14,0.00,0.00,0.00,0.14,0.14,0.14,0.14,932,931,983,941
12160,0,0.03,-0.00,0.00,0.14,0.00,0.00,0.00,0.14,0.14,0.14,0.14,932,931,983,941
12168,0,0.03,-0.00,0.00,0.14,0.00,0.00,0.00,0.14,0.14,0.14,0.14,932,931,983,941
12174,0,0.03,-0.00,0.00,0.14,0.00,0.00,0.00,0.14,0.14,0.14,0.14,932,931,983,941
12182,0,0.03,-0.00,0.00,0.14,0.00,0.00,0.00,0.14,0.14,0.14,0.14,932,931,983,941
12189,0,0.03,-0.00,0.00,0.14,0.00,0.00,0.00,0.14,0.14,0.14,0.14,933,932,985,943
12198,0,0.03,-0.00,0.00,0.14,0.00,0.00,0.00,0.14,0.14,0.14,0.14,933,932,985,943
12205,0,0.03,-0.00,0.00,0.14,0.00,0.00,0.00,0.14,0.14,0.14,0.14,933,932,985,943
12212,0,0.03,-0.00,0.00,0.14,0.00,0.00,0.00,0.14,0.14,0.14,0.14,934,933,986,944
12220,0,0.03,-0.00,0.00,0.14,0.00,0.00,0.00,0.14,0.14,0.14,0.14,934,933,986,944
12227,0,0.03,-0.00,0.00,0.14,0.00,0.00,0.00,0.14,0.14,0.14,0.14,934,933,986,944
12234,0,0.03,-0.00,0.00,0.14,0.00,0.00,0.00,0.14,0.14,0.15,0.14,936,935,987,946
12241,0,0.03,-0.00,0.00,0.14,0.00,0.00,0.00,0.14,0.14,0.15,0.15,937,936,988,946
12247,0,0.03,-0.00,0.00,0.14,0.00,0.00,0.00,0.14,0.14,0.15,0.15,937,936,988,946
12254,0,0.03,-0.00,0.00,0.14,0.00,0.00,0.00,0.14,0.14,0.15,0.15,937,936,988,947
12260,0,0.03,-0.00,0.00,0.14,0.00,0.00,0.00,0.14,0.14,0.15,0.15,937,936,988,946
12267,0,0.03,-0.00,0.00,0.14,0.00,0.00,0.00,0.14,0.14,0.15,0.15,937,936,988,946
12274,0,0.03,-0.01,0.00,0.15,0.00,0.00,0.00,0.15,0.14,0.15,0.15,938,936,989,947
12282,0,0.03,-0.01,0.00,0.15,0.00,0.00,0.00,0.15,0.14,0.15,0.15,938,936,989,947
12289,0,0.03,-0.01,0.00,0.15,0.00,0.00,0.00,0.15,0.14,0.15,0.15,938,936,989,947
12296,0,0.03,-0.01,0.00,0.15,0.00,0.00,0.00,0.15,0.14,0.15,0.15,938,936,989,947
12303,0,0.03,-0.01,0.00,0.14,0.00,0.00,0.00,0.14,0.14,0.15,0.15,937,936,988,946
12310,0,0.03,-0.01,0.00,0.14,0.00,0.00,0.00,0.14,0.14,0.15,0.15,937,936,988,946
12318,0,0.03,-0.01,0.00,0.14,0.00,0.00,0.00,0.14,0.14,0.15,0.15,937,936,988,946
12325,0,0.03,-0.01,0.00,0.14,0.00,0.00,0.00,0.14,0.14,0.15,0.15,937,936,988,946
12332,0,0.03,-0.01,0.00,0.14,0.00,0.00,0.00,0.14,0.14,0.15,0.15,937,936,988,946
12340,0,0.03,-0.01,0.00,0.14,0.00,0.00,0.00,0.14,0.14,0.15,0.15,937,936,988,946
12346,0,0.03,-0.01,0.00,0.14,0.00,0.00,0.00,0.14,0.14,0.15,0.15,937,936,988,946
12353,0,0.03,-0.01,0.00,0.14,0.00,0.00,0.00,0.14,0.14,0.15,0.15,937,936,988,946
12361,0,0.03,-0.01,0.00,0.14,0.00,0.00,0.00,0.14,0.14,0.15,0.15,937,936,988,946
12368,0,0.03,-0.01,0.00,0.14,0.00,0.00,0.00,0.14,0.14,0.15,0.15,937,936,988,946
12375,0,0.03,-0.01,0.00,0.14,0.00,0.00,0.00,0.14,0.14,0.15,0.15,937,936,988,946
12382,0,0.03,-0.01,0.00,0.14,0.00,0.00,0.00,0.14,0.14,0.15,0.15,937,936,988,946
12390,0,0.03,-0.01,0.00,0.15,0.00,0.00,0.00,0.15,0.14,0.15,0.15,938,936,989,947
12397,0,0.03,-0.01,0.00,0.15,0.00,0.00,0.00,0.15,0.14,0.15,0.15,938,936,989,947
12403,0,0.03,-0.01,0.00,0.15,0.00,0.00,0.00,0.15,0.14,0.15,0.15,938,936,989,947
12411,0,0.03,-0.01,0.00,0.14,0.00,0.00,0.00,0.14,0.14,0.15,0.15,937,936,988,946
12420,0,0.03,-0.01,0.00,0.14,0.00,0.00,0.00,0.14,0.14,0.15,0.15,937,936,988,946
12428,0,0.03,-0.01,0.00,0.14,0.00,0.00,0.00,0.14,0.14,0.15,0.15,937,936,988,946
12435,0,0.03,-0.01,0.00,0.14,0.00,0.00,0.00,0.14,0.14,0.15,0.15,937,936,988,946
12442,0,0.03,-0.01,0.00,0.14,0.00,0.00,0.00,0.14,0.14,0.15,0.15,937,936,988,946
