t,is_crashed,roll,pitch,yaw,p,q,r,throttle,p_cmd,q_cmd,r_cmd,roll_cmd,pitch_cmd,yaw_cmd,roll_pid_out,pitch_pid_out,yaw_pid_out,motor_fl,motor_bl,motor_fr,motor_br,pwm_fl,pwm_bl,pwm_fr,pwm_br
6997,0,0.550000,0.337500,0.000000,0.00,-0.00,0.000000,-1.000000,0.000000,0.000000,0.000000,0.000000,0.000000,0.000000,0.000000,0.000000,0.000000,0.000000,0.000000,0.000000,0.000000,0,0,0,0
7009,0,0.880000,0.540000,0.000000,0.14,0.08,-0.000207,-1.000000,0.000000,0.000000,0.000000,0.000000,0.000000,0.000000,0.000546,-0.000677,0.000002,0.000000,0.000000,0.000000,0.000000,819,819,819,819
7020,0,1.144000,0.702000,0.000000,0.24,0.15,-0.000291,-1.000000,0.000000,0.000000,0.000000,0.000000,0.000000,0.000000,0.000969,-0.001203,0.000003,0.000000,0.000000,0.000000,0.000000,819,819,819,819
7031,0,1.355200,0.831600,0.000000,0.32,0.19,0.000047,-1.000000,0.000000,0.000000,0.000000,0.000000,0.000000,0.000000,0.001254,-0.001556,-0.000000,0.000000,0.000000,0.000000,0.000000,819,819,819,819
7040,0,1.524160,0.935280,0.000000,0.38,0.23,0.000561,-1.000000,0.000000,0.000000,0.000000,0.000000,0.000000,0.000000,0.001503,-0.001865,-0.000006,0.000000,0.000000,0.000000,0.000000,819,819,819,819
7052,0,1.659328,1.018224,0.000000,0.40,0.24,0.000819,-1.000000,0.000000,0.000000,0.000000,0.000000,0.000000,0.000000,0.001579,-0.001959,-0.000008,0.000000,0.000000,0.000000,0.000000,819,819,819,819
7065,0,1.767463,1.084579,0.000000,0.40,0.24,0.000741,-1.000000,0.000000,0.000000,0.000000,0.000000,0.000000,0.000000,0.001588,-0.001967,-0.000007,0.000000,0.000000,0.000000,0.000000,819,819,819,819
7075,0,1.853970,1.137663,0.000000,0.40,0.25,0.000981,-1.000000,0.000000,0.000000,0.000000,0.000000,0.000000,0.000000,0.001603,-0.001980,-0.000010,0.000000,0.000000,0.000000,0.000000,819,819,819,819
7086,0,1.923176,1.180131,0.000000,0.39,0.24,0.000681,-1.000000,0.000000,0.000000,0.000000,0.000000,0.000000,0.000000,0.001570,-0.001938,-0.000007,0.000000,0.000000,0.000000,0.000000,819,819,819,819
7096,0,1.978541,1.214105,0.000000,0.38,0.23,0.000305,-1.000000,0.000000,0.000000,0.000000,0.000000,0.000000,0.000000,0.001526,-0.001881,-0.000003,0.000000,0.000000,0.000000,0.000000,819,819,819,819
7106,0,2.022833,1.241284,0.000000,0.37,0.22,0.000069,-1.000000,0.000000,0.000000,0.000000,0.000000,0.000000,0.000000,0.001463,-0.001806,-0.000000,0.000000,0.000000,0.000000,0.000000,819,819,819,819
7116,0,2.058266,1.263027,0.000000,0.35,0.21,0.000062,-1.000000,0.000000,0.000000,0.000000,0.000000,0.000000,0.000000,0.001389,-0.001716,-0.000000,0.000000,0.000000,0.000000,0.000000,819,819,819,819
7131,0,2.086613,1.280422,0.000000,0.32,0.20,0.000160,-1.000000,0.000000,0.000000,0.000000,0.000000,0.000000,0.000000,0.001290,-0.001593,-0.000002,0.000000,0.000000,0.000000,0.000000,819,819,819,819
7144,0,2.109291,1.294337,0.000000,0.30,0.18,0.000456,-1.000000,0.000000,0.000000,0.000000,0.000000,0.000000,0.000000,0.001197,-0.001476,-0.000005,0.000000,0.000000,0.000000,0.000000,819,819,819,819
7155,0,2.127433,1.305470,0.000000,0.28,0.17,0.000827,-1.000000,0.000000,0.000000,0.000000,0.000000,0.000000,0.000000,0.001113,-0.001369,-0.000008,0.000000,0.000000,0.000000,0.000000,819,819,819,819
7165,0,2.141946,1.314376,0.000000,0.26,0.16,0.000852,-1.000000,0.000000,0.000000,0.000000,0.000000,0.000000,0.000000,0.001032,-0.001267,-0.000009,0.000000,0.000000,0.000000,0.000000,819,819,819,819
7176,0,2.153557,1.321501,0.000000,0.24,0.14,0.000771,-1.000000,0.000000,0.000000,0.000000,0.000000,0.000000,0.000000,0.000952,-0.001169,-0.000008,0.000000,0.000000,0.000000,0.000000,819,819,819,819
7186,0,2.162845,1.327201,0.000000,0.22,0.13,0.000802,-1.000000,0.000000,0.000000,0.000000,0.000000,0.000000,0.000000,0.000878,-0.001077,-0.000008,0.000000,0.000000,0.000000,0.000000,819,819,819,819
7196,0,2.170276,1.331760,0.000000,0.20,0.12,0.000725,-1.000000,0.000000,0.000000,0.000000,0.000000,0.000000,0.000000,0.000807,-0.000991,-0.000007,0.000000,0.000000,0.000000,0.000000,819,819,819,819
7206,0,2.176221,1.335408,0.000000,0.18,0.11,0.000346,-1.000000,0.000000,0.000000,0.000000,0.000000,0.000000,0.000000,0.000741,-0.000911,-0.000003,0.000000,0.000000,0.000000,0.000000,819,819,819,819
7216,0,2.180977,1.338327,0.000000,0.17,0.10,0.000313,-1.000000,0.000000,0.000000,0.000000,0.000000,0.000000,0.000000,0.000678,-0.000835,-0.000003,0.000000,0.000000,0.000000,0.000000,819,819,819,819
7226,0,2.184782,1.340661,0.000000,0.15,0.09,0.000283,-1.000000,0.000000,0.000000,0.000000,0.000000,0.000000,0.000000,0.000621,-0.000762,-0.000003,0.000000,0.000000,0.000000,0.000000,819,819,819,819
7236,0,2.187825,1.342529,0.000000,0.14,0.08,0.000360,-1.000000,0.000000,0.000000,0.000000,0.000000,0.000000,0.000000,0.000567,-0.000695,-0.000004,0.000000,0.000000,0.000000,0.000000,819,819,819,819
7246,0,2.190260,1.344023,0.000000,0.12,0.08,0.000429,-1.000000,0.000000,0.000000,0.000000,0.000000,0.000000,0.000000,0.000517,-0.000631,-0.000004,0.000000,0.000000,0.000000,0.000000,819,819,819,819
7256,0,2.192208,1.345219,0.000000,0.11,0.07,0.000699,-1.000000,0.000000,0.000000,0.000000,0.000000,0.000000,0.000000,0.000472,-0.000575,-0.000007,0.000000,0.000000,0.000000,0.000000,819,819,819,819
7266,0,2.193766,1.346175,0.000000,0.10,0.06,0.000633,-1.000000,0.000000,0.000000,0.000000,0.000000,0.000000,0.000000,0.000430,-0.000523,-0.000006,0.000000,0.000000,0.000000,0.000000,819,819,819,819
7276,0,2.195013,1.346940,0.000000,0.09,0.06,0.000780,-1.000000,0.000000,0.000000,0.000000,0.000000,0.000000,0.000000,0.000393,-0.000475,-0.000008,0.000000,0.000000,0.000000,0.000000,819,819,819,819
7286,0,2.196010,1.347552,0.000000,0.08,0.05,0.001017,-1.000000,0.000000,0.000000,0.000000,0.000000,0.000000,0.000000,0.000358,-0.000434,-0.000010,0.000000,0.000000,0.000000,0.000000,819,819,819,819
7296,0,2.196808,1.348042,0.000000,0.08,0.05,0.000713,-1.000000,0.000000,0.000000,0.000000,0.000000,0.000000,0.000000,0.000326,-0.000395,-0.000007,0.000000,0.000000,0.000000,0.000000,819,819,819,819
7306,0,2.197447,1.348433,0.000000,0.07,0.04,0.000334,-1.000000,0.000000,0.000000,0.000000,0.000000,0.000000,0.000000,0.000297,-0.000360,-0.000003,0.000000,0.000000,0.000000,0.000000,819,819,819,819
7316,0,2.197957,1.348747,0.000000,0.06,0.04,0.000199,-1.000000,0.000000,0.000000,0.000000,0.000000,0.000000,0.000000,0.000271,-0.000326,-0.000002,0.000000,0.000000,0.000000,0.000000,819,819,819,819
7326,0,2.198366,1.348997,0.000000,0.06,0.03,0.000180,-1.000000,0.000000,0.000000,0.000000,0.000000,0.000000,0.000000,0.000247,-0.000293,-0.000002,0.000000,0.000000,0.000000,0.000000,819,819,819,819
7336,0,2.198693,1.349198,0.000000,0.05,0.03,0.000163,-1.000000,0.000000,0.000000,0.000000,0.000000,0.000000,0.000000,0.000226,-0.000264,-0.000002,0.000000,0.000000,0.000000,0.000000,819,819,819,819
7346,0,2.198954,1.349358,0.000000,0.05,0.03,0.000044,-1.000000,0.000000,0.000000,0.000000,0.000000,0.000000,0.000000,0.000207,-0.000240,-0.000000,0.000000,0.000000,0.000000,0.000000,819,819,819,819
7356,0,2.199163,1.349487,0.000000,0.04,0.03,-0.000064,-1.000000,0.000000,0.000000,0.000000,0.000000,0.000000,0.000000,0.000189,-0.000219,0.000000,0.000000,0.000000,0.000000,0.000000,819,819,819,819
7366,0,2.199331,1.349589,0.000000,0.04,0.02,0.000046,-1.000000,0.000000,0.000000,0.000000,0.000000,0.000000,0.000000,0.000174,-0.000201,-0.000000,0.000000,0.000000,0.000000,0.000000,819,819,819,819
7376,0,2.199465,1.349671,0.000000,0.03,0.02,-0.000062,-1.000000,0.000000,0.000000,0.000000,0.000000,0.000000,0.000000,0.000160,-0.000184,0.000000,0.000000,0.000000,0.000000,0.000000,819,819,819,819
7387,0,2.199572,1.349737,0.000000,0.03,0.02,-0.000160,-1.000000,0.000000,0.000000,0.000000,0.000000,0.000000,0.000000,0.000147,-0.000170,0.000002,0.000000,0.000000,0.000000,0.000000,819,819,819,819
7396,0,2.199657,1.349790,0.000000,0.03,0.02,-0.000559,-1.000000,0.000000,0.000000,0.000000,0.000000,0.000000,0.000000,0.000136,-0.000155,0.000006,0.000000,0.000000,0.000000,0.000000,819,819,819,819
7406,0,2.199726,1.349832,0.000000,0.03,0.02,-0.000921,-1.000000,0.000000,0.000000,0.000000,0.000000,0.000000,0.000000,0.000125,-0.000143,0.000009,0.000000,0.000000,0.000000,0.000000,819,819,819,819
7416,0,2.199781,1.349865,0.000000,0.02,0.01,-0.000833,-1.000000,0.000000,0.000000,0.000000,0.000000,0.000000,0.000000,0.000117,-0.000129,0.000008,0.000000,0.000000,0.000000,0.000000,819,819,819,819
7426,0,2.199825,1.349892,0.000000,0.02,0.01,-0.000754,-1.000000,0.000000,0.000000,0.000000,0.000000,0.000000,0.000000,0.000109,-0.000116,0.000008,0.000000,0.000000,0.000000,0.000000,819,819,819,819
7437,0,2.199860,1.349914,0.000000,0.02,0.01,-0.000372,-1.000000,0.000000,0.000000,0.000000,0.000000,0.000000,0.000000,0.000101,-0.000105,0.000004,0.000000,0.000000,0.000000,0.000000,819,819,819,819
7448,0,2.199888,1.349931,0.000000,0.02,0.01,-0.000647,-1.000000,0.000000,0.000000,0.000000,0.000000,0.000000,0.000000,0.000094,-0.000098,0.000006,0.000000,0.000000,0.000000,0.000000,819,819,819,819
7458,0,2.199910,1.349945,0.000000,0.02,0.00,-0.000586,-1.000000,0.000000,0.000000,0.000000,0.000000,0.000000,0.000000,0.000088,-0.000087,0.000006,0.000000,0.000000,0.000000,0.000000,819,819,819,819
7467,0,2.199928,1.349956,0.000000,0.01,0.00,-0.000426,-1.000000,0.000000,0.000000,0.000000,0.000000,0.000000,0.000000,0.000082,-0.000079,0.000004,0.000000,0.000000,0.000000,0.000000,819,819,819,819
7477,0,2.199942,1.349965,0.000000,0.01,0.00,-0.000386,-1.000000,0.000000,0.000000,0.000000,0.000000,0.000000,0.000000,0.000077,-0.000072,0.000004,0.000000,0.000000,0.000000,0.000000,819,819,819,819
7487,0,2.199954,1.349972,0.000000,0.01,0.00,-0.000142,-1.000000,0.000000,0.000000,0.000000,0.000000,0.000000,0.000000,0.000072,-0.000063,0.000001,0.000000,0.000000,0.000000,0.000000,819,819,819,819
7497,0,2.199963,1.349977,0.000000,0.01,0.00,-0.000232,-1.000000,0.000000,0.000000,0.000000,0.000000,0.000000,0.000000,0.000068,-0.000059,0.000002,0.000000,0.000000,0.000000,0.000000,819,819,819,819
7507,0,2.199970,1.349982,0.000000,0.00,0.00,-0.000106,-1.000000,0.000000,0.000000,0.000000,0.000000,0.000000,0.000000,0.000064,-0.000054,0.000001,0.000000,0.000000,0.000000,0.000000,819,819,819,819
7517,0,2.199976,1.349985,0.000000,0.00,0.00,-0.000511,-1.000000,0.000000,0.000000,0.000000,0.000000,0.000000,0.000000,0.000061,-0.000052,0.000005,0.000000,0.000000,0.000000,0.000000,819,819,819,819
7527,0,2.199981,1.349988,0.000000,0.00,0.00,-0.000566,-1.000000,0.000000,0.000000,0.000000,0.000000,0.000000,0.000000,0.000058,-0.000047,0.000006,0.000000,0.000000,0.000000,0.000000,819,819,819,819
7537,0,2.199985,1.349991,0.000000,0.00,0.00,-0.000512,-1.000000,0.000000,0.000000,0.000000,0.000000,0.000000,0.000000,0.000054,-0.000043,0.000005,0.000000,0.000000,0.000000,0.000000,819,819,819,819
7547,0,2.199988,1.349993,0.000000,0.00,0.00,-0.000671,-1.000000,0.000000,0.000000,0.000000,0.000000,0.000000,0.000000,0.000052,-0.000040,0.000007,0.000000,0.000000,0.000000,0.000000,819,819,819,819
7557,0,2.199991,1.349994,0.000000,0.00,0.00,-0.000607,-1.000000,0.000000,0.000000,0.000000,0.000000,0.000000,0.000000,0.000050,-0.000034,0.000006,0.000000,0.000000,0.000000,0.000000,819,819,819,819
7567,0,2.199992,1.349995,0.000000,0.00,0.00,-0.000446,-1.000000,0.000000,0.000000,0.000000,0.000000,0.000000,0.000000,0.000048,-0.000034,0.000004,0.000000,0.000000,0.000000,0.000000,819,819,819,819
7577,0,2.199994,1.349996,0.000000,0.00,0.00,-0.000300,-1.000000,0.000000,0.000000,0.000000,0.000000,0.000000,0.000000,0.000046,-0.000034,0.000003,0.000000,0.000000,0.000000,0.000000,819,819,819,819
7587,0,2.199995,1.349997,0.000000,0.00,0.00,-0.000375,-1.000000,0.000000,0.000000,0.000000,0.000000,0.000000,0.000000,0.000044,-0.000030,0.000004,0.000000,0.000000,0.000000,0.000000,819,819,819,819
7597,0,2.199996,1.349998,0.000000,0.00,0.00,-0.000236,-1.000000,0.000000,0.000000,0.000000,0.000000,0.000000,0.000000,0.000042,-0.000028,0.000002,0.000000,0.000000,0.000000,0.000000,819,819,819,819
7607,0,2.199997,1.349998,0.000000,0.00,0.00,-0.000628,-1.000000,0.000000,0.000000,0.000000,0.000000,0.000000,0.000000,0.000041,-0.000026,0.000006,0.000000,0.000000,0.000000,0.000000,819,819,819,819
7617,0,2.199997,1.349998,0.000000,0.00,0.00,-0.000775,-1.000000,0.000000,0.000000,0.000000,0.000000,0.000000,0.000000,0.000039,-0.000026,0.000008,0.000000,0.000000,0.000000,0.000000,819,819,819,819
7627,0,2.199998,1.349999,0.000000,0.00,0.00,-0.000702,-1.000000,0.000000,0.000000,0.000000,0.000000,0.000000,0.000000,0.000038,-0.000025,0.000007,0.000000,0.000000,0.000000,0.000000,819,819,819,819
7637,0,2.199998,1.349999,0.000000,0.00,0.00,-0.000739,-1.000000,0.000000,0.000000,0.000000,0.000000,0.000000,0.000000,0.000037,-0.000023,0.000007,0.000000,0.000000,0.000000,0.000000,819,819,819,819
7647,0,2.199999,1.349999,0.000000,0.00,0.00,-0.000876,-1.000000,0.000000,0.000000,0.000000,0.000000,0.000000,0.000000,0.000036,-0.000020,0.000009,0.000000,0.000000,0.000000,0.000000,819,819,819,819
7657,0,2.199999,1.349999,0.000000,0.00,-0.00,-0.000689,-1.000000,0.000000,0.000000,0.000000,0.000000,0.000000,0.000000,0.000036,-0.000016,0.000007,0.000000,0.000000,0.000000,0.000000,819,819,819,819
7667,0,2.199999,1.349999,0.000000,0.00,-0.00,-0.000831,-1.000000,0.000000,0.000000,0.000000,0.000000,0.000000,0.000000,0.000035,-0.000014,0.000008,0.000000,0.000000,0.000000,0.000000,819,819,819,819
7677,0,2.199999,1.350000,0.000000,0.00,-0.00,-0.001063,-1.000000,0.000000,0.000000,0.000000,0.000000,0.000000,0.000000,0.000035,-0.000014,0.000011,0.000000,0.000000,0.000000,0.000000,819,819,819,819
7687,0,2.200000,1.350000,0.000000,0.00,-0.00,-0.001065,-1.000000,0.000000,0.000000,0.000000,0.000000,0.000000,0.000000,0.000034,-0.000014,0.000011,0.000000,0.000000,0.000000,0.000000,819,819,819,819
7697,0,2.200000,1.350000,0.000000,0.00,-0.00,-0.000861,-1.000000,0.000000,0.000000,0.000000,0.000000,0.000000,0.000000,0.000033,-0.000014,0.000009,0.000000,0.000000,0.000000,0.000000,819,819,819,819
7707,0,2.200000,1.350000,0.000000,0.00,-0.00,-0.001090,-1.000000,0.000000,0.000000,0.000000,0.000000,0.000000,0.000000,0.000033,-0.000016,0.000011,0.000000,0.000000,0.000000,0.000000,819,819,819,819
7717,0,2.200000,1.350000,0.000000,0.00,0.00,-0.000883,-1.000000,0.000000,0.000000,0.000000,0.000000,0.000000,0.000000,0.000033,-0.000017,0.000009,0.000000,0.000000,0.000000,0.000000,819,819,819,819
7727,0,2.200000,1.350000,0.000000,0.00,-0.00,-0.000695,-1.000000,0.000000,0.000000,0.000000,0.000000,0.000000,0.000000,0.000032,-0.000014,0.000007,0.000000,0.000000,0.000000,0.000000,819,819,819,819
7737,0,2.200000,1.350000,0.000000,0.00,-0.00,-0.000836,-1.000000,0.000000,0.000000,0.000000,0.000000,0.000000,0.000000,0.000032,-0.000008,0.000008,0.000000,0.000000,0.000000,0.000000,819,819,819,819
7747,0,2.200000,1.350000,0.000000,0.00,-0.00,-0.001171,-1.000000,0.000000,0.000000,0.000000,0.000000,0.000000,0.000000,0.000032,-0.000005,0.000012,0.000000,0.000000,0.000000,0.000000,819,819,819,819
7762,0,2.200000,1.350000,0.000000,0.00,-0.00,-0.001164,-1.000000,0.000000,0.000000,0.000000,0.000000,0.000000,0.000000,0.000032,-0.000009,0.000012,0.000000,0.000000,0.000000,0.000000,819,819,819,819
7775,0,2.200000,1.350000,0.000000,0.00,0.00,-0.001157,-1.000000,0.000000,0.000000,0.000000,0.000000,0.000000,0.000000,0.000032,-0.000017,0.000012,0.000000,0.000000,0.000000,0.000000,819,819,819,819
7787,0,2.200000,1.350000,0.000000,0.00,-0.00,-0.001047,-1.000000,0.000000,0.000000,0.000000,0.000000,0.000000,0.000000,0.000032,-0.000016,0.000011,0.000000,0.000000,0.000000,0.000000,819,819,819,819
7797,0,2.200000,1.350000,0.000000,0.00,-0.00,-0.001051,-1.000000,0.000000,0.000000,0.000000,0.000000,0.000000,0.000000,0.000032,-0.000013,0.000011,0.000000,0.000000,0.000000,0.000000,819,819,819,819
7807,0,2.200000,1.350000,0.000000,0.00,-0.00,-0.000848,-1.000000,0.000000,0.000000,0.000000,0.000000,0.000000,0.000000,0.000033,-0.000012,0.000009,0.000000,0.000000,0.000000,0.000000,819,819,819,819
7817,0,2.200000,1.350000,0.000000,0.00,-0.00,-0.000767,-1.000000,0.000000,0.000000,0.000000,0.000000,0.000000,0.000000,0.000032,-0.000012,0.000008,0.000000,0.000000,0.000000,0.000000,819,819,819,819
7827,0,2.200000,1.350000,0.000000,0.00,-0.00,-0.000798,-1.000000,0.000000,0.000000,0.000000,0.000000,0.000000,0.000000,0.000032,-0.000016,0.000008,0.000000,0.000000,0.000000,0.000000,819,819,819,819
7837,0,2.200000,1.350000,0.000000,0.00,0.00,-0.000618,-1.000000,0.000000,0.000000,0.000000,0.000000,0.000000,0.000000,0.000031,-0.000019,0.000006,0.000000,0.000000,0.000000,0.000000,819,819,819,819
7850,0,2.200000,1.350000,0.000000,0.00,0.00,-0.000663,-1.000000,0.000000,0.000000,0.000000,0.000000,0.000000,0.000000,0.000030,-0.000019,0.000007,0.000000,0.000000,0.000000,0.000000,819,819,819,819
7859,0,2.200000,1.350000,0.000000,0.00,0.00,-0.000704,-1.000000,0.000000,0.000000,0.000000,0.000000,0.000000,0.000000,0.000030,-0.000022,0.000007,0.000000,0.000000,0.000000,0.000000,819,819,819,819
7869,0,2.200000,1.350000,0.000000,0.00,0.00,-0.000741,-1.000000,0.000000,0.000000,0.000000,0.000000,0.000000,0.000000,0.000031,-0.000022,0.000007,0.000000,0.000000,0.000000,0.000000,819,819,819,819
7878,0,2.200000,1.350000,0.000000,0.00,0.00,-0.000567,-1.000000,0.000000,0.000000,0.000000,0.000000,0.000000,0.000000,0.000030,-0.000020,0.000006,0.000000,0.000000,0.000000,0.000000,819,819,819,819
7888,0,2.200000,1.350000,0.000000,0.00,0.00,-0.000306,-1.000000,0.000000,0.000000,0.000000,0.000000,0.000000,0.000000,0.000030,-0.000017,0.000003,0.000000,0.000000,0.000000,0.000000,819,819,819,819
7898,0,2.200000,1.350000,0.000000,0.00,0.00,-0.000277,-1.000000,0.000000,0.000000,0.000000,0.000000,0.000000,0.000000,0.000030,-0.000018,0.000003,0.000000,0.000000,0.000000,0.000000,819,819,819,819
7908,0,2.200000,1.350000,0.000000,0.00,0.00,-0.000458,-1.000000,0.000000,0.000000,0.000000,0.000000,0.000000,0.000000,0.000030,-0.000019,0.000005,0.000000,0.000000,0.000000,0.000000,819,819,819,819
7917,0,2.200000,1.350000,0.000000,0.00,0.00,-0.000414,-1.000000,0.000000,0.000000,0.000000,0.000000,0.000000,0.000000,0.000030,-0.000020,0.000004,0.000000,0.000000,0.000000,0.000000,819,819,819,819
7927,0,2.200000,1.350000,0.000000,0.00,0.00,-0.000375,-1.000000,0.000000,0.000000,0.000000,0.000000,0.000000,0.000000,0.000030,-0.000021,0.000004,0.000000,0.000000,0.000000,0.000000,819,819,819,819
7938,0,2.200000,1.350000,0.000000,0.00,0.00,-0.000339,-1.000000,0.000000,0.000000,0.000000,0.000000,0.000000,0.000000,0.000028,-0.000020,0.000003,0.000000,0.000000,0.000000,0.000000,819,819,819,819
7948,0,2.200000,1.350000,0.000000,0.00,0.00,-0.000307,-1.000000,0.000000,0.000000,0.000000,0.000000,0.000000,0.000000,0.000028,-0.000019,0.000003,0.000000,0.000000,0.000000,0.000000,819,819,819,819
7957,0,2.200000,1.350000,0.000000,0.00,0.00,-0.000174,-1.000000,0.000000,0.000000,0.000000,0.000000,0.000000,0.000000,0.000028,-0.000022,0.000002,0.000000,0.000000,0.000000,0.000000,819,819,819,819
7968,0,2.200000,1.350000,0.000000,0.00,0.00,0.000050,-1.000000,0.000000,0.000000,0.000000,0.000000,0.000000,0.000000,0.000027,-0.000023,-0.000000,0.000000,0.000000,0.000000,0.000000,819,819,819,819
7977,0,2.200000,1.350000,0.000000,-0.00,0.00,0.000045,-1.000000,0.000000,0.000000,0.000000,0.000000,0.000000,0.000000,0.000027,-0.000021,-0.000000,0.000000,0.000000,0.000000,0.000000,819,819,819,819
7988,0,2.200000,1.350000,0.000000,-0.00,0.00,0.000144,-1.000000,0.000000,0.000000,0.000000,0.000000,0.000000,0.000000,0.000026,-0.000019,-0.000001,0.000000,0.000000,0.000000,0.000000,819,819,819,819
7998,0,2.200000,1.350000,0.000000,-0.00,0.00,0.000441,-1.000000,0.000000,0.000000,0.000000,0.000000,0.000000,0.000000,0.000027,-0.000020,-0.000004,0.000000,0.000000,0.000000,0.000000,819,819,819,819
8008,0,2.200000,1.350000,0.000000,-0.00,0.00,0.000296,-1.000000,0.000000,0.000000,0.000000,0.000000,0.000000,0.000000,0.000027,-0.000022,-0.000003,0.000000,0.000000,0.000000,0.000000,819,819,819,819
8018,0,2.200000,1.350000,0.000000,0.00,0.00,0.000061,-1.000000,0.000000,0.000000,0.000000,0.000000,0.000000,0.000000,0.000027,-0.000024,-0.000000,0.000000,0.000000,0.000000,0.000000,819,819,819,819
8028,0,2.200000,1.350000,0.000000,0.00,0.00,-0.000049,-1.000000,0.000000,0.000000,0.000000,0.000000,0.000000,0.000000,0.000028,-0.000024,0.000000,0.000000,0.000000,0.000000,0.000000,819,819,819,819
8038,0,2.200000,1.350000,0.000000,-0.00,0.00,-0.000044,-1.000000,0.000000,0.000000,0.000000,0.000000,0.000000,0.000000,0.000027,-0.000025,0.000000,0.000000,0.000000,0.000000,0.000000,819,819,819,819
8048,0,2.200000,1.350000,0.000000,-0.00,0.00,0.000064,-1.000000,0.000000,0.000000,0.000000,0.000000,0.000000,0.000000,0.000027,-0.000026,-0.000000,0.000000,0.000000,0.000000,0.000000,819,819,819,819
8058,0,2.200000,1.350000,0.000000,-0.00,0.00,0.000058,-1.000000,0.000000,0.000000,0.000000,0.000000,0.000000,0.000000,0.000027,-0.000024,-0.000000,0.000000,0.000000,0.000000,0.000000,819,819,819,819
8072,0,2.200000,1.350000,0.000000,0.00,0.00,0.000052,-1.000000,0.000000,0.000000,0.000000,0.000000,0.000000,0.000000,0.000028,-0.000023,-0.000000,0.000000,0.000000,0.000000,0.000000,819,819,819,819
8085,0,2.200000,1.350000,0.000000,-0.00,0.00,0.000254,-1.000000,0.000000,0.000000,0.000000,0.000000,0.000000,0.000000,0.000027,-0.000020,-0.000002,0.000000,0.000000,0.000000,0.000000,819,819,819,819
8097,0,2.200000,1.350000,0.000000,-0.00,0.00,0.000230,-1.000000,0.000000,0.000000,0.000000,0.000000,0.000000,0.000000,0.000026,-0.000020,-0.000002,0.000000,0.000000,0.000000,0.000000,819,819,819,819
8107,0,2.200000,1.350000,0.000000,-0.00,0.00,0.000208,-1.000000,0.000000,0.000000,0.000000,0.000000,0.000000,0.000000,0.000026,-0.000021,-0.000002,0.000000,0.000000,0.000000,0.000000,819,819,819,819
8118,0,2.200000,1.350000,0.000000,-0.00,0.00,0.000189,-1.000000,0.000000,0.000000,0.000000,0.000000,0.000000,0.000000,0.000026,-0.000024,-0.000002,0.000000,0.000000,0.000000,0.000000,819,819,819,819
8128,0,2.200000,1.350000,0.000000,-0.00,0.00,0.000274,-1.000000,0.000000,0.000000,0.000000,0.000000,0.000000,0.000000,0.000025,-0.000025,-0.000003,0.000000,0.000000,0.000000,0.000000,819,819,819,819
8138,0,2.200000,1.350000,0.000000,-0.00,0.00,0.000352,-1.000000,0.000000,0.000000,0.000000,0.000000,0.000000,0.000000,0.000024,-0.000023,-0.000003,0.000000,0.000000,0.000000,0.000000,819,819,819,819
8148,0,2.200000,1.350000,0.000000,-0.00,0.00,0.000215,-1.000000,0.000000,0.000000,0.000000,0.000000,0.000000,0.000000,0.000025,-0.000019,-0.000002,0.000000,0.000000,0.000000,0.000000,819,819,819,819
8158,0,2.200000,1.350000,0.000000,-0.00,-0.00,0.000091,-1.000000,0.000000,0.000000,0.000000,0.000000,0.000000,0.000000,0.000024,-0.000016,-0.000000,0.000000,0.000000,0.000000,0.000000,819,819,819,819
8168,0,2.200000,1.350000,0.000000,-0.00,-0.00,0.000186,-1.000000,0.000000,0.000000,0.000000,0.000000,0.000000,0.000000,0.000024,-0.000015,-0.000002,0.000000,0.000000,0.000000,0.000000,819,819,819,819
8178,0,2.200000,1.350000,0.000000,-0.00,0.00,0.000168,-1.000000,0.000000,0.000000,0.000000,0.000000,0.000000,0.000000,0.000024,-0.000017,-0.000002,0.000000,0.000000,0.000000,0.000000,819,819,819,819
8188,0,2.200000,1.350000,0.000000,-0.00,0.00,0.000463,-1.000000,0.000000,0.000000,0.000000,0.000000,0.000000,0.000000,0.000024,-0.000019,-0.000005,0.000000,0.000000,0.000000,0.000000,819,819,819,819
8198,0,2.200000,1.350000,0.000000,-0.00,0.00,0.000523,-1.000000,0.000000,0.000000,0.000000,0.000000,0.000000,0.000000,0.000025,-0.000020,-0.000005,0.000000,0.000000,0.000000,0.000000,819,819,819,819
8208,0,2.200000,1.350000,0.000000,-0.00,0.00,0.000369,-1.000000,0.000000,0.000000,0.000000,0.000000,0.000000,0.000000,0.000025,-0.000021,-0.000004,0.000000,0.000000,0.000000,0.000000,819,819,819,819
8218,0,2.200000,1.350000,0.000000,-0.00,0.00,0.000231,-1.000000,0.000000,0.000000,0.000000,0.000000,0.000000,0.000000,0.000025,-0.000019,-0.000002,0.000000,0.000000,0.000000,0.000000,819,819,819,819
8228,0,2.200000,1.350000,0.000000,-0.00,0.00,0.000002,-1.000000,0.000000,0.000000,0.000000,0.000000,0.000000,0.000000,0.000026,-0.000021,0.000000,0.000000,0.000000,0.000000,0.000000,819,819,819,819
8238,0,2.200000,1.350000,0.000000,-0.00,0.00,0.000209,-1.000000,0.000000,0.000000,0.000000,0.000000,0.000000,0.000000,0.000026,-0.000021,-0.000002,0.000000,0.000000,0.000000,0.000000,819,819,819,819
8248,0,2.200000,1.350000,0.000000,-0.00,0.00,0.000396,-1.000000,0.000000,0.000000,0.000000,0.000000,0.000000,0.000000,0.000026,-0.000021,-0.000004,0.000000,0.000000,0.000000,0.000000,819,819,819,819
8258,0,2.200000,1.350000,0.000000,-0.00,0.00,0.000462,-1.000000,0.000000,0.000000,0.000000,0.000000,0.000000,0.000000,0.000027,-0.000022,-0.000005,0.000000,0.000000,0.000000,0.000000,819,819,819,819
8268,0,2.200000,1.350000,0.000000,-0.00,0.00,0.000522,-1.000000,0.000000,0.000000,0.000000,0.000000,0.000000,0.000000,0.000026,-0.000020,-0.000005,0.000000,0.000000,0.000000,0.000000,819,819,819,819
8278,0,2.200000,1.350000,0.000000,-0.00,0.00,0.000369,-1.000000,0.000000,0.000000,0.000000,0.000000,0.000000,0.000000,0.000026,-0.000021,-0.000004,0.000000,0.000000,0.000000,0.000000,819,819,819,819
8288,0,2.200000,1.350000,0.000000,-0.00,0.00,0.000334,-1.000000,0.000000,0.000000,0.000000,0.000000,0.000000,0.000000,0.000025,-0.000019,-0.000003,0.000000,0.000000,0.000000,0.000000,819,819,819,819
8298,0,2.200000,1.350000,0.000000,-0.00,0.00,0.000198,-1.000000,0.000000,0.000000,0.000000,0.000000,0.000000,0.000000,0.000025,-0.000017,-0.000002,0.000000,0.000000,0.000000,0.000000,819,819,819,819
8308,0,2.200000,1.350000,0.000000,-0.00,0.00,0.000283,-1.000000,0.000000,0.000000,0.000000,0.000000,0.000000,0.000000,0.000025,-0.000017,-0.000003,0.000000,0.000000,0.000000,0.000000,819,819,819,819
8318,0,2.200000,1.350000,0.000000,-0.00,0.00,0.000153,-1.000000,0.000000,0.000000,0.000000,0.000000,0.000000,0.000000,0.000025,-0.000018,-0.000001,0.000000,0.000000,0.000000,0.000000,819,819,819,819
8328,0,2.200000,1.350000,0.000000,-0.00,0.00,0.000138,-1.000000,0.000000,0.000000,0.000000,0.000000,0.000000,0.000000,0.000025,-0.000018,-0.000001,0.000000,0.000000,0.000000,0.000000,819,819,819,819
8338,0,2.200000,1.350000,0.000000,-0.00,0.00,0.000332,-1.000000,0.000000,0.000000,0.000000,0.000000,0.000000,0.000000,0.000025,-0.000019,-0.000003,0.000000,0.000000,0.000000,0.000000,819,819,819,819
8348,0,2.200000,1.350000,0.000000,-0.00,0.00,0.000508,-1.000000,0.000000,0.000000,0.000000,0.000000,0.000000,0.000000,0.000026,-0.000017,-0.000005,0.000000,0.000000,0.000000,0.000000,819,819,819,819
8358,0,2.200000,1.350000,0.000000,-0.00,-0.00,0.000771,-1.000000,0.000000,0.000000,0.000000,0.000000,0.000000,0.000000,0.000025,-0.000015,-0.000008,0.000000,0.000000,0.000000,0.000000,819,819,819,819
8368,0,2.200000,1.350000,0.000000,-0.00,-0.00,0.000594,-1.000000,0.000000,0.000000,0.000000,0.000000,0.000000,0.000000,0.000026,-0.000016,-0.000006,0.000000,0.000000,0.000000,0.000000,819,819,819,819
8378,0,2.200000,1.350000,0.000000,-0.00,0.00,0.000641,-1.000000,0.000000,0.000000,0.000000,0.000000,0.000000,0.000000,0.000026,-0.000020,-0.000006,0.000000,0.000000,0.000000,0.000000,819,819,819,819
8392,0,2.200000,1.350000,0.000000,-0.00,0.00,0.000580,-1.000000,0.000000,0.000000,0.000000,0.000000,0.000000,0.000000,0.000025,-0.000018,-0.000006,0.000000,0.000000,0.000000,0.000000,819,819,819,819
8406,0,2.200000,1.350000,0.000000,-0.00,0.00,0.000525,-1.000000,0.000000,0.000000,0.000000,0.000000,0.000000,0.000000,0.000024,-0.000020,-0.000005,0.000000,0.000000,0.000000,0.000000,819,819,819,819
8417,0,2.200000,1.350000,0.000000,-0.00,0.00,0.000579,-1.000000,0.000000,0.000000,0.000000,0.000000,0.000000,0.000000,0.000025,-0.000021,-0.000006,0.000000,0.000000,0.000000,0.000000,819,819,819,819
8428,0,2.200000,1.350000,0.000000,-0.00,0.00,0.000420,-1.000000,0.000000,0.000000,0.000000,0.000000,0.000000,0.000000,0.000025,-0.000021,-0.000004,0.000000,0.000000,0.000000,0.000000,819,819,819,819
8438,0,2.200000,1.350000,0.000000,-0.00,0.00,0.000587,-1.000000,0.000000,0.000000,0.000000,0.000000,0.000000,0.000000,0.000024,-0.000020,-0.000006,0.000000,0.000000,0.000000,0.000000,819,819,819,819
8448,0,2.200000,1.350000,0.000000,-0.00,0.00,0.000324,-1.000000,0.000000,0.000000,0.000000,0.000000,0.000000,0.000000,0.000024,-0.000022,-0.000003,0.000000,0.000000,0.000000,0.000000,819,819,819,819
8458,0,2.200000,1.350000,0.000000,-0.00,0.00,0.000294,-1.000000,0.000000,0.000000,0.000000,0.000000,0.000000,0.000000,0.000024,-0.000023,-0.000003,0.000000,0.000000,0.000000,0.000000,819,819,819,819
8468,0,2.200000,1.350000,0.000000,-0.00,0.00,0.000266,-1.000000,0.000000,0.000000,0.000000,0.000000,0.000000,0.000000,0.000025,-0.000023,-0.000003,0.000000,0.000000,0.000000,0.000000,819,819,819,819
8478,0,2.200000,1.350000,0.000000,-0.00,0.00,0.000240,-1.000000,0.000000,0.000000,0.000000,0.000000,0.000000,0.000000,0.000026,-0.000024,-0.000002,0.000000,0.000000,0.000000,0.000000,819,819,819,819
8488,0,2.200000,1.350000,0.000000,-0.00,0.00,0.000425,-1.000000,0.000000,0.000000,0.000000,0.000000,0.000000,0.000000,0.000025,-0.000022,-0.000004,0.000000,0.000000,0.000000,0.000000,819,819,819,819
8498,0,2.200000,1.350000,0.000000,-0.00,0.00,0.000074,-1.000000,0.000000,0.000000,0.000000,0.000000,0.000000,0.000000,0.000025,-0.000024,-0.000000,0.000000,0.000000,0.000000,0.000000,819,819,819,819
8508,0,2.200000,1.350000,0.000000,-0.00,0.00,-0.000244,-1.000000,0.000000,0.000000,0.000000,0.000000,0.000000,0.000000,0.000025,-0.000023,0.000002,0.000000,0.000000,0.000000,0.000000,819,819,819,819
8518,0,2.200000,1.350000,0.000000,-0.00,0.00,-0.000325,-1.000000,0.000000,0.000000,0.000000,0.000000,0.000000,0.000000,0.000026,-0.000025,0.000003,0.000000,0.000000,0.000000,0.000000,819,819,819,819
8528,0,2.200000,1.350000,0.000000,-0.00,0.00,-0.000190,-1.000000,0.000000,0.000000,0.000000,0.000000,0.000000,0.000000,0.000026,-0.000026,0.000002,0.000000,0.000000,0.000000,0.000000,819,819,819,819
8539,0,2.200000,1.350000,0.000000,-0.00,0.00,0.000139,-1.000000,0.000000,0.000000,0.000000,0.000000,0.000000,0.000000,0.000025,-0.000025,-0.000001,0.000000,0.000000,0.000000,0.000000,819,819,819,819
8549,0,2.200000,1.350000,0.000000,-0.00,0.00,0.000436,-1.000000,0.000000,0.000000,0.000000,0.000000,0.000000,0.000000,0.000026,-0.000026,-0.000004,0.000000,0.000000,0.000000,0.000000,819,819,819,819
8559,0,2.200000,1.350000,0.000000,-0.00,0.00,0.000291,-1.000000,0.000000,0.000000,0.000000,0.000000,0.000000,0.000000,0.000027,-0.000026,-0.000003,0.000000,0.000000,0.000000,0.000000,819,819,819,819
8568,0,2.200000,1.350000,0.000000,-0.00,0.00,0.000264,-1.000000,0.000000,0.000000,0.000000,0.000000,0.000000,0.000000,0.000027,-0.000025,-0.000003,0.000000,0.000000,0.000000,0.000000,819,819,819,819
8578,0,2.200000,1.350000,0.000000,-0.00,0.00,0.000550,-1.000000,0.000000,0.000000,0.000000,0.000000,0.000000,0.000000,0.000026,-0.000026,-0.000005,0.000000,0.000000,0.000000,0.000000,819,819,819,819
8589,0,2.200000,1.350000,0.000000,-0.00,0.00,0.000705,-1.000000,0.000000,0.000000,0.000000,0.000000,0.000000,0.000000,0.000026,-0.000026,-0.000007,0.000000,0.000000,0.000000,0.000000,819,819,819,819
8599,0,2.200000,1.350000,0.000000,-0.00,0.00,0.000638,-1.000000,0.000000,0.000000,0.000000,0.000000,0.000000,0.000000,0.000027,-0.000027,-0.000006,0.000000,0.000000,0.000000,0.000000,819,819,819,819
8609,0,2.200000,1.350000,0.000000,0.00,0.00,0.000473,0.006000,0.000000,0.000000,0.000000,0.000000,0.000000,0.000000,0.000027,-0.000027,-0.000005,0.000000,0.000000,0.000000,0.000000,819,819,819,819
8619,0,2.200000,1.350000,0.000000,-0.00,0.00,0.000428,0.006000,0.000000,0.000000,0.000000,0.000000,0.000000,0.000000,0.000027,-0.000024,-0.000004,0.000000,0.000000,0.000000,0.000000,819,819,819,819
8629,0,2.200000,1.350000,0.000000,-0.00,0.00,0.000595,0.006000,0.000000,0.000000,0.000000,0.000000,0.000000,0.000000,0.000026,-0.000020,-0.000006,0.000000,0.000000,0.000000,0.000000,819,819,819,819
8639,0,2.200000,1.350000,0.000000,-0.00,0.00,0.000538,0.006000,0.000000,0.000000,0.000000,0.000000,0.000000,0.000000,0.000025,-0.000019,-0.000005,0.000000,0.000000,0.000000,0.000000,819,819,819,819
8649,0,2.200000,1.350000,0.000000,-0.00,0.00,0.000384,0.006000,0.000000,0.000000,0.000000,0.000000,0.000000,0.000000,0.000026,-0.000024,-0.000004,0.000000,0.000000,0.000000,0.000000,819,819,819,819
8659,0,2.200000,1.350000,0.000000,-0.00,0.00,0.000451,0.006000,0.000000,0.000000,0.000000,0.000000,0.000000,0.000000,0.000026,-0.000029,-0.000005,0.000000,0.000000,0.000000,0.000000,819,819,819,819
8669,0,2.200000,1.350000,0.000000,-0.00,0.00,0.000408,0.006000,0.000000,0.000000,0.000000,0.000000,0.000000,0.000000,0.000026,-0.000029,-0.000004,0.000000,0.000000,0.000000,0.000000,819,819,819,819
8679,0,2.200000,1.350000,0.000000,-0.00,0.00,0.000369,0.006000,0.000000,0.000000,0.000000,0.000000,0.000000,0.000000,0.000026,-0.000025,-0.000004,0.000000,0.000000,0.000000,0.000000,819,819,819,819
8691,0,2.200000,1.350000,0.000000,-0.00,0.00,0.000645,0.006000,0.000000,0.000000,0.000000,0.000000,0.000000,0.000000,0.000026,-0.000019,-0.000006,0.000000,0.000000,0.000000,0.000000,819,819,819,819
8707,0,2.200000,1.350000,0.000000,-0.00,0.00,0.000480,0.006000,0.000000,0.000000,0.000000,0.000000,0.000000,0.000000,0.000026,-0.000019,-0.000005,0.000000,0.000000,0.000000,0.000000,819,819,819,819
8719,0,2.200000,1.350000,0.000000,-0.00,0.00,0.000538,0.006000,0.000000,0.000000,0.000000,0.000000,0.000000,0.000000,0.000025,-0.000020,-0.000005,0.000000,0.000000,0.000000,0.000000,819,819,819,819
8729,0,2.200000,1.350000,0.000000,-0.00,0.00,0.000798,0.006000,0.000000,0.000000,0.000000,0.000000,0.000000,0.000000,0.000026,-0.000020,-0.000008,0.000000,0.000000,0.000000,0.000000,819,819,819,819
8739,0,2.200000,1.350000,0.000000,-0.00,0.00,0.000929,0.006000,0.000000,0.000000,0.000000,0.000000,0.000000,0.000000,0.000025,-0.000017,-0.000009,0.000000,0.000000,0.000000,0.000000,819,819,819,819
8749,0,2.200000,1.350000,0.000000,-0.00,0.00,0.000737,0.006000,0.000000,0.000000,0.000000,0.000000,0.000000,0.000000,0.000025,-0.000019,-0.000007,0.000000,0.000000,0.000000,0.000000,819,819,819,819
8759,0,2.200000,1.350000,0.000000,-0.00,0.00,0.000460,0.006000,0.000000,0.000000,0.000000,0.000000,0.000000,0.000000,0.000025,-0.000018,-0.000005,0.000000,0.000000,0.000000,0.000000,819,819,819,819
8769,0,2.200000,1.350000,0.000000,-0.00,0.00,0.000520,0.006000,0.000000,0.000000,0.000000,0.000000,0.000000,0.000000,0.000025,-0.000018,-0.000005,0.000000,0.000000,0.000000,0.000000,819,819,819,819
8779,0,2.200000,1.350000,0.000000,-0.00,0.00,0.000782,0.006000,0.000000,0.000000,0.000000,0.000000,0.000000,0.000000,0.000025,-0.000020,-0.000008,0.000000,0.000000,0.000000,0.000000,819,819,819,819
8789,0,2.200000,1.350000,0.000000,-0.00,0.00,0.000707,0.006000,0.000000,0.000000,0.000000,0.000000,0.000000,0.000000,0.000026,-0.000021,-0.000007,0.000000,0.000000,0.000000,0.000000,819,819,819,819
8799,0,2.200000,1.350000,0.000000,-0.00,0.00,0.000744,0.006000,0.000000,0.000000,0.000000,0.000000,0.000000,0.000000,0.000024,-0.000021,-0.000007,0.000000,0.000000,0.000000,0.000000,819,819,819,819
8809,0,2.200000,1.350000,0.000000,-0.00,0.00,0.000673,0.006000,0.000000,0.000000,0.000000,0.000000,0.000000,0.000000,0.000024,-0.000021,-0.000007,0.000000,0.000000,0.000000,0.000000,819,819,819,819
8819,0,2.200000,1.350000,0.000000,-0.00,0.00,0.000609,0.006000,0.000000,0.000000,0.000000,0.000000,0.000000,0.000000,0.000025,-0.000021,-0.000006,0.000000,0.000000,0.000000,0.000000,819,819,819,819
8829,0,2.200000,1.350000,0.000000,-0.00,0.00,0.000448,0.006000,0.000000,0.000000,0.000000,0.000000,0.000000,0.000000,0.000025,-0.000023,-0.000005,0.000000,0.000000,0.000000,0.000000,819,819,819,819
8839,0,2.200000,1.350000,0.000000,-0.00,0.00,0.000509,0.006000,0.000000,0.000000,0.000000,0.000000,0.000000,0.000000,0.000025,-0.000024,-0.000005,0.000000,0.000000,0.000000,0.000000,819,819,819,819
8849,0,2.200000,1.350000,0.000000,-0.00,0.00,0.000357,0.006000,0.000000,0.000000,0.000000,0.000000,0.000000,0.000000,0.000024,-0.000024,-0.000004,0.000000,0.000000,0.000000,0.000000,819,819,819,819
8859,0,2.200000,1.350000,0.000000,-0.00,0.00,0.000219,0.006000,0.000000,0.000000,0.000000,0.000000,0.000000,0.000000,0.000024,-0.000025,-0.000002,0.000000,0.000000,0.000000,0.000000,819,819,819,819
8869,0,2.200000,1.350000,0.000000,-0.00,0.00,0.000095,0.006000,0.000000,0.000000,0.000000,0.000000,0.000000,0.000000,0.000024,-0.000024,-0.000001,0.000000,0.000000,0.000000,0.000000,819,819,819,819
8879,0,2.200000,1.350000,0.000000,-0.00,0.00,-0.000225,0.006000,0.000000,0.000000,0.000000,0.000000,0.000000,0.000000,0.000025,-0.000024,0.000002,0.000000,0.000000,0.000000,0.000000,819,819,819,819
8889,0,2.200000,1.350000,0.000000,-0.00,0.00,-0.000204,0.006000,0.000000,0.000000,0.000000,0.000000,0.000000,0.000000,0.000026,-0.000020,0.000002,0.000000,0.000000,0.000000,0.000000,819,819,819,819
8899,0,2.200000,1.350000,0.000000,-0.00,0.00,-0.000081,0.006000,0.000000,0.000000,0.000000,0.000000,0.000000,0.000000,0.000026,-0.000019,0.000000,0.000000,0.000000,0.000000,0.000000,819,819,819,819
8909,0,2.200000,1.350000,0.000000,-0.00,0.00,-0.000177,0.006000,0.000000,0.000000,0.000000,0.000000,0.000000,0.000000,0.000026,-0.000021,0.000002,0.000000,0.000000,0.000000,0.000000,819,819,819,819
8919,0,2.200000,1.350000,0.000000,-0.00,0.00,-0.000160,0.006000,0.000000,0.000000,0.000000,0.000000,0.000000,0.000000,0.000025,-0.000021,0.000002,0.000000,0.000000,0.000000,0.000000,819,819,819,819
8929,0,2.200000,1.350000,0.000000,-0.00,0.00,-0.000248,0.006000,0.000000,0.000000,0.000000,0.000000,0.000000,0.000000,0.000025,-0.000023,0.000002,0.000000,0.000000,0.000000,0.000000,819,819,819,819
8939,0,2.200000,1.350000,0.000000,-0.00,0.00,-0.000225,0.006000,0.000000,0.000000,0.000000,0.000000,0.000000,0.000000,0.000025,-0.000022,0.000002,0.000000,0.000000,0.000000,0.000000,819,819,819,819
8949,0,2.200000,1.350000,0.000000,-0.00,0.00,-0.000307,0.006000,0.000000,0.000000,0.000000,0.000000,0.000000,0.000000,0.000025,-0.000020,0.000003,0.000000,0.000000,0.000000,0.000000,819,819,819,819
8959,0,2.200000,1.350000,0.000000,-0.00,0.00,-0.000278,0.006000,0.000000,0.000000,0.000000,0.000000,0.000000,0.000000,0.000025,-0.000018,0.000003,0.000000,0.000000,0.000000,0.000000,819,819,819,819
8969,0,2.200000,1.350000,0.000000,-0.00,0.00,-0.000355,0.006000,0.000000,0.000000,0.000000,0.000000,0.000000,0.000000,0.000025,-0.000017,0.000004,0.000000,0.000000,0.000000,0.000000,819,819,819,819
8979,0,2.200000,1.350000,0.000000,-0.00,-0.00,-0.000321,0.006000,0.000000,0.000000,0.000000,0.000000,0.000000,0.000000,0.000025,-0.000015,0.000003,0.000000,0.000000,0.000000,0.000000,819,819,819,819
8989,0,2.200000,1.350000,0.000000,-0.00,-0.00,-0.000394,0.006000,0.000000,0.000000,0.000000,0.000000,0.000000,0.000000,0.000025,-0.000016,0.000004,0.000000,0.000000,0.000000,0.000000,819,819,819,819
8999,0,2.200000,1.350000,0.000000,-0.00,0.00,-0.000564,0.006000,0.000000,0.000000,0.000000,0.000000,0.000000,0.000000,0.000024,-0.000019,0.000006,0.000000,0.000000,0.000000,0.000000,819,819,819,819
9009,0,2.200000,1.350000,0.000000,-0.00,0.00,-0.000718,0.006000,0.000000,0.000000,0.000000,0.000000,0.000000,0.000000,0.000025,-0.000022,0.000007,0.000000,0.000000,0.000000,0.000000,819,819,819,819
9024,0,2.200000,1.350000,0.000000,-0.00,0.00,-0.000753,0.006000,0.000000,0.000000,0.000000,0.000000,0.000000,0.000000,0.000025,-0.000023,0.000008,0.000000,0.000000,0.000000,0.000000,819,819,819,819
9038,0,2.200000,1.350000,0.000000,-0.00,0.00,-0.000785,0.006000,0.000000,0.000000,0.000000,0.000000,0.000000,0.000000,0.000025,-0.000023,0.000008,0.000000,0.000000,0.000000,0.000000,819,819,819,819
9049,0,2.200000,1.350000,0.000000,-0.00,0.00,-0.000814,0.006000,0.000000,0.000000,0.000000,0.000000,0.000000,0.000000,0.000025,-0.000019,0.000008,0.000000,0.000000,0.000000,0.000000,819,819,819,819
9059,0,2.200000,1.350000,0.000000,-0.00,0.00,-0.000633,0.006000,0.000000,0.000000,0.000000,0.000000,0.000000,0.000000,0.000025,-0.000020,0.000006,0.000000,0.000000,0.000000,0.000000,819,819,819,819
9069,0,2.200000,1.350000,0.000000,-0.00,0.00,-0.000677,0.006000,0.000000,0.000000,0.000000,0.000000,0.000000,0.000000,0.000024,-0.000019,0.000007,0.000000,0.000000,0.000000,0.000000,819,819,819,819
9079,0,2.200000,1.350000,0.000000,-0.00,0.00,-0.000613,0.006000,0.000000,0.000000,0.000000,0.000000,0.000000,0.000000,0.000024,-0.000019,0.000006,0.000000,0.000000,0.000000,0.000000,819,819,819,819
9089,0,2.200000,1.350000,0.000000,-0.00,0.00,-0.000554,0.006000,0.000000,0.000000,0.000000,0.000000,0.000000,0.000000,0.000024,-0.000021,0.000006,0.000000,0.000000,0.000000,0.000000,819,819,819,819
9099,0,2.200000,1.350000,0.000000,-0.00,0.00,-0.000605,0.006000,0.000000,0.000000,0.000000,0.000000,0.000000,0.000000,0.000024,-0.000022,0.000006,0.000000,0.000000,0.000000,0.000000,819,819,819,819
9109,0,2.200000,1.350000,0.000000,-0.00,0.00,-0.000755,0.006000,0.000000,0.000000,0.000000,0.000000,0.000000,0.000000,0.000025,-0.000022,0.000008,0.000000,0.000000,0.000000,0.000000,819,819,819,819
9120,0,2.200000,1.350000,0.000000,-0.00,0.00,-0.000891,0.006000,0.000000,0.000000,0.000000,0.000000,0.000000,0.000000,0.000025,-0.000020,0.000009,0.000000,0.000000,0.000000,0.000000,819,819,819,819
9129,0,2.200000,1.350000,0.000000,-0.00,0.00,-0.001117,0.006000,0.000000,0.000000,0.000000,0.000000,0.000000,0.000000,0.000025,-0.000020,0.000011,0.000000,0.000000,0.000000,0.000000,819,819,819,819
9140,0,2.200000,1.350000,0.000000,-0.00,0.00,-0.001114,0.006000,0.000000,0.000000,0.000000,0.000000,0.000000,0.000000,0.000025,-0.000020,0.000011,0.000000,0.000000,0.000000,0.000000,819,819,819,819
9150,0,2.200000,1.350000,0.000000,-0.00,0.00,-0.000801,0.006000,0.000000,0.000000,0.000000,0.000000,0.000000,0.000000,0.000025,-0.000021,0.000008,0.000000,0.000000,0.000000,0.000000,819,819,819,819
9160,0,2.200000,1.350000,0.000000,-0.00,0.00,-0.000725,0.006000,0.000000,0.000000,0.000000,0.000000,0.000000,0.000000,0.000025,-0.000022,0.000007,0.000000,0.000000,0.000000,0.000000,819,819,819,819
9170,0,2.200000,1.350000,0.000000,-0.00,0.00,-0.000449,0.006000,0.000000,0.000000,0.000000,0.000000,0.000000,0.000000,0.000025,-0.000020,0.000005,0.000000,0.000000,0.000000,0.000000,819,819,819,819
9180,0,2.200000,1.350000,0.000000,-0.00,0.00,-0.000510,0.006000,0.000000,0.000000,0.000000,0.000000,0.000000,0.000000,0.000024,-0.000022,0.000005,0.000000,0.000000,0.000000,0.000000,819,819,819,819
9190,0,2.200000,1.350000,0.000000,-0.00,0.00,-0.000669,0.006000,0.000000,0.000000,0.000000,0.000000,0.000000,0.000000,0.000025,-0.000023,0.000007,0.000000,0.000000,0.000000,0.000000,819,819,819,819
9200,0,2.200000,1.350000,0.000000,-0.00,0.00,-0.000813,0.006000,0.000000,0.000000,0.000000,0.000000,0.000000,0.000000,0.000024,-0.000022,0.000008,0.000000,0.000000,0.000000,0.000000,819,819,819,819
9210,0,2.200000,1.350000,0.000000,-0.00,0.00,-0.000943,0.006000,0.000000,0.000000,0.000000,0.000000,0.000000,0.000000,0.000025,-0.000027,0.000009,0.000000,0.000000,0.000000,0.000000,819,819,819,819
9220,0,2.200000,1.350000,0.000000,-0.00,0.00,-0.001060,0.006000,0.000000,0.000000,0.000000,0.000000,0.000000,0.000000,0.000025,-0.000025,0.000011,0.000000,0.000000,0.000000,0.000000,819,819,819,819
9230,0,2.200000,1.350000,0.000000,-0.00,0.00,-0.001063,0.006000,0.000000,0.000000,0.000000,0.000000,0.000000,0.000000,0.000026,-0.000023,0.000011,0.000000,0.000000,0.000000,0.000000,819,819,819,819
9240,0,2.200000,1.350000,0.000000,-0.00,0.00,-0.001066,0.006000,0.000000,0.000000,0.000000,0.000000,0.000000,0.000000,0.000025,-0.000022,0.000011,0.000000,0.000000,0.000000,0.000000,819,819,819,819
9250,0,2.200000,1.350000,0.000000,-0.00,0.00,-0.000965,0.006000,0.000000,0.000000,0.000000,0.000000,0.000000,0.000000,0.000026,-0.000020,0.000010,0.000000,0.000000,0.000000,0.000000,819,819,819,819
9260,0,2.200000,1.350000,0.000000,-0.00,0.00,-0.000769,0.006000,0.000000,0.000000,0.000000,0.000000,0.000000,0.000000,0.000026,-0.000021,0.000008,0.000000,0.000000,0.000000,0.000000,819,819,819,819
9270,0,2.200000,1.350000,0.000000,-0.00,0.00,-0.000800,0.006000,0.000000,0.000000,0.000000,0.000000,0.000000,0.000000,0.000026,-0.000019,0.000008,0.000000,0.000000,0.000000,0.000000,819,819,819,819
9280,0,2.200000,1.350000,0.000000,-0.00,0.00,-0.000620,0.006000,0.000000,0.000000,0.000000,0.000000,0.000000,0.000000,0.000026,-0.000019,0.000006,0.000000,0.000000,0.000000,0.000000,819,819,819,819
9290,0,2.200000,1.350000,0.000000,-0.00,0.00,-0.000769,0.006000,0.000000,0.000000,0.000000,0.000000,0.000000,0.000000,0.000026,-0.000018,0.000008,0.000000,0.000000,0.000000,0.000000,819,819,819,819
9300,0,2.200000,1.350000,0.000000,-0.00,0.00,-0.000903,0.006000,0.000000,0.000000,0.000000,0.000000,0.000000,0.000000,0.000026,-0.000019,0.000009,0.000000,0.000000,0.000000,0.000000,819,819,819,819
9310,0,2.200000,1.350000,0.000000,-0.00,0.00,-0.000817,0.006000,0.000000,0.000000,0.000000,0.000000,0.000000,0.000000,0.000026,-0.000019,0.000008,0.000000,0.000000,0.000000,0.000000,819,819,819,819
9320,0,2.200000,1.350000,0.000000,-0.00,0.00,-0.000532,0.006000,0.000000,0.000000,0.000000,0.000000,0.000000,0.000000,0.000026,-0.000017,0.000005,0.000000,0.000000,0.000000,0.000000,819,819,819,819
9330,0,2.200000,1.350000,0.000000,0.00,0.00,-0.000378,0.006000,0.000000,0.000000,0.000000,0.000000,0.000000,0.000000,0.000027,-0.000019,0.000004,0.000000,0.000000,0.000000,0.000000,819,819,819,819
9344,0,2.200000,1.350000,0.000000,0.00,-0.00,-0.000238,0.006000,0.000000,0.000000,0.000000,0.000000,0.000000,0.000000,0.000027,-0.000017,0.000002,0.000000,0.000000,0.000000,0.000000,819,819,819,819
9357,0,2.200000,1.350000,0.000000,-0.00,-0.00,-0.000216,0.006000,0.000000,0.000000,0.000000,0.000000,0.000000,0.000000,0.000026,-0.000016,0.000002,0.000000,0.000000,0.000000,0.000000,819,819,819,819
9369,0,2.200000,1.350000,0.000000,-0.00,-0.00,-0.000299,0.006000,0.000000,0.000000,0.000000,0.000000,0.000000,0.000000,0.000026,-0.000014,0.000003,0.000000,0.000000,0.000000,0.000000,819,819,819,819
9379,0,2.200000,1.350000,0.000000,-0.00,-0.00,-0.000271,0.006000,0.000000,0.000000,0.000000,0.000000,0.000000,0.000000,0.000026,-0.000014,0.000003,0.000000,0.000000,0.000000,0.000000,819,819,819,819
9390,0,2.200000,1.350000,0.000000,-0.00,-0.00,0.000170,0.006000,0.000000,0.000000,0.000000,0.000000,0.000000,0.000000,0.000026,-0.000016,-0.000002,0.000000,0.000000,0.000000,0.000000,819,819,819,819
9400,0,2.200000,1.350000,0.000000,-0.00,0.00,0.000257,0.006000,0.000000,0.000000,0.000000,0.000000,0.000000,0.000000,0.000026,-0.000017,-0.000002,0.000000,0.000000,0.000000,0.000000,819,819,819,819
9410,0,2.200000,1.350000,0.000000,-0.00,0.00,0.000129,0.006000,0.000000,0.000000,0.000000,0.000000,0.000000,0.000000,0.000025,-0.000017,-0.000001,0.000000,0.000000,0.000000,0.000000,819,819,819,819
9420,0,2.200000,1.350000,0.000000,-0.00,0.00,0.000324,0.006000,0.000000,0.000000,0.000000,0.000000,0.000000,0.000000,0.000026,-0.000018,-0.000003,0.000000,0.000000,0.000000,0.000000,819,819,819,819
9430,0,2.200000,1.350000,0.000000,-0.00,0.00,0.000190,0.006000,0.000000,0.000000,0.000000,0.000000,0.000000,0.000000,0.000026,-0.000020,-0.000002,0.000000,0.000000,0.000000,0.000000,819,819,819,819
9440,0,2.200000,1.350000,0.000000,-0.00,0.00,0.000275,0.006000,0.000000,0.000000,0.000000,0.000000,0.000000,0.000000,0.000026,-0.000019,-0.000003,0.000000,0.000000,0.000000,0.000000,819,819,819,819
9450,0,2.200000,1.350000,0.000000,-0.00,0.00,0.000353,0.006000,0.000000,0.000000,0.000000,0.000000,0.000000,0.000000,0.000025,-0.000019,-0.000003,0.000000,0.000000,0.000000,0.000000,819,819,819,819
9460,0,2.200000,1.350000,0.000000,-0.00,0.00,0.000216,0.006000,0.000000,0.000000,0.000000,0.000000,0.000000,0.000000,0.000024,-0.000020,-0.000002,0.000000,0.000000,0.000000,0.000000,819,819,819,819
9470,0,2.200000,1.350000,0.000000,-0.00,0.00,0.000299,0.006000,0.000000,0.000000,0.000000,0.000000,0.000000,0.000000,0.000025,-0.000019,-0.000003,0.000000,0.000000,0.000000,0.000000,819,819,819,819
9480,0,2.200000,1.350000,0.000000,-0.00,0.00,0.000063,0.006000,0.000000,0.000000,0.000000,0.000000,0.000000,0.000000,0.000025,-0.000020,-0.000000,0.000000,0.000000,0.000000,0.000000,819,819,819,819
9490,0,2.200000,1.350000,0.000000,-0.00,0.00,0.000057,0.006000,0.000000,0.000000,0.000000,0.000000,0.000000,0.000000,0.000025,-0.000019,-0.000000,0.000000,0.000000,0.000000,0.000000,819,819,819,819
9500,0,2.200000,1.350000,0.000000,-0.00,-0.00,0.000155,0.006000,0.000000,0.000000,0.000000,0.000000,0.000000,0.000000,0.000025,-0.000016,-0.000001,0.000000,0.000000,0.000000,0.000000,819,819,819,819
9510,0,2.200000,1.350000,0.000000,-0.00,-0.00,0.000244,0.006000,0.000000,0.000000,0.000000,0.000000,0.000000,0.000000,0.000026,-0.000015,-0.000002,0.000000,0.000000,0.000000,0.000000,819,819,819,819
9520,0,2.200000,1.350000,0.000000,-0.00,-0.00,0.000325,0.006000,0.000000,0.000000,0.000000,0.000000,0.000000,0.000000,0.000025,-0.000014,-0.000003,0.000000,0.000000,0.000000,0.000000,819,819,819,819
9530,0,2.200000,1.350000,0.000000,-0.00,-0.00,0.000190,0.006000,0.000000,0.000000,0.000000,0.000000,0.000000,0.000000,0.000025,-0.000014,-0.000002,0.000000,0.000000,0.000000,0.000000,819,819,819,819
9543,0,2.200000,1.350000,0.000000,-0.00,-0.00,-0.000035,0.006000,0.000000,0.000000,0.000000,0.000000,0.000000,0.000000,0.000025,-0.000010,0.000000,0.000000,0.000000,0.000000,0.000000,819,819,819,819
9552,0,2.200000,1.350000,0.000000,-0.00,-0.00,-0.000032,0.006000,0.000000,0.000000,0.000000,0.000000,0.000000,0.000000,0.000024,-0.000010,0.000000,0.000000,0.000000,0.000000,0.000000,819,819,819,819
9562,0,2.200000,1.350000,0.000000,-0.00,-0.00,0.000075,0.006000,0.000000,0.000000,0.000000,0.000000,0.000000,0.000000,0.000025,-0.000012,-0.000000,0.000000,0.000000,0.000000,0.000000,819,819,819,819
9571,0,2.200000,1.350000,0.000000,-0.00,-0.00,0.000171,0.006000,0.000000,0.000000,0.000000,0.000000,0.000000,0.000000,0.000026,-0.000012,-0.000002,0.000000,0.000000,0.000000,0.000000,819,819,819,819
9581,0,2.200000,1.350000,0.000000,-0.00,-0.00,0.000570,0.006000,0.000000,0.000000,0.000000,0.000000,0.000000,0.000000,0.000025,-0.000013,-0.000006,0.000000,0.000000,0.000000,0.000000,819,819,819,819
9591,0,2.200000,1.350000,0.000000,-0.00,-0.00,0.000723,0.006000,0.000000,0.000000,0.000000,0.000000,0.000000,0.000000,0.000026,-0.000013,-0.000007,0.000000,0.000000,0.000000,0.000000,819,819,819,819
9601,0,2.200000,1.350000,0.000000,-0.00,-0.00,0.000758,0.006000,0.000000,0.000000,0.000000,0.000000,0.000000,0.000000,0.000025,-0.000013,-0.000008,0.000000,0.000000,0.000000,0.000000,819,819,819,819
9611,0,2.200000,1.350000,0.000000,-0.00,-0.00,0.000686,0.006000,0.000000,0.000000,0.000000,0.000000,0.000000,0.000000,0.000026,-0.000014,-0.000007,0.000000,0.000000,0.000000,0.000000,819,819,819,819
9621,0,2.200000,1.350000,0.000000,-0.00,-0.00,0.000724,0.006000,0.000000,0.000000,0.000000,0.000000,0.000000,0.000000,0.000026,-0.000011,-0.000007,0.000000,0.000000,0.000000,0.000000,819,819,819,819
9631,0,2.200000,1.350000,0.000000,-0.00,-0.00,0.000655,0.006000,0.000000,0.000000,0.000000,0.000000,0.000000,0.000000,0.000025,-0.000010,-0.000007,0.000000,0.000000,0.000000,0.000000,819,819,819,819
9641,0,2.200000,1.350000,0.000000,-0.00,-0.00,0.000593,0.006000,0.000000,0.000000,0.000000,0.000000,0.000000,0.000000,0.000025,-0.000010,-0.000006,0.000000,0.000000,0.000000,0.000000,819,819,819,819
9657,0,2.200000,1.350000,0.000000,-0.00,-0.00,0.000433,0.006000,0.000000,0.000000,0.000000,0.000000,0.000000,0.000000,0.000026,-0.000014,-0.000004,0.000000,0.000000,0.000000,0.000000,819,819,819,819
9670,0,2.200000,1.350000,0.000000,-0.00,-0.00,0.000392,0.006000,0.000000,0.000000,0.000000,0.000000,0.000000,0.000000,0.000025,-0.000014,-0.000004,0.000000,0.000000,0.000000,0.000000,819,819,819,819
9682,0,2.200000,1.350000,0.000000,-0.00,-0.00,0.000355,0.006000,0.000000,0.000000,0.000000,0.000000,0.000000,0.000000,0.000025,-0.000016,-0.000004,0.000000,0.000000,0.000000,0.000000,819,819,819,819
9691,0,2.200000,1.350000,0.000000,-0.00,-0.00,0.000321,0.006000,0.000000,0.000000,0.000000,0.000000,0.000000,0.000000,0.000025,-0.000014,-0.000003,0.000000,0.000000,0.000000,0.000000,819,819,819,819
9701,0,2.200000,1.350000,0.000000,-0.00,-0.00,0.000291,0.006000,0.000000,0.000000,0.000000,0.000000,0.000000,0.000000,0.000025,-0.000013,-0.000003,0.000000,0.000000,0.000000,0.000000,819,819,819,819
9711,0,2.200000,1.350000,0.000000,-0.00,-0.00,0.000263,0.006000,0.000000,0.000000,0.000000,0.000000,0.000000,0.000000,0.000026,-0.000013,-0.000003,0.000000,0.000000,0.000000,0.000000,819,819,819,819
9721,0,2.200000,1.350000,0.000000,-0.00,-0.00,0.000342,0.006000,0.000000,0.000000,0.000000,0.000000,0.000000,0.000000,0.000025,-0.000012,-0.000003,0.000000,0.000000,0.000000,0.000000,819,819,819,819
9731,0,2.200000,1.350000,0.000000,-0.00,-0.00,0.000413,0.006000,0.000000,0.000000,0.000000,0.000000,0.000000,0.000000,0.000026,-0.000013,-0.000004,0.000000,0.000000,0.000000,0.000000,819,819,819,819
9741,0,2.200000,1.350000,0.000000,-0.00,-0.00,0.000270,0.006000,0.000000,0.000000,0.000000,0.000000,0.000000,0.000000,0.000026,-0.000013,-0.000003,0.000000,0.000000,0.000000,0.000000,819,819,819,819
9751,0,2.200000,1.350000,0.000000,-0.00,-0.00,0.000348,0.006000,0.000000,0.000000,0.000000,0.000000,0.000000,0.000000,0.000026,-0.000014,-0.000003,0.000000,0.000000,0.000000,0.000000,819,819,819,819
9761,0,2.200000,1.350000,0.000000,-0.00,-0.00,0.000108,0.006000,0.000000,0.000000,0.000000,0.000000,0.000000,0.000000,0.000026,-0.000013,-0.000001,0.000000,0.000000,0.000000,0.000000,819,819,819,819
9771,0,2.200000,1.350000,0.000000,-0.00,-0.00,-0.000006,0.006000,0.000000,0.000000,0.000000,0.000000,0.000000,0.000000,0.000025,-0.000012,0.000000,0.000000,0.000000,0.000000,0.000000,819,819,819,819
9781,0,2.200000,1.350000,0.000000,-0.00,-0.00,-0.000006,0.006000,0.000000,0.000000,0.000000,0.000000,0.000000,0.000000,0.000026,-0.000013,0.000000,0.000000,0.000000,0.000000,0.000000,819,819,819,819
9791,0,2.200000,1.350000,0.000000,-0.00,-0.00,-0.000212,0.006000,0.000000,0.000000,0.000000,0.000000,0.000000,0.000000,0.000026,-0.000013,0.000002,0.000000,0.000000,0.000000,0.000000,819,819,819,819
9801,0,2.200000,1.350000,0.000000,-0.00,-0.00,-0.000503,0.006000,0.000000,0.000000,0.000000,0.000000,0.000000,0.000000,0.000025,-0.000014,0.000005,0.000000,0.000000,0.000000,0.000000,819,819,819,819
9811,0,2.200000,1.350000,0.000000,-0.00,-0.00,-0.000248,0.006000,0.000000,0.000000,0.000000,0.000000,0.000000,0.000000,0.000025,-0.000015,0.000003,0.000000,0.000000,0.000000,0.000000,819,819,819,819
9821,0,2.200000,1.350000,0.000000,-0.00,-0.00,-0.000432,0.006000,0.000000,0.000000,0.000000,0.000000,0.000000,0.000000,0.000024,-0.000014,0.000004,0.000000,0.000000,0.000000,0.000000,819,819,819,819
9831,0,2.200000,1.350000,0.000000,-0.00,-0.00,-0.000494,0.006000,0.000000,0.000000,0.000000,0.000000,0.000000,0.000000,0.000025,-0.000014,0.000005,0.000000,0.000000,0.000000,0.000000,819,819,819,819
9841,0,2.200000,1.350000,0.000000,-0.00,-0.00,-0.000447,0.006000,0.000000,0.000000,0.000000,0.000000,0.000000,0.000000,0.000025,-0.000011,0.000005,0.000000,0.000000,0.000000,0.000000,819,819,819,819
9851,0,2.200000,1.350000,0.000000,-0.00,-0.00,-0.000509,0.006000,0.000000,0.000000,0.000000,0.000000,0.000000,0.000000,0.000025,-0.000009,0.000005,0.000000,0.000000,0.000000,0.000000,819,819,819,819
9861,0,2.200000,1.350000,0.000000,-0.00,-0.00,-0.000460,0.006000,0.000000,0.000000,0.000000,0.000000,0.000000,0.000000,0.000025,-0.000009,0.000005,0.000000,0.000000,0.000000,0.000000,819,819,819,819
9871,0,2.200000,1.350000,0.000000,-0.00,-0.00,-0.000520,0.006000,0.000000,0.000000,0.000000,0.000000,0.000000,0.000000,0.000025,-0.000010,0.000005,0.000000,0.000000,0.000000,0.000000,819,819,819,819
9881,0,2.200000,1.350000,0.000000,-0.00,-0.00,-0.000367,0.006000,0.000000,0.000000,0.000000,0.000000,0.000000,0.000000,0.000025,-0.000010,0.000004,0.000000,0.000000,0.000000,0.000000,819,819,819,819
9891,0,2.200000,1.350000,0.000000,-0.00,-0.00,-0.000125,0.006000,0.000000,0.000000,0.000000,0.000000,0.000000,0.000000,0.000025,-0.000008,0.000001,0.000000,0.000000,0.000000,0.000000,819,819,819,819
9901,0,2.200000,1.350000,0.000000,-0.00,-0.00,-0.000217,0.006000,0.000000,0.000000,0.000000,0.000000,0.000000,0.000000,0.000025,-0.000009,0.000002,0.000000,0.000000,0.000000,0.000000,819,819,819,819
9911,0,2.200000,1.350000,0.000000,-0.00,-0.00,-0.000300,0.006000,0.000000,0.000000,0.000000,0.000000,0.000000,0.000000,0.000025,-0.000011,0.000003,0.000000,0.000000,0.000000,0.000000,819,819,819,819
9921,0,2.200000,1.350000,0.000000,-0.00,-0.00,-0.000168,0.006000,0.000000,0.000000,0.000000,0.000000,0.000000,0.000000,0.000024,-0.000012,0.000002,0.000000,0.000000,0.000000,0.000000,819,819,819,819
9931,0,2.200000,1.350000,0.000000,-0.00,-0.00,-0.000359,0.006000,0.000000,0.000000,0.000000,0.000000,0.000000,0.000000,0.000025,-0.000010,0.000004,0.000000,0.000000,0.000000,0.000000,819,819,819,819
9941,0,2.200000,1.350000,0.000000,-0.00,-0.00,-0.000014,0.006000,0.000000,0.000000,0.000000,0.000000,0.000000,0.000000,0.000025,-0.000011,0.000000,0.000000,0.000000,0.000000,0.000000,819,819,819,819
9951,0,2.200000,1.350000,0.000000,-0.00,-0.00,0.000195,0.006000,0.000000,0.000000,0.000000,0.000000,0.000000,0.000000,0.000025,-0.000012,-0.000002,0.000000,0.000000,0.000000,0.000000,819,819,819,819
9961,0,2.200000,1.350000,0.000000,-0.00,-0.00,0.000280,0.006000,0.000000,0.000000,0.000000,0.000000,0.000000,0.000000,0.000025,-0.000012,-0.000003,0.000000,0.000000,0.000000,0.000000,819,819,819,819
9976,0,2.200000,1.350000,0.000000,-0.00,-0.00,0.000253,0.006000,0.000000,0.000000,0.000000,0.000000,0.000000,0.000000,0.000025,-0.000013,-0.000002,0.000000,0.000000,0.000000,0.000000,819,819,819,819
9989,0,2.200000,1.350000,0.000000,-0.00,-0.00,0.000125,0.006000,0.000000,0.000000,0.000000,0.000000,0.000000,0.000000,0.000025,-0.000013,-0.000001,0.000000,0.000000,0.000000,0.000000,819,819,819,819
10001,0,2.200000,1.350000,0.000000,-0.00,-0.00,0.000217,0.006000,0.000000,0.000000,0.000000,0.000000,0.000000,0.000000,0.000025,-0.000011,-0.000002,0.000000,0.000000,0.000000,0.000000,819,819,819,819
10011,0,2.200000,1.350000,0.000000,-0.00,-0.00,0.000197,0.006000,0.000000,0.000000,0.000000,0.000000,0.000000,0.000000,0.000025,-0.000010,-0.000002,0.000000,0.000000,0.000000,0.000000,819,819,819,819
10021,0,2.200000,1.350000,0.000000,-0.00,-0.00,0.000282,0.006000,0.000000,0.000000,0.000000,0.000000,0.000000,0.000000,0.000025,-0.000011,-0.000003,0.000000,0.000000,0.000000,0.000000,819,819,819,819
10031,0,2.200000,1.350000,0.000000,-0.00,-0.00,0.000151,0.006000,0.000000,0.000000,0.000000,0.000000,0.000000,0.000000,0.000024,-0.000010,-0.000001,0.000000,0.000000,0.000000,0.000000,819,819,819,819
10041,0,2.200000,1.350000,0.000000,-0.00,-0.00,-0.000070,0.006000,0.000000,0.000000,0.000000,0.000000,0.000000,0.000000,0.000025,-0.000011,0.000000,0.000000,0.000000,0.000000,0.000000,819,819,819,819
10051,0,2.200000,1.350000,0.000000,-0.00,-0.00,-0.000064,0.006000,0.000000,0.000000,0.000000,0.000000,0.000000,0.000000,0.000024,-0.000012,0.000000,0.000000,0.000000,0.000000,0.000000,819,819,819,819
10061,0,2.200000,1.350000,0.000000,-0.00,-0.00,0.000150,0.006000,0.000000,0.000000,0.000000,0.000000,0.000000,0.000000,0.000025,-0.000013,-0.000001,0.000000,0.000000,0.000000,0.000000,819,819,819,819
10071,0,2.200000,1.350000,0.000000,-0.00,-0.00,0.000239,0.006000,0.000000,0.000000,0.000000,0.000000,0.000000,0.000000,0.000025,-0.000013,-0.000002,0.000000,0.000000,0.000000,0.000000,819,819,819,819
10081,0,2.200000,1.350000,0.000000,-0.00,-0.00,0.000320,0.006000,0.000000,0.000000,0.000000,0.000000,0.000000,0.000000,0.000025,-0.000014,-0.000003,0.000000,0.000000,0.000000,0.000000,819,819,819,819
