t,is_crashed,roll,pitch,yaw,p,q,r,throttle,p_cmd,q_cmd,r_cmd,roll_cmd,pitch_cmd,yaw_cmd,roll_pid_out,pitch_pid_out,yaw_pid_out,motor_fl,motor_bl,motor_fr,motor_br,pwm_fl,pwm_bl,pwm_fr,pwm_br
6942,0,0.031634,0.043633,0.000000,-0.00,0.00,-0.000127,0.005000,-0.000168,-0.000669,0.000000,0.000000,0.000000,0.000000,0.000000,-0.000010,0.000034,0.000000,0.000000,0.000000,0.000000,0,0,0,0
6955,0,0.000000,0.000000,0.000000,-0.12,-0.17,-0.000151,0.005000,-0.001227,-0.001693,0.000000,0.000000,0.000000,0.000000,-0.000189,0.002311,0.000042,0.000000,0.000000,0.000000,0.000000,819,819,819,819
6965,0,0.000000,0.000000,0.000000,0.00,-0.00,-0.000062,0.005000,0.000000,-0.000000,0.000000,0.000000,0.000000,0.000000,-0.000084,0.000173,0.000019,0.000000,0.000000,0.000000,0.000000,819,819,819,819
6976,0,0.000000,0.000000,0.000000,0.00,0.00,0.000015,0.005000,0.000000,0.000000,0.000000,0.000000,0.000000,0.000000,-0.000084,0.000172,-0.000000,0.000000,0.000000,0.000000,0.000000,819,819,819,819
6986,0,0.000000,0.000000,0.000000,0.00,0.00,0.000055,0.005000,0.000000,0.000000,0.000000,0.000000,0.000000,0.000000,-0.000084,0.000172,-0.000011,0.000000,0.000000,0.000000,0.000000,819,819,819,819
6996,0,0.000000,0.000000,0.000000,0.00,0.00,0.000075,0.005000,0.000000,0.000000,0.000000,0.000000,0.000000,0.000000,-0.000084,0.000172,-0.000017,0.000000,0.000000,0.000000,0.000000,819,819,819,819
7006,0,0.000000,0.000000,0.000000,0.00,0.00,0.000058,0.005000,0.000000,0.000000,0.000000,0.000000,0.000000,0.000000,-0.000084,0.000172,-0.000014,0.000000,0.000000,0.000000,0.000000,819,819,819,819
7016,0,0.000000,0.000000,0.000000,0.00,0.00,0.000003,0.005000,0.000000,0.000000,0.000000,0.000000,0.000000,0.000000,-0.000084,0.000172,0.000000,0.000000,0.000000,0.000000,0.000000,819,819,819,819
7026,0,0.000000,0.000000,0.000000,0.00,0.00,-0.000054,0.005000,0.000000,0.000000,0.000000,0.000000,0.000000,0.000000,-0.000084,0.000172,0.000016,0.000000,0.000000,0.000000,0.000000,819,819,819,819
7036,0,0.000000,0.000000,0.000000,0.00,-0.00,-0.000039,0.005000,0.000000,-0.000000,0.000000,0.000000,0.000000,0.000000,-0.000084,0.000173,0.000012,0.000000,0.000000,0.000000,0.000000,819,819,819,819
7046,0,0.000000,0.000000,0.000000,0.00,-0.00,-0.000074,0.005000,0.000000,-0.000000,0.000000,0.000000,0.000000,0.000000,-0.000084,0.000173,0.000022,0.000000,0.000000,0.000000,0.000000,819,819,819,819
7056,0,0.000000,0.000000,0.000000,-0.00,-0.00,-0.000040,0.005000,-0.000000,-0.000000,0.000000,0.000000,0.000000,0.000000,-0.000084,0.000173,0.000014,0.000000,0.000000,0.000000,0.000000,819,819,819,819
7066,0,0.000000,0.000000,0.000000,0.00,-0.00,0.000016,0.005000,0.000000,-0.000000,0.000000,0.000000,0.000000,0.000000,-0.000084,0.000173,-0.000000,0.000000,0.000000,0.000000,0.000000,819,819,819,819
7076,0,0.000000,0.000000,0.000000,0.00,0.00,0.000019,0.005000,0.000000,0.000000,0.000000,0.000000,0.000000,0.000000,-0.000084,0.000172,-0.000002,0.000000,0.000000,0.000000,0.000000,819,819,819,819
7086,0,0.000000,0.000000,0.000000,0.00,0.00,0.000055,0.005000,0.000000,0.000000,0.000000,0.000000,0.000000,0.000000,-0.000084,0.000172,-0.000012,0.000000,0.000000,0.000000,0.000000,819,819,819,819
7096,0,0.000000,0.000000,0.000000,0.00,0.00,0.000021,0.005000,0.000000,0.000000,0.000000,0.000000,0.000000,0.000000,-0.000084,0.000171,-0.000003,0.000000,0.000000,0.000000,0.000000,819,819,819,819
7106,0,0.000000,0.000000,0.000000,0.00,0.00,0.000037,0.005000,0.000000,0.000000,0.000000,0.000000,0.000000,0.000000,-0.000084,0.000172,-0.000008,0.000000,0.000000,0.000000,0.000000,819,819,819,819
7116,0,0.000000,0.000000,0.000000,0.00,-0.00,0.000038,0.005000,0.000000,-0.000000,0.000000,0.000000,0.000000,0.000000,-0.000084,0.000173,-0.000008,0.000000,0.000000,0.000000,0.000000,819,819,819,819
7126,0,0.000000,0.000000,0.000000,0.00,0.00,0.000020,0.005000,0.000000,0.000000,0.000000,0.000000,0.000000,0.000000,-0.000084,0.000172,-0.000004,0.000000,0.000000,0.000000,0.000000,819,819,819,819
7136,0,0.000000,0.000000,0.000000,0.00,0.00,-0.000017,0.005000,0.000000,0.000000,0.000000,0.000000,0.000000,0.000000,-0.000084,0.000172,0.000006,0.000000,0.000000,0.000000,0.000000,819,819,819,819
7146,0,0.000000,0.000000,0.000000,0.00,0.00,0.000017,0.005000,0.000000,0.000000,0.000000,0.000000,0.000000,0.000000,-0.000083,0.000171,-0.000003,0.000000,0.000000,0.000000,0.000000,819,819,819,819
7156,0,0.000000,0.000000,0.000000,0.00,0.00,0.000019,0.005000,0.000000,0.000000,0.000000,0.000000,0.000000,0.000000,-0.000083,0.000171,-0.000004,0.000000,0.000000,0.000000,0.000000,819,819,819,819
7166,0,0.000000,0.000000,0.000000,0.00,-0.00,0.000019,0.005000,0.000000,-0.000000,0.000000,0.000000,0.000000,0.000000,-0.000083,0.000173,-0.000004,0.000000,0.000000,0.000000,0.000000,819,819,819,819
7176,0,0.000000,0.000000,0.000000,0.00,-0.00,0.000019,0.005000,0.000000,-0.000000,0.000000,0.000000,0.000000,0.000000,-0.000083,0.000173,-0.000004,0.000000,0.000000,0.000000,0.000000,819,819,819,819
7186,0,0.000000,0.000000,0.000000,0.00,-0.00,0.000073,0.005000,0.000000,-0.000000,0.000000,0.000000,0.000000,0.000000,-0.000083,0.000173,-0.000019,0.000000,0.000000,0.000000,0.000000,819,819,819,819
7203,0,0.000000,0.000000,0.000000,0.00,0.00,0.000076,0.005000,0.000000,0.000000,0.000000,0.000000,0.000000,0.000000,-0.000083,0.000172,-0.000020,0.000000,0.000000,0.000000,0.000000,819,819,819,819
7215,0,0.000000,0.000000,0.000000,0.00,0.00,0.000076,0.005000,0.000000,0.000000,0.000000,0.000000,0.000000,0.000000,-0.000083,0.000172,-0.000021,0.000000,0.000000,0.000000,0.000000,819,819,819,819
7226,0,0.000000,0.000000,0.000000,0.00,-0.00,0.000094,0.005000,0.000000,-0.000000,0.000000,0.000000,0.000000,0.000000,-0.000083,0.000173,-0.000027,0.000000,0.000000,0.000000,0.000000,819,819,819,819
7236,0,0.000000,0.000000,0.000000,0.00,-0.00,0.000023,0.005000,0.000000,-0.000000,0.000000,0.000000,0.000000,0.000000,-0.000083,0.000173,-0.000009,0.000000,0.000000,0.000000,0.000000,819,819,819,819
7248,0,0.000000,0.000000,0.000000,-0.00,0.00,0.000037,0.005000,-0.000000,0.000000,0.000000,0.000000,0.000000,0.000000,-0.000083,0.000172,-0.000013,0.000000,0.000000,0.000000,0.000000,819,819,819,819
7257,0,0.000000,0.000000,0.000000,-0.00,-0.00,-0.000107,0.005000,-0.000000,-0.000000,0.000000,0.000000,0.000000,0.000000,-0.000083,0.000173,0.000025,0.000000,0.000000,0.000000,0.000000,819,819,819,819
7267,0,0.000000,0.000000,0.000000,0.00,-0.00,-0.000078,0.005000,0.000000,-0.000000,0.000000,0.000000,0.000000,0.000000,-0.000083,0.000173,0.000019,0.000000,0.000000,0.000000,0.000000,819,819,819,819
7277,0,0.000000,0.000000,0.000000,0.00,0.00,-0.000112,0.005000,0.000000,0.000000,0.000000,0.000000,0.000000,0.000000,-0.000083,0.000172,0.000029,0.000000,0.000000,0.000000,0.000000,819,819,819,819
7287,0,0.000000,0.000000,0.000000,0.00,0.00,-0.000024,0.005000,0.000000,0.000000,0.000000,0.000000,0.000000,0.000000,-0.000083,0.000171,0.000006,0.000000,0.000000,0.000000,0.000000,819,819,819,819
7297,0,0.000000,0.000000,0.000000,0.00,0.00,0.000017,0.005000,0.000000,0.000000,0.000000,0.000000,0.000000,0.000000,-0.000083,0.000172,-0.000004,0.000000,0.000000,0.000000,0.000000,819,819,819,819
7307,0,0.000000,0.000000,0.000000,-0.00,0.00,0.000091,0.005000,-0.000000,0.000000,0.000000,0.000000,0.000000,0.000000,-0.000083,0.000171,-0.000024,0.000000,0.000000,0.000000,0.000000,819,819,819,819
7317,0,0.000000,0.000000,0.000000,0.00,-0.00,-0.000050,0.005000,0.000000,-0.000000,0.000000,0.000000,0.000000,0.000000,-0.000083,0.000173,0.000012,0.000000,0.000000,0.000000,0.000000,819,819,819,819
7327,0,0.000000,0.000000,0.000000,0.00,-0.00,-0.000057,0.005000,0.000000,-0.000000,0.000000,0.000000,0.000000,0.000000,-0.000083,0.000173,0.000015,0.000000,0.000000,0.000000,0.000000,819,819,819,819
7337,0,0.000000,0.000000,0.000000,0.00,-0.00,-0.000111,0.005000,0.000000,-0.000000,0.000000,0.000000,0.000000,0.000000,-0.000083,0.000173,0.000030,0.000000,0.000000,0.000000,0.000000,819,819,819,819
7347,0,0.000000,0.000000,0.000000,0.00,0.00,-0.000096,0.005000,0.000000,0.000000,0.000000,0.000000,0.000000,0.000000,-0.000083,0.000172,0.000027,0.000000,0.000000,0.000000,0.000000,819,819,819,819
7357,0,0.000000,0.000000,0.000000,0.00,0.00,-0.000149,0.005000,0.000000,0.000000,0.000000,0.000000,0.000000,0.000000,-0.000083,0.000172,0.000042,0.000000,0.000000,0.000000,0.000000,819,819,819,819
7367,0,0.000000,0.000000,0.000000,0.00,-0.00,0.000011,0.005000,0.000000,-0.000000,0.000000,0.000000,0.000000,0.000000,-0.000083,0.000172,0.000001,0.000000,0.000000,0.000000,0.000000,819,819,819,819
7377,0,0.000000,0.000000,0.000000,-0.00,0.00,0.000055,0.005000,-0.000000,0.000000,0.000000,0.000000,0.000000,0.000000,-0.000083,0.000172,-0.000011,0.000000,0.000000,0.000000,0.000000,819,819,819,819
7387,0,0.000000,0.000000,0.000000,0.00,-0.00,0.000166,0.005000,0.000000,-0.000000,0.000000,0.000000,0.000000,0.000000,-0.000083,0.000173,-0.000041,0.000000,0.000000,0.000000,0.000000,819,819,819,819
7397,0,0.000000,0.000000,0.000000,0.00,-0.00,0.000153,0.005000,0.000000,-0.000000,0.000000,0.000000,0.000000,0.000000,-0.000083,0.000173,-0.000039,0.000000,0.000000,0.000000,0.000000,819,819,819,819
7407,0,0.000000,0.000000,0.000000,0.00,0.00,0.000170,0.005000,0.000000,0.000000,0.000000,0.000000,0.000000,0.000000,-0.000083,0.000172,-0.000046,0.000000,0.000000,0.000000,0.000000,819,819,819,819
7417,0,0.000000,0.000000,0.000000,0.00,-0.00,0.000045,0.005000,0.000000,-0.000000,0.000000,0.000000,0.000000,0.000000,-0.000083,0.000173,-0.000014,0.000000,0.000000,0.000000,0.000000,819,819,819,819
7427,0,0.000000,0.000000,0.000000,0.00,-0.00,0.000075,0.005000,0.000000,-0.000000,0.000000,0.000000,0.000000,0.000000,-0.000083,0.000173,-0.000023,0.000000,0.000000,0.000000,0.000000,819,819,819,819
7437,0,0.000000,0.000000,0.000000,0.00,-0.00,-0.000014,0.005000,0.000000,-0.000000,0.000000,0.000000,0.000000,0.000000,-0.000083,0.000173,0.000000,0.000000,0.000000,0.000000,0.000000,819,819,819,819
7447,0,0.000000,0.000000,0.000000,0.00,-0.00,-0.000073,0.005000,0.000000,-0.000000,0.000000,0.000000,0.000000,0.000000,-0.000083,0.000173,0.000016,0.000000,0.000000,0.000000,0.000000,819,819,819,819
7457,0,0.000000,0.000000,0.000000,-0.00,-0.00,-0.000112,0.005000,-0.000000,-0.000000,0.000000,0.000000,0.000000,0.000000,-0.000083,0.000174,0.000028,0.000000,0.000000,0.000000,0.000000,819,819,819,819
7467,0,0.000000,0.000000,0.000000,0.00,-0.00,-0.000006,0.005000,0.000000,-0.000000,0.000000,0.000000,0.000000,0.000000,-0.000083,0.000173,0.000000,0.000000,0.000000,0.000000,0.000000,819,819,819,819
7477,0,0.000000,0.000000,0.000000,0.00,0.00,0.000036,0.005000,0.000000,0.000000,0.000000,0.000000,0.000000,0.000000,-0.000083,0.000172,-0.000011,0.000000,0.000000,0.000000,0.000000,819,819,819,819
7487,0,0.000000,0.000000,0.000000,0.00,0.00,0.000183,0.005000,0.000000,0.000000,0.000000,0.000000,0.000000,0.000000,-0.000083,0.000171,-0.000050,0.000000,0.000000,0.000000,0.000000,819,819,819,819
7497,0,0.000000,0.000000,0.000000,0.00,0.00,0.000226,0.005000,0.000000,0.000002,0.000000,0.000000,0.000000,0.000000,-0.000083,0.000170,-0.000064,0.000000,0.000000,0.000000,0.000000,819,819,819,819
7507,0,0.000000,-0.001091,0.000000,0.00,-0.00,0.000174,0.005000,0.000000,-0.000036,0.000000,0.000000,0.000000,0.000000,-0.000083,0.000245,-0.000053,0.000000,0.000000,0.000000,0.000000,819,819,819,819
7525,0,0.000000,-0.001091,0.000000,0.00,0.00,0.000045,0.005000,0.000000,0.000018,0.000000,0.000000,0.000000,0.000000,-0.000083,0.000177,-0.000020,0.000000,0.000000,0.000000,0.000000,819,819,819,819
7536,0,0.000000,-0.001091,0.000000,0.00,-0.00,-0.000034,0.005000,0.000000,0.000016,0.000000,0.000000,0.000000,0.000000,-0.000083,0.000179,0.000000,0.000000,0.000000,0.000000,0.000000,819,819,819,819
7547,0,0.000000,-0.001091,0.000000,-0.00,-0.00,-0.000164,0.005000,-0.000000,0.000016,0.000000,0.000000,0.000000,0.000000,-0.000083,0.000180,0.000036,0.000000,0.000000,0.000000,0.000000,819,819,819,819
7557,0,0.000000,-0.001091,0.000000,-0.00,-0.00,-0.000135,0.006000,-0.000000,0.000016,0.000000,0.000000,0.000000,0.000000,-0.000083,0.000179,0.000030,0.000000,0.000000,0.000000,0.000000,819,819,819,819
7567,0,0.000000,-0.001091,0.000000,0.00,0.00,-0.000007,0.005000,0.000000,0.000017,0.000000,0.000000,0.000000,0.000000,-0.000083,0.000178,-0.000003,0.000000,0.000000,0.000000,0.000000,819,819,819,819
7577,0,0.000000,-0.001091,0.000000,0.00,0.00,0.000126,0.005000,0.000000,0.000018,0.000000,0.000000,0.000000,0.000000,-0.000083,0.000177,-0.000039,0.000000,0.000000,0.000000,0.000000,819,819,819,819
7587,0,0.000000,-0.001091,0.000000,0.00,0.00,0.000241,0.005000,0.000000,0.000018,0.000000,0.000000,0.000000,0.000000,-0.000083,0.000176,-0.000071,0.000000,0.000000,0.000000,0.000000,819,819,819,819
7597,0,0.000000,-0.001091,0.000000,0.00,0.00,0.000374,0.005000,0.000000,0.000019,0.000000,0.000000,0.000000,0.000000,-0.000083,0.000175,-0.000109,0.000000,0.000000,0.000000,0.000000,819,819,819,819
7607,0,0.000000,-0.001091,0.000000,0.00,0.00,0.000344,0.005000,0.000000,0.000019,0.000000,0.000000,0.000000,0.000000,-0.000083,0.000176,-0.000105,0.000000,0.000000,0.000000,0.000000,819,819,819,819
7617,0,0.000000,-0.001091,0.000000,0.00,0.00,0.000325,0.005000,0.000000,0.000017,0.000000,0.000000,0.000000,0.000000,-0.000083,0.000177,-0.000104,0.000000,0.000000,0.000000,0.000000,819,819,819,819
7627,0,-0.001091,-0.001091,0.000000,-0.00,-0.00,0.000233,0.005000,-0.000049,0.000016,0.000000,0.000000,0.000000,0.000000,-0.000092,0.000180,-0.000083,0.000000,0.000000,0.000000,0.000000,819,819,819,819
7638,0,-0.001091,-0.001091,0.000000,0.00,-0.00,-0.000025,0.005000,0.000006,0.000016,0.000000,0.000000,0.000000,0.000000,-0.000087,0.000180,-0.000017,0.000000,0.000000,0.000000,0.000000,819,819,819,819
7648,0,-0.001091,-0.001091,0.000000,0.00,-0.00,-0.000273,0.005000,0.000006,0.000016,0.000000,0.000000,0.000000,0.000000,-0.000087,0.000179,0.000050,0.000000,0.000000,0.000000,0.000000,819,819,819,819
7658,0,0.000000,-0.001091,0.000000,0.00,-0.00,-0.000412,0.005000,0.000055,0.000016,0.000000,0.000000,0.000000,0.000000,-0.000079,0.000179,0.000090,0.000000,0.000000,0.000000,0.000000,819,819,819,819
7668,0,0.000000,-0.001091,0.000000,0.00,-0.00,-0.000418,0.005000,0.000000,0.000016,0.000000,0.000000,0.000000,0.000000,-0.000083,0.000179,0.000097,0.000000,0.000000,0.000000,0.000000,819,819,819,819
7678,0,0.000000,-0.001091,0.000000,0.00,-0.00,-0.000256,0.005000,0.000000,0.000016,0.000000,0.000000,0.000000,0.000000,-0.000083,0.000180,0.000058,0.000000,0.000000,0.000000,0.000000,819,819,819,819
7688,0,0.000000,-0.001091,0.000000,0.00,-0.00,0.000132,0.005000,0.000000,0.000015,0.000000,0.000000,0.000000,0.000000,-0.000083,0.000181,-0.000043,0.000000,0.000000,0.000000,0.000000,819,819,819,819
7698,0,0.000000,-0.001091,0.000000,0.00,-0.00,0.000423,0.005000,0.000000,0.000015,0.000000,0.000000,0.000000,0.000000,-0.000083,0.000181,-0.000122,0.000000,0.000000,0.000000,0.000000,819,819,819,819
7708,0,0.000000,-0.001091,0.000000,0.00,-0.00,0.000781,0.005000,0.000000,0.000016,0.000000,0.000000,0.000000,0.000000,-0.000083,0.000179,-0.000223,0.000000,0.000000,0.000000,0.000000,819,819,819,819
7718,0,-0.001091,-0.001091,0.000000,-0.00,0.00,0.001197,0.005000,-0.000049,0.000017,0.000000,0.000000,0.000000,0.000000,-0.000092,0.000179,-0.000344,0.000000,0.000000,0.000000,0.000000,819,819,819,819
7728,0,-0.001091,-0.001091,0.000000,0.00,-0.00,0.001344,0.005000,0.000006,0.000016,0.000000,0.000000,0.000000,0.000000,-0.000087,0.000180,-0.000397,0.000000,0.000000,0.000000,0.000000,819,819,819,819
7738,0,-0.002182,-0.001091,0.000000,-0.00,-0.00,0.001152,0.005000,-0.000044,0.000014,0.000000,0.000000,0.000000,0.000000,-0.000096,0.000182,-0.000361,0.000000,0.000000,0.000000,0.000000,819,819,819,819
7748,0,-0.002182,-0.001091,0.000000,-0.00,-0.00,0.000600,0.005000,0.000011,0.000014,0.000000,0.000000,0.000000,0.000000,-0.000092,0.000184,-0.000227,0.000000,0.000000,0.000000,0.000000,819,819,819,819
7758,0,-0.003272,0.000000,0.000000,-0.00,0.00,-0.000133,0.005000,-0.000037,0.000052,0.000000,0.000000,0.000000,0.000000,-0.000100,0.000109,-0.000037,0.000000,0.000000,0.000000,0.000000,819,819,819,819
7768,0,-0.003272,0.000000,0.000000,0.00,-0.00,-0.000603,0.005000,0.000018,-0.000000,0.000000,0.000000,0.000000,0.000000,-0.000096,0.000175,0.000091,0.000000,0.000000,0.000000,0.000000,819,819,819,819
7778,0,-0.002182,0.000000,0.000000,0.00,0.00,-0.000754,0.005000,0.000067,0.000003,0.000000,0.000000,0.000000,0.000000,-0.000087,0.000170,0.000138,0.000000,0.000000,0.000000,0.000000,819,819,819,819
7790,0,-0.002182,-0.001091,0.000000,0.00,-0.00,-0.000472,0.005000,0.000012,-0.000024,0.000000,0.000000,0.000000,0.000000,-0.000091,0.000229,0.000071,0.000000,0.000000,0.000000,0.000000,819,819,819,819
7800,0,-0.002182,-0.001091,0.000000,0.00,0.00,-0.000060,0.005000,0.000012,0.000021,0.000000,0.000000,0.000000,0.000000,-0.000091,0.000172,-0.000034,0.000000,0.000000,0.000000,0.000000,819,819,819,819
7809,0,-0.002182,-0.001091,0.000000,0.00,0.00,0.000142,0.005000,0.000012,0.000020,0.000000,0.000000,0.000000,0.000000,-0.000091,0.000174,-0.000087,0.000000,0.000000,0.000000,0.000000,819,819,819,819
7818,0,-0.002182,-0.001091,0.000000,0.00,0.00,0.000116,0.005000,0.000012,0.000018,0.000000,0.000000,0.000000,0.000000,-0.000091,0.000176,-0.000082,0.000000,0.000000,0.000000,0.000000,819,819,819,819
7836,0,-0.002182,-0.001091,0.000000,0.00,-0.00,0.000114,0.005000,0.000012,0.000015,0.000000,0.000000,0.000000,0.000000,-0.000091,0.000180,-0.000083,0.000000,0.000000,0.000000,0.000000,819,819,819,819
7847,0,-0.002182,-0.001091,0.000000,-0.00,-0.00,0.000060,0.005000,0.000011,0.000013,0.000000,0.000000,0.000000,0.000000,-0.000092,0.000183,-0.000070,0.000000,0.000000,0.000000,0.000000,819,819,819,819
7858,0,-0.002182,-0.001091,0.000000,-0.00,-0.00,-0.000124,0.005000,0.000011,0.000016,0.000000,0.000000,0.000000,0.000000,-0.000092,0.000179,-0.000021,0.000000,0.000000,0.000000,0.000000,819,819,819,819
7868,0,-0.002182,-0.001091,0.000000,0.00,0.00,-0.000277,0.005000,0.000012,0.000018,0.000000,0.000000,0.000000,0.000000,-0.000091,0.000176,0.000022,0.000000,0.000000,0.000000,0.000000,819,819,819,819
7878,0,-0.002182,-0.001091,0.000000,-0.00,0.00,-0.000249,0.005000,0.000011,0.000018,0.000000,0.000000,0.000000,0.000000,-0.000092,0.000176,0.000017,0.000000,0.000000,0.000000,0.000000,819,819,819,819
7888,0,-0.002182,-0.001091,0.000000,0.00,0.00,-0.000229,0.005000,0.000012,0.000017,0.000000,0.000000,0.000000,0.000000,-0.000091,0.000177,0.000015,0.000000,0.000000,0.000000,0.000000,819,819,819,819
7900,0,-0.001091,-0.001091,0.000000,0.00,-0.00,-0.000229,0.005000,0.000051,0.000016,0.000000,0.000000,0.000000,0.000000,-0.000084,0.000179,0.000017,0.000000,0.000000,0.000000,0.000000,819,819,819,819
7909,0,-0.001091,-0.001091,0.000000,0.00,0.00,-0.000210,0.005000,0.000006,0.000018,0.000000,0.000000,0.000000,0.000000,-0.000088,0.000177,0.000015,0.000000,0.000000,0.000000,0.000000,819,819,819,819
7919,0,-0.001091,-0.001091,0.000000,0.00,0.00,-0.000011,0.005000,0.000006,0.000018,0.000000,0.000000,0.000000,0.000000,-0.000088,0.000176,-0.000036,0.000000,0.000000,0.000000,0.000000,819,819,819,819
7929,0,-0.001091,-0.001091,0.000000,0.00,0.00,0.000271,0.005000,0.000006,0.000018,0.000000,0.000000,0.000000,0.000000,-0.000088,0.000176,-0.000111,0.000000,0.000000,0.000000,0.000000,819,819,819,819
7939,0,-0.001091,-0.001091,0.000000,0.00,0.00,0.000538,0.005000,0.000006,0.000018,0.000000,0.000000,0.000000,0.000000,-0.000088,0.000176,-0.000186,0.000000,0.000000,0.000000,0.000000,819,819,819,819
7948,0,-0.002182,-0.001091,0.000000,-0.00,0.00,0.000570,0.005000,-0.000049,0.000017,0.000000,0.000000,0.000000,0.000000,-0.000097,0.000177,-0.000201,0.000000,0.000000,0.000000,0.000000,819,819,819,819
7958,0,-0.002182,-0.001091,0.000000,-0.00,-0.00,0.000354,0.005000,0.000012,0.000016,0.000000,0.000000,0.000000,0.000000,-0.000093,0.000178,-0.000150,0.000000,0.000000,0.000000,0.000000,819,819,819,819
7968,0,-0.002182,-0.001091,0.000000,-0.00,-0.00,-0.000018,0.005000,0.000011,0.000015,0.000000,0.000000,0.000000,0.000000,-0.000093,0.000180,-0.000054,0.000000,0.000000,0.000000,0.000000,819,819,819,819
7978,0,-0.002182,-0.001091,0.000000,0.00,0.00,-0.000381,0.005000,0.000012,0.000017,0.000000,0.000000,0.000000,0.000000,-0.000093,0.000177,0.000043,0.000000,0.000000,0.000000,0.000000,819,819,819,819
7988,0,-0.002182,-0.001091,0.000000,0.00,0.00,-0.000236,0.005000,0.000012,0.000018,0.000000,0.000000,0.000000,0.000000,-0.000093,0.000176,0.000009,0.000000,0.000000,0.000000,0.000000,819,819,819,819
7999,0,-0.002182,-0.001091,0.000000,0.00,0.00,-0.000084,0.005000,0.000012,0.000020,0.000000,0.000000,0.000000,0.000000,-0.000093,0.000173,-0.000029,0.000000,0.000000,0.000000,0.000000,819,819,819,819
8008,0,-0.002182,-0.001091,0.000000,0.00,0.00,-0.000077,0.005000,0.000012,0.000021,0.000000,0.000000,0.000000,0.000000,-0.000093,0.000171,-0.000030,0.000000,0.000000,0.000000,0.000000,819,819,819,819
8018,0,-0.002182,-0.001091,0.000000,0.00,0.00,-0.000203,0.005000,0.000012,0.000020,0.000000,0.000000,0.000000,0.000000,-0.000093,0.000172,0.000005,0.000000,0.000000,0.000000,0.000000,819,819,819,819
8028,0,-0.002182,-0.001091,0.000000,0.00,0.00,-0.000480,0.005000,0.000012,0.000019,0.000000,0.000000,0.000000,0.000000,-0.000093,0.000173,0.000082,0.000000,0.000000,0.000000,0.000000,819,819,819,819
8039,0,-0.001091,-0.001091,0.000000,0.00,0.00,-0.000621,0.005000,0.000056,0.000017,0.000000,0.000000,0.000000,0.000000,-0.000085,0.000176,0.000125,0.000000,0.000000,0.000000,0.000000,819,819,819,819
8048,0,-0.001091,-0.001091,0.000000,0.00,-0.00,-0.000610,0.005000,0.000006,0.000015,0.000000,0.000000,0.000000,0.000000,-0.000089,0.000178,0.000130,0.000000,0.000000,0.000000,0.000000,819,819,819,819
8058,0,-0.001091,-0.001091,0.000000,0.00,-0.00,-0.000483,0.005000,0.000006,0.000014,0.000000,0.000000,0.000000,0.000000,-0.000089,0.000180,0.000103,0.000000,0.000000,0.000000,0.000000,819,819,819,819
8069,0,-0.001091,-0.001091,0.000000,-0.00,-0.00,-0.000440,0.005000,0.000006,0.000014,0.000000,0.000000,0.000000,0.000000,-0.000089,0.000180,0.000097,0.000000,0.000000,0.000000,0.000000,819,819,819,819
8079,0,0.000000,-0.001091,0.000000,0.00,-0.00,-0.000329,0.005000,0.000055,0.000015,0.000000,0.000000,0.000000,0.000000,-0.000080,0.000179,0.000073,0.000000,0.000000,0.000000,0.000000,819,819,819,819
8089,0,0.000000,-0.001091,0.000000,0.00,-0.00,-0.000252,0.005000,0.000000,0.000017,0.000000,0.000000,0.000000,0.000000,-0.000084,0.000177,0.000056,0.000000,0.000000,0.000000,0.000000,819,819,819,819
8099,0,0.000000,-0.001091,0.000000,0.00,-0.00,-0.000302,0.005000,0.000000,0.000016,0.000000,0.000000,0.000000,0.000000,-0.000084,0.000178,0.000073,0.000000,0.000000,0.000000,0.000000,819,819,819,819
8109,0,0.000000,-0.001091,0.000000,0.00,-0.00,-0.000359,0.005000,0.000000,0.000016,0.000000,0.000000,0.000000,0.000000,-0.000084,0.000179,0.000092,0.000000,0.000000,0.000000,0.000000,819,819,819,819
8119,0,0.000000,-0.001091,0.000000,-0.00,-0.00,-0.000398,0.005000,-0.000000,0.000016,0.000000,0.000000,0.000000,0.000000,-0.000084,0.000179,0.000106,0.000000,0.000000,0.000000,0.000000,819,819,819,819
8129,0,0.001091,-0.001091,0.000000,0.00,-0.00,-0.000345,0.005000,0.000049,0.000015,0.000000,0.000000,0.000000,0.000000,-0.000076,0.000180,0.000097,0.000000,0.000000,0.000000,0.000000,819,819,819,819
8139,0,0.001091,-0.001091,0.000000,0.00,-0.00,-0.000162,0.005000,-0.000006,0.000015,0.000000,0.000000,0.000000,0.000000,-0.000080,0.000181,0.000052,0.000000,0.000000,0.000000,0.000000,819,819,819,819
8156,0,0.001091,-0.001091,0.000000,0.00,-0.00,0.000064,0.005000,-0.000006,0.000016,0.000000,0.000000,0.000000,0.000000,-0.000080,0.000180,-0.000007,0.000000,0.000000,0.000000,0.000000,819,819,819,819
8168,0,0.001091,-0.001091,0.000000,0.00,-0.00,0.000202,0.005000,-0.000006,0.000016,0.000000,0.000000,0.000000,0.000000,-0.000080,0.000179,-0.000044,0.000000,0.000000,0.000000,0.000000,819,819,819,819
8179,0,0.000000,-0.001091,0.000000,-0.00,-0.00,0.000480,0.005000,-0.000049,0.000015,0.000000,0.000000,0.000000,0.000000,-0.000088,0.000181,-0.000122,0.000000,0.000000,0.000000,0.000000,819,819,819,819
8189,0,0.000000,-0.001091,0.000000,-0.00,-0.00,0.000585,0.005000,-0.000000,0.000016,0.000000,0.000000,0.000000,0.000000,-0.000084,0.000179,-0.000155,0.000000,0.000000,0.000000,0.000000,819,819,819,819
8199,0,0.000000,-0.001091,0.000000,-0.00,0.00,0.000536,0.005000,-0.000000,0.000018,0.000000,0.000000,0.000000,0.000000,-0.000084,0.000177,-0.000149,0.000000,0.000000,0.000000,0.000000,819,819,819,819
8209,0,0.000000,-0.001091,0.000000,0.00,0.00,0.000425,0.005000,0.000000,0.000018,0.000000,0.000000,0.000000,0.000000,-0.000084,0.000177,-0.000126,0.000000,0.000000,0.000000,0.000000,819,819,819,819
8219,0,-0.001091,-0.001091,0.000000,-0.00,0.00,0.000311,0.005000,-0.000048,0.000018,0.000000,0.000000,0.000000,0.000000,-0.000092,0.000177,-0.000101,0.000000,0.000000,0.000000,0.000000,819,819,819,819
8229,0,-0.001091,-0.001091,0.000000,0.00,-0.00,0.000233,0.005000,0.000006,0.000016,0.000000,0.000000,0.000000,0.000000,-0.000088,0.000179,-0.000084,0.000000,0.000000,0.000000,0.000000,819,819,819,819
8239,0,-0.001091,-0.001091,0.000000,0.00,-0.00,0.000247,0.005000,0.000006,0.000015,0.000000,0.000000,0.000000,0.000000,-0.000088,0.000181,-0.000090,0.000000,0.000000,0.000000,0.000000,819,819,819,819
8249,0,-0.001091,-0.001091,0.000000,0.00,-0.00,0.000338,0.005000,0.000006,0.000015,0.000000,0.000000,0.000000,0.000000,-0.000088,0.000182,-0.000118,0.000000,0.000000,0.000000,0.000000,819,819,819,819
8259,0,-0.001091,-0.001091,0.000000,-0.00,-0.00,0.000397,0.005000,0.000006,0.000015,0.000000,0.000000,0.000000,0.000000,-0.000088,0.000182,-0.000138,0.000000,0.000000,0.000000,0.000000,819,819,819,819
8269,0,-0.001091,0.000000,0.000000,0.00,0.00,0.000436,0.005000,0.000006,0.000054,0.000000,0.000000,0.000000,0.000000,-0.000088,0.000106,-0.000153,0.000000,0.000000,0.000000,0.000000,819,819,819,819
8279,0,-0.002182,0.000000,0.000000,-0.00,0.00,0.000474,0.005000,-0.000043,0.000000,0.000000,0.000000,0.000000,0.000000,-0.000097,0.000172,-0.000169,0.000000,0.000000,0.000000,0.000000,819,819,819,819
8290,0,-0.002182,0.000000,0.000000,0.00,0.00,0.000404,0.005000,0.000012,0.000000,0.000000,0.000000,0.000000,0.000000,-0.000093,0.000172,-0.000156,0.000000,0.000000,0.000000,0.000000,819,819,819,819
8299,0,-0.002182,0.000000,0.000000,0.00,0.00,0.000328,0.005000,0.000012,0.000001,0.000000,0.000000,0.000000,0.000000,-0.000093,0.000171,-0.000141,0.000000,0.000000,0.000000,0.000000,819,819,819,819
8309,0,-0.002182,0.000000,0.000000,-0.00,0.00,0.000252,0.005000,0.000012,0.000001,0.000000,0.000000,0.000000,0.000000,-0.000093,0.000171,-0.000124,0.000000,0.000000,0.000000,0.000000,819,819,819,819
8319,0,-0.002182,0.000000,0.000000,0.00,0.00,0.000085,0.005000,0.000012,0.000000,0.000000,0.000000,0.000000,0.000000,-0.000093,0.000171,-0.000083,0.000000,0.000000,0.000000,0.000000,819,819,819,819
8329,0,-0.002182,0.000000,0.000000,0.00,0.00,-0.000032,0.005000,0.000012,0.000000,0.000000,0.000000,0.000000,0.000000,-0.000093,0.000171,-0.000052,0.000000,0.000000,0.000000,0.000000,819,819,819,819
8340,0,-0.002182,0.000000,0.000000,0.00,0.00,-0.000164,0.005000,0.000012,0.000000,0.000000,0.000000,0.000000,0.000000,-0.000093,0.000171,-0.000016,0.000000,0.000000,0.000000,0.000000,819,819,819,819
8350,0,-0.002182,0.000000,0.000000,0.00,0.00,-0.000243,0.005000,0.000012,0.000000,0.000000,0.000000,0.000000,0.000000,-0.000093,0.000171,0.000007,0.000000,0.000000,0.000000,0.000000,819,819,819,819
8360,0,-0.002182,0.000000,0.000000,-0.00,-0.00,-0.000157,0.005000,0.000012,-0.000000,0.000000,0.000000,0.000000,0.000000,-0.000093,0.000173,-0.000013,0.000000,0.000000,0.000000,0.000000,819,819,819,819
8370,0,-0.002182,0.000000,0.000000,-0.00,-0.00,0.000028,0.005000,0.000012,-0.000002,0.000000,0.000000,0.000000,0.000000,-0.000093,0.000175,-0.000061,0.000000,0.000000,0.000000,0.000000,819,819,819,819
8379,0,-0.002182,0.000000,0.000000,-0.00,-0.00,0.000327,0.005000,0.000012,-0.000002,0.000000,0.000000,0.000000,0.000000,-0.000093,0.000175,-0.000142,0.000000,0.000000,0.000000,0.000000,819,819,819,819
8389,0,-0.002182,0.000000,0.000000,0.00,-0.00,0.000450,0.005000,0.000012,-0.000003,0.000000,0.000000,0.000000,0.000000,-0.000093,0.000176,-0.000179,0.000000,0.000000,0.000000,0.000000,819,819,819,819
8399,0,-0.003272,0.000000,0.000000,-0.00,-0.00,0.000402,0.005000,-0.000037,-0.000002,0.000000,0.000000,0.000000,0.000000,-0.000101,0.000175,-0.000172,0.000000,0.000000,0.000000,0.000000,819,819,819,819
8408,0,-0.003272,0.000000,0.000000,0.00,-0.00,0.000400,0.005000,0.000018,-0.000002,0.000000,0.000000,0.000000,0.000000,-0.000097,0.000175,-0.000176,0.000000,0.000000,0.000000,0.000000,819,819,819,819
8419,0,-0.003272,0.000000,0.000000,-0.00,-0.00,0.000056,0.005000,0.000017,-0.000000,0.000000,0.000000,0.000000,0.000000,-0.000097,0.000173,-0.000089,0.000000,0.000000,0.000000,0.000000,819,819,819,819
8429,0,-0.003272,0.000000,0.000000,0.00,0.00,-0.000214,0.005000,0.000018,0.000001,0.000000,0.000000,0.000000,0.000000,-0.000097,0.000172,-0.000017,0.000000,0.000000,0.000000,0.000000,819,819,819,819
8440,0,-0.003272,0.000000,0.000000,0.00,0.00,-0.000427,0.005000,0.000018,0.000002,0.000000,0.000000,0.000000,0.000000,-0.000097,0.000171,0.000043,0.000000,0.000000,0.000000,0.000000,819,819,819,819
8449,0,-0.003272,0.000000,0.000000,0.00,0.00,-0.000437,0.005000,0.000018,0.000002,0.000000,0.000000,0.000000,0.000000,-0.000097,0.000171,0.000051,0.000000,0.000000,0.000000,0.000000,819,819,819,819
8459,0,-0.002182,0.000000,0.000000,0.00,0.00,-0.000546,0.005000,0.000066,0.000002,0.000000,0.000000,0.000000,0.000000,-0.000089,0.000170,0.000086,0.000000,0.000000,0.000000,0.000000,819,819,819,819
8476,0,-0.002182,0.000000,0.000000,0.00,0.00,-0.000299,0.005000,0.000012,0.000000,0.000000,0.000000,0.000000,0.000000,-0.000093,0.000172,0.000026,0.000000,0.000000,0.000000,0.000000,819,819,819,819
8488,0,-0.002182,0.000000,0.000000,-0.00,-0.00,0.000094,0.005000,0.000012,-0.000000,0.000000,0.000000,0.000000,0.000000,-0.000093,0.000173,-0.000075,0.000000,0.000000,0.000000,0.000000,819,819,819,819
8499,0,-0.002182,0.000000,0.000000,-0.00,-0.00,0.000366,0.005000,0.000011,-0.000000,0.000000,0.000000,0.000000,0.000000,-0.000093,0.000173,-0.000150,0.000000,0.000000,0.000000,0.000000,819,819,819,819
8510,0,-0.002182,0.000000,0.000000,0.00,0.00,0.000181,0.005000,0.000012,0.000001,0.000000,0.000000,0.000000,0.000000,-0.000093,0.000171,-0.000105,0.000000,0.000000,0.000000,0.000000,819,819,819,819
8520,0,-0.002182,0.000000,0.000000,0.00,0.00,-0.000136,0.005000,0.000012,0.000000,0.000000,0.000000,0.000000,0.000000,-0.000093,0.000171,-0.000022,0.000000,0.000000,0.000000,0.000000,819,819,819,819
8530,0,-0.002182,0.000000,0.000000,0.00,0.00,-0.000170,0.005000,0.000012,0.000000,0.000000,0.000000,0.000000,0.000000,-0.000093,0.000172,-0.000011,0.000000,0.000000,0.000000,0.000000,819,819,819,819
8540,0,-0.002182,0.000000,0.000000,0.00,-0.00,-0.000099,0.005000,0.000012,-0.000000,0.000000,0.000000,0.000000,0.000000,-0.000093,0.000173,-0.000028,0.000000,0.000000,0.000000,0.000000,819,819,819,819
8550,0,-0.002182,0.000000,0.000000,0.00,0.00,0.000031,0.005000,0.000012,0.000000,0.000000,0.000000,0.000000,0.000000,-0.000093,0.000172,-0.000061,0.000000,0.000000,0.000000,0.000000,819,819,819,819
8560,0,-0.002182,0.000000,0.000000,0.00,0.00,0.000146,0.005000,0.000012,0.000000,0.000000,0.000000,0.000000,0.000000,-0.000093,0.000172,-0.000093,0.000000,0.000000,0.000000,0.000000,819,819,819,819
8570,0,-0.002182,0.000000,0.000000,0.00,0.00,0.000098,0.005000,0.000012,0.000000,0.000000,0.000000,0.000000,0.000000,-0.000093,0.000171,-0.000082,0.000000,0.000000,0.000000,0.000000,819,819,819,819
8580,0,-0.002182,0.000000,0.000000,0.00,0.00,-0.000067,0.005000,0.000012,0.000000,0.000000,0.000000,0.000000,0.000000,-0.000093,0.000171,-0.000038,0.000000,0.000000,0.000000,0.000000,819,819,819,819
8590,0,-0.002182,0.000000,0.000000,0.00,-0.00,-0.000148,0.005000,0.000012,-0.000000,0.000000,0.000000,0.000000,0.000000,-0.000093,0.000173,-0.000016,0.000000,0.000000,0.000000,0.000000,819,819,819,819
8600,0,-0.002182,0.000000,0.000000,0.00,-0.00,-0.000188,0.005000,0.000012,-0.000000,0.000000,0.000000,0.000000,0.000000,-0.000093,0.000173,-0.000003,0.000000,0.000000,0.000000,0.000000,819,819,819,819
8610,0,-0.002182,0.000000,0.000000,0.00,0.00,-0.000154,0.005000,0.000012,0.000000,0.000000,0.000000,0.000000,0.000000,-0.000093,0.000172,-0.000010,0.000000,0.000000,0.000000,0.000000,819,819,819,819
8620,0,-0.002182,0.000000,0.000000,0.00,0.00,-0.000080,0.005000,0.000012,0.000000,0.000000,0.000000,0.000000,0.000000,-0.000093,0.000172,-0.000028,0.000000,0.000000,0.000000,0.000000,819,819,819,819
8632,0,-0.002182,0.000000,0.000000,0.00,-0.00,-0.000040,0.005000,0.000012,-0.000000,0.000000,0.000000,0.000000,0.000000,-0.000093,0.000173,-0.000038,0.000000,0.000000,0.000000,0.000000,819,819,819,819
8642,0,-0.002182,0.000000,0.000000,0.00,-0.00,-0.000111,0.005000,0.000012,-0.000000,0.000000,0.000000,0.000000,0.000000,-0.000093,0.000173,-0.000018,0.000000,0.000000,0.000000,0.000000,819,819,819,819
8651,0,-0.002182,0.000000,0.000000,0.00,-0.00,-0.000114,0.005000,0.000012,-0.000000,0.000000,0.000000,0.000000,0.000000,-0.000093,0.000173,-0.000016,0.000000,0.000000,0.000000,0.000000,819,819,819,819
8660,0,-0.002182,0.000000,0.000000,0.00,-0.00,-0.000295,0.005000,0.000012,-0.000001,0.000000,0.000000,0.000000,0.000000,-0.000093,0.000174,0.000034,0.000000,0.000000,0.000000,0.000000,819,819,819,819
8670,0,-0.002182,0.000000,0.000000,0.00,-0.00,-0.000485,0.005000,0.000012,-0.000002,0.000000,0.000000,0.000000,0.000000,-0.000093,0.000175,0.000089,0.000000,0.000000,0.000000,0.000000,819,819,819,819
8680,0,-0.002182,0.000000,0.000000,0.00,-0.00,-0.000603,0.005000,0.000012,-0.000002,0.000000,0.000000,0.000000,0.000000,-0.000093,0.000175,0.000127,0.000000,0.000000,0.000000,0.000000,819,819,819,819
8691,0,-0.002182,0.000000,0.000000,-0.00,-0.00,-0.000428,0.005000,0.000012,-0.000001,0.000000,0.000000,0.000000,0.000000,-0.000093,0.000174,0.000088,0.000000,0.000000,0.000000,0.000000,819,819,819,819
8700,0,-0.001091,0.000000,0.000000,0.00,0.00,-0.000058,0.005000,0.000066,0.000000,0.000000,0.000000,0.000000,0.000000,-0.000083,0.000173,-0.000006,0.000000,0.000000,0.000000,0.000000,819,819,819,819
8710,0,-0.001091,0.000000,0.000000,-0.00,0.00,0.000467,0.005000,0.000006,0.000002,0.000000,0.000000,0.000000,0.000000,-0.000087,0.000170,-0.000146,0.000000,0.000000,0.000000,0.000000,819,819,819,819
8720,0,-0.002182,0.000000,0.000000,-0.00,0.00,0.000946,0.005000,-0.000042,0.000003,0.000000,0.000000,0.000000,0.000000,-0.000096,0.000169,-0.000281,0.000000,0.000000,0.000000,0.000000,819,819,819,819
8730,0,-0.002182,0.000000,0.000000,0.00,0.00,0.001078,0.005000,0.000012,0.000000,0.000000,0.000000,0.000000,0.000000,-0.000092,0.000172,-0.000329,0.000000,0.000000,0.000000,0.000000,819,819,819,819
8741,0,-0.003272,0.000000,0.000000,-0.00,-0.00,0.000615,0.005000,-0.000032,-0.000002,0.000000,0.000000,0.000000,0.000000,-0.000100,0.000176,-0.000218,0.000000,0.000000,0.000000,0.000000,819,819,819,819
8750,0,-0.003272,0.000000,0.000000,0.00,-0.00,-0.000222,0.006000,0.000018,-0.000002,0.000000,0.000000,0.000000,0.000000,-0.000096,0.000176,-0.000001,0.000000,0.000000,0.000000,0.000000,819,819,819,819
8760,0,-0.003272,0.000000,0.000000,-0.00,-0.00,-0.000807,0.006000,0.000017,-0.000002,0.000000,0.000000,0.000000,0.000000,-0.000096,0.000175,0.000159,0.000000,0.000000,0.000000,0.000000,819,819,819,819
8770,0,-0.002182,0.000000,0.000000,0.00,0.00,-0.000872,0.006000,0.000066,0.000000,0.000000,0.000000,0.000000,0.000000,-0.000088,0.000172,0.000187,0.000000,0.000000,0.000000,0.000000,819,819,819,819
8788,0,-0.002182,0.000000,0.000000,0.00,0.00,-0.000550,0.005000,0.000012,0.000001,0.000000,0.000000,0.000000,0.000000,-0.000092,0.000171,0.000112,0.000000,0.000000,0.000000,0.000000,819,819,819,819
8798,0,-0.002182,0.000000,0.000000,0.00,0.00,-0.000245,0.006000,0.000012,0.000000,0.000000,0.000000,0.000000,0.000000,-0.000092,0.000173,0.000037,0.000000,0.000000,0.000000,0.000000,819,819,819,819
8809,0,-0.002182,0.000000,0.000000,0.00,-0.00,0.000078,0.006000,0.000012,-0.000001,0.000000,0.000000,0.000000,0.000000,-0.000092,0.000175,-0.000047,0.000000,0.000000,0.000000,0.000000,819,819,819,819
8820,0,-0.002182,0.000000,0.000000,-0.00,-0.00,0.000547,0.006000,0.000011,-0.000001,0.000000,0.000000,0.000000,0.000000,-0.000092,0.000175,-0.000174,0.000000,0.000000,0.000000,0.000000,819,819,819,819
8830,0,-0.002182,0.000000,0.000000,0.00,-0.00,0.000498,0.005000,0.000012,-0.000000,0.000000,0.000000,0.000000,0.000000,-0.000092,0.000174,-0.000168,0.000000,0.000000,0.000000,0.000000,819,819,819,819
8841,0,-0.002182,0.000000,0.000000,0.00,-0.00,0.000133,0.005000,0.000012,-0.000000,0.000000,0.000000,0.000000,0.000000,-0.000092,0.000174,-0.000076,0.000000,0.000000,0.000000,0.000000,819,819,819,819
8851,0,-0.002182,0.000000,0.000000,-0.00,-0.00,-0.000301,0.005000,0.000012,-0.000000,0.000000,0.000000,0.000000,0.000000,-0.000092,0.000174,0.000039,0.000000,0.000000,0.000000,0.000000,819,819,819,819
8861,0,-0.002182,0.000000,0.000000,0.00,-0.00,-0.000666,0.005000,0.000012,-0.000000,0.000000,0.000000,0.000000,0.000000,-0.000092,0.000174,0.000141,0.000000,0.000000,0.000000,0.000000,819,819,819,819
8871,0,-0.002182,0.000000,0.000000,-0.00,-0.00,-0.000666,0.005000,0.000012,-0.000000,0.000000,0.000000,0.000000,0.000000,-0.000092,0.000174,0.000150,0.000000,0.000000,0.000000,0.000000,819,819,819,819
8881,0,-0.001091,0.000000,0.000000,0.00,0.00,-0.000359,0.005000,0.000061,0.000000,0.000000,0.000000,0.000000,0.000000,-0.000083,0.000174,0.000076,0.000000,0.000000,0.000000,0.000000,819,819,819,819
8891,0,-0.001091,0.000000,0.000000,0.00,-0.00,0.000109,0.005000,0.000006,-0.000000,0.000000,0.000000,0.000000,0.000000,-0.000087,0.000174,-0.000045,0.000000,0.000000,0.000000,0.000000,819,819,819,819
8901,0,-0.001091,0.000000,0.000000,0.00,0.00,0.000440,0.005000,0.000006,0.000000,0.000000,0.000000,0.000000,0.000000,-0.000087,0.000173,-0.000136,0.000000,0.000000,0.000000,0.000000,819,819,819,819
8910,0,-0.001091,0.000000,0.000000,0.00,0.00,0.000565,0.006000,0.000006,0.000001,0.000000,0.000000,0.000000,0.000000,-0.000087,0.000172,-0.000175,0.000000,0.000000,0.000000,0.000000,819,819,819,819
8921,0,-0.002182,0.000000,0.000000,-0.00,0.00,0.000372,0.006000,-0.000038,0.000000,0.000000,0.000000,0.000000,0.000000,-0.000095,0.000173,-0.000131,0.000000,0.000000,0.000000,0.000000,819,819,819,819
8931,0,-0.002182,0.000000,0.000000,0.00,0.00,0.000055,0.006000,0.000012,0.000000,0.000000,0.000000,0.000000,0.000000,-0.000091,0.000173,-0.000050,0.000000,0.000000,0.000000,0.000000,819,819,819,819
8941,0,-0.002182,0.000000,0.000000,-0.00,-0.00,-0.000377,0.006000,0.000011,-0.000001,0.000000,0.000000,0.000000,0.000000,-0.000091,0.000175,0.000065,0.000000,0.000000,0.000000,0.000000,819,819,819,819
8951,0,-0.002182,0.000000,0.000000,-0.00,-0.00,-0.000580,0.006000,0.000011,-0.000000,0.000000,0.000000,0.000000,0.000000,-0.000091,0.000175,0.000125,0.000000,0.000000,0.000000,0.000000,819,819,819,819
8960,0,-0.001091,0.000000,0.000000,0.00,0.00,-0.000517,0.006000,0.000066,0.000000,0.000000,0.000000,0.000000,0.000000,-0.000082,0.000173,0.000116,0.000000,0.000000,0.000000,0.000000,819,819,819,819
8971,0,-0.001091,0.000000,0.000000,0.00,0.00,-0.000406,0.006000,0.000006,0.000002,0.000000,0.000000,0.000000,0.000000,-0.000086,0.000171,0.000092,0.000000,0.000000,0.000000,0.000000,819,819,819,819
8981,0,-0.001091,0.000000,0.000000,0.00,0.00,-0.000255,0.006000,0.000006,0.000001,0.000000,0.000000,0.000000,0.000000,-0.000086,0.000171,0.000058,0.000000,0.000000,0.000000,0.000000,819,819,819,819
8991,0,-0.001091,0.000000,0.000000,0.00,0.00,-0.000121,0.006000,0.000006,0.000000,0.000000,0.000000,0.000000,0.000000,-0.000086,0.000172,0.000025,0.000000,0.000000,0.000000,0.000000,819,819,819,819
9001,0,-0.001091,0.000000,0.000000,-0.00,-0.00,-0.000042,0.006000,0.000006,-0.000000,0.000000,0.000000,0.000000,0.000000,-0.000086,0.000174,0.000005,0.000000,0.000000,0.000000,0.000000,819,819,819,819
9011,0,-0.001091,0.000000,0.000000,0.00,-0.00,-0.000111,0.006000,0.000006,-0.000002,0.000000,0.000000,0.000000,0.000000,-0.000086,0.000175,0.000024,0.000000,0.000000,0.000000,0.000000,819,819,819,819
9021,0,-0.001091,0.000000,0.000000,-0.00,-0.00,-0.000114,0.006000,0.000006,-0.000000,0.000000,0.000000,0.000000,0.000000,-0.000086,0.000174,0.000027,0.000000,0.000000,0.000000,0.000000,819,819,819,819
9031,0,-0.001091,0.000000,0.000000,0.00,0.00,-0.000150,0.006000,0.000006,0.000000,0.000000,0.000000,0.000000,0.000000,-0.000086,0.000173,0.000038,0.000000,0.000000,0.000000,0.000000,819,819,819,819
9041,0,-0.001091,0.000000,0.000000,0.00,0.00,-0.000062,0.006000,0.000006,0.000001,0.000000,0.000000,0.000000,0.000000,-0.000086,0.000171,0.000016,0.000000,0.000000,0.000000,0.000000,819,819,819,819
9051,0,-0.001091,0.000000,0.000000,0.00,0.00,0.000069,0.006000,0.000006,0.000002,0.000000,0.000000,0.000000,0.000000,-0.000086,0.000171,-0.000018,0.000000,0.000000,0.000000,0.000000,819,819,819,819
9061,0,-0.001091,0.000000,0.000000,0.00,0.00,0.000166,0.006000,0.000006,0.000001,0.000000,0.000000,0.000000,0.000000,-0.000086,0.000171,-0.000045,0.000000,0.000000,0.000000,0.000000,819,819,819,819
9071,0,-0.001091,0.000000,0.000000,0.00,0.00,0.000189,0.006000,0.000006,0.000000,0.000000,0.000000,0.000000,0.000000,-0.000086,0.000173,-0.000054,0.000000,0.000000,0.000000,0.000000,819,819,819,819
9081,0,-0.001091,0.000000,0.000000,0.00,-0.00,0.000190,0.006000,0.000006,-0.000000,0.000000,0.000000,0.000000,0.000000,-0.000086,0.000173,-0.000057,0.000000,0.000000,0.000000,0.000000,819,819,819,819
9091,0,-0.001091,0.000000,0.000000,0.00,0.00,0.000299,0.006000,0.000006,0.000000,0.000000,0.000000,0.000000,0.000000,-0.000086,0.000173,-0.000088,0.000000,0.000000,0.000000,0.000000,819,819,819,819
9108,0,-0.001091,0.000000,0.000000,0.00,-0.00,0.000322,0.006000,0.000006,-0.000000,0.000000,0.000000,0.000000,0.000000,-0.000086,0.000173,-0.000099,0.000000,0.000000,0.000000,0.000000,819,819,819,819
9120,0,-0.001091,0.000000,0.000000,0.00,0.00,0.000269,0.006000,0.000006,0.000000,0.000000,0.000000,0.000000,0.000000,-0.000086,0.000173,-0.000089,0.000000,0.000000,0.000000,0.000000,819,819,819,819
9132,0,-0.001091,0.000000,0.000000,0.00,0.00,0.000086,0.007000,0.000006,0.000000,0.000000,0.000000,0.000000,0.000000,-0.000086,0.000173,-0.000043,0.000000,0.000000,0.000000,0.000000,819,819,819,819
9142,0,-0.001091,0.000000,0.000000,0.00,-0.00,-0.000014,0.007000,0.000006,-0.000000,0.000000,0.000000,0.000000,0.000000,-0.000086,0.000173,-0.000018,0.000000,0.000000,0.000000,0.000000,819,819,819,819
9151,0,-0.001091,0.000000,0.000000,0.00,-0.00,-0.000182,0.007000,0.000006,-0.000000,0.000000,0.000000,0.000000,0.000000,-0.000086,0.000173,0.000028,0.000000,0.000000,0.000000,0.000000,819,819,819,819
9161,0,-0.001091,0.000000,0.000000,0.00,-0.00,-0.000154,0.007000,0.000006,-0.000000,0.000000,0.000000,0.000000,0.000000,-0.000086,0.000174,0.000023,0.000000,0.000000,0.000000,0.000000,819,819,819,819
9171,0,-0.001091,0.000000,0.000000,0.00,-0.00,-0.000098,0.007000,0.000006,-0.000000,0.000000,0.000000,0.000000,0.000000,-0.000086,0.000174,0.000010,0.000000,0.000000,0.000000,0.000000,819,819,819,819
9181,0,-0.001091,0.000000,0.000000,0.00,0.00,-0.000059,0.007000,0.000006,0.000000,0.000000,0.000000,0.000000,0.000000,-0.000086,0.000173,0.000000,0.000000,0.000000,0.000000,0.000000,819,819,819,819
9192,0,-0.001091,0.000000,0.000000,0.00,0.00,0.000142,0.007000,0.000006,0.000000,0.000000,0.000000,0.000000,0.000000,-0.000086,0.000172,-0.000053,0.000000,0.000000,0.000000,0.000000,819,819,819,819
9201,0,-0.001091,0.000000,0.000000,0.00,0.00,0.000423,0.007000,0.000006,0.000000,0.000000,0.000000,0.000000,0.000000,-0.000086,0.000173,-0.000130,0.000000,0.000000,0.000000,0.000000,819,819,819,819
9211,0,-0.002182,0.000000,0.000000,-0.00,0.00,0.000708,0.007000,-0.000042,0.000000,0.000000,0.000000,0.000000,0.000000,-0.000095,0.000173,-0.000213,0.000000,0.000000,0.000000,0.000000,819,819,819,819
9221,0,-0.002182,0.000000,0.000000,0.00,0.00,0.000922,0.007000,0.000012,0.000000,0.000000,0.000000,0.000000,0.000000,-0.000091,0.000173,-0.000280,0.000000,0.000000,0.000000,0.000000,819,819,819,819
9231,0,-0.002182,0.000000,0.000000,0.00,0.00,0.000896,0.007000,0.000012,0.000000,0.000000,0.000000,0.000000,0.000000,-0.000091,0.000172,-0.000286,0.000000,0.000000,0.000000,0.000000,819,819,819,819
9241,0,-0.003272,0.000000,0.000000,-0.00,0.00,0.000370,0.007000,-0.000037,0.000000,0.000000,0.000000,0.000000,0.000000,-0.000100,0.000172,-0.000157,0.000000,0.000000,0.000000,0.000000,819,819,819,819
9251,0,-0.003272,0.000000,0.000000,0.00,0.00,-0.000217,0.007000,0.000018,0.000000,0.000000,0.000000,0.000000,0.000000,-0.000096,0.000172,-0.000004,0.000000,0.000000,0.000000,0.000000,819,819,819,819
9261,0,-0.003272,0.000000,0.000000,0.00,0.00,-0.000716,0.008000,0.000018,0.000000,0.000000,0.000000,0.000000,0.000000,-0.000096,0.000172,0.000134,0.000000,0.000000,0.000000,0.000000,819,819,819,819
9272,0,-0.003272,0.000000,0.000000,0.00,-0.00,-0.000868,0.008000,0.000018,-0.000000,0.000000,0.000000,0.000000,0.000000,-0.000096,0.000173,0.000184,0.000000,0.000000,0.000000,0.000000,819,819,819,819
9281,0,-0.002182,0.000000,0.000000,0.00,-0.00,-0.000640,0.007000,0.000073,-0.000000,0.000000,0.000000,0.000000,0.000000,-0.000086,0.000173,0.000135,0.000000,0.000000,0.000000,0.000000,819,819,819,819
9292,0,-0.002182,0.000000,0.000000,-0.00,-0.00,-0.000339,0.008000,0.000012,-0.000000,0.000000,0.000000,0.000000,0.000000,-0.000090,0.000174,0.000063,0.000000,0.000000,0.000000,0.000000,819,819,819,819
9302,0,-0.002182,0.000000,0.000000,0.00,-0.00,-0.000053,0.008000,0.000012,-0.000000,0.000000,0.000000,0.000000,0.000000,-0.000090,0.000173,-0.000009,0.000000,0.000000,0.000000,0.000000,819,819,819,819
9312,0,-0.002182,0.000000,0.000000,0.00,0.00,0.000106,0.008000,0.000012,0.000001,0.000000,0.000000,0.000000,0.000000,-0.000090,0.000171,-0.000051,0.000000,0.000000,0.000000,0.000000,819,819,819,819
9322,0,-0.002182,0.000000,0.000000,0.00,0.00,0.000168,0.008000,0.000012,0.000002,0.000000,0.000000,0.000000,0.000000,-0.000090,0.000170,-0.000070,0.000000,0.000000,0.000000,0.000000,819,819,819,819
9332,0,-0.002182,0.000000,0.000000,0.00,0.00,0.000081,0.008000,0.000012,0.000002,0.000000,0.000000,0.000000,0.000000,-0.000090,0.000170,-0.000048,0.000000,0.000000,0.000000,0.000000,819,819,819,819
9342,0,-0.002182,0.000000,0.000000,0.00,0.00,-0.000068,0.008000,0.000012,0.000000,0.000000,0.000000,0.000000,0.000000,-0.000090,0.000172,-0.000009,0.000000,0.000000,0.000000,0.000000,819,819,819,819
9352,0,-0.002182,0.000000,0.000000,-0.00,-0.00,-0.000293,0.008000,0.000011,-0.000000,0.000000,0.000000,0.000000,0.000000,-0.000090,0.000173,0.000052,0.000000,0.000000,0.000000,0.000000,819,819,819,819
9362,0,-0.001091,0.000000,0.000000,0.00,-0.00,-0.000413,0.008000,0.000061,-0.000002,0.000000,0.000000,0.000000,0.000000,-0.000081,0.000175,0.000088,0.000000,0.000000,0.000000,0.000000,819,819,819,819
9372,0,-0.001091,0.000000,0.000000,0.00,-0.00,-0.000455,0.008000,0.000006,-0.000002,0.000000,0.000000,0.000000,0.000000,-0.000085,0.000175,0.000106,0.000000,0.000000,0.000000,0.000000,819,819,819,819
9382,0,-0.001091,0.000000,0.000000,0.00,-0.00,-0.000439,0.008000,0.000006,-0.000000,0.000000,0.000000,0.000000,0.000000,-0.000085,0.000174,0.000108,0.000000,0.000000,0.000000,0.000000,819,819,819,819
9392,0,-0.001091,0.000000,0.000000,0.00,0.00,-0.000257,0.008000,0.000006,0.000000,0.000000,0.000000,0.000000,0.000000,-0.000085,0.000173,0.000065,0.000000,0.000000,0.000000,0.000000,819,819,819,819
9402,0,-0.001091,0.000000,0.000000,-0.00,0.00,-0.000103,0.008000,0.000006,0.000000,0.000000,0.000000,0.000000,0.000000,-0.000085,0.000172,0.000027,0.000000,0.000000,0.000000,0.000000,819,819,819,819
9412,0,-0.001091,0.000000,0.000000,0.00,0.00,0.000103,0.009000,0.000006,0.000000,0.000000,0.000000,0.000000,0.000000,-0.000085,0.000172,-0.000027,0.000000,0.000000,0.000000,0.000000,819,819,819,819
9429,0,-0.001091,0.000000,0.000000,0.00,0.00,0.000349,0.009000,0.000006,0.000000,0.000000,0.000000,0.000000,0.000000,-0.000085,0.000173,-0.000095,0.000000,0.000000,0.000000,0.000000,819,819,819,819
9442,0,-0.001091,0.000000,0.000000,0.00,0.00,0.000433,0.009000,0.000006,0.000000,0.000000,0.000000,0.000000,0.000000,-0.000085,0.000173,-0.000122,0.000000,0.000000,0.000000,0.000000,819,819,819,819
9451,0,-0.001091,0.000000,0.000000,0.00,0.00,0.000438,0.009000,0.000006,0.000000,0.000000,0.000000,0.000000,0.000000,-0.000085,0.000173,-0.000130,0.000000,0.000000,0.000000,0.000000,819,819,819,819
9461,0,-0.002182,0.000000,0.000000,-0.00,-0.00,0.000402,0.009000,-0.000043,-0.000000,0.000000,0.000000,0.000000,0.000000,-0.000094,0.000173,-0.000126,0.000000,0.000000,0.000000,0.000000,819,819,819,819
9472,0,-0.002182,0.000000,0.000000,0.00,-0.00,0.000165,0.009000,0.000012,-0.000000,0.000000,0.000000,0.000000,0.000000,-0.000090,0.000173,-0.000068,0.000000,0.000000,0.000000,0.000000,819,819,819,819
9484,0,-0.002182,0.000000,0.000000,0.00,0.00,-0.000010,0.010000,0.000012,0.000000,0.000000,0.000000,0.000000,0.000000,-0.000090,0.000172,-0.000023,0.000000,0.000000,0.000000,0.000000,819,819,819,819
9493,0,-0.002182,0.000000,0.000000,-0.00,0.00,-0.000019,0.010000,0.000012,0.000000,0.000000,0.000000,0.000000,0.000000,-0.000090,0.000172,-0.000021,0.000000,0.000000,0.000000,0.000000,819,819,819,819
9503,0,-0.002182,0.000000,0.000000,0.00,0.00,0.000035,0.010000,0.000012,0.000000,0.000000,0.000000,0.000000,0.000000,-0.000090,0.000173,-0.000035,0.000000,0.000000,0.000000,0.000000,819,819,819,819
9512,0,-0.002182,0.000000,0.000000,0.00,-0.00,0.000237,0.010000,0.000012,-0.000000,0.000000,0.000000,0.000000,0.000000,-0.000090,0.000174,-0.000090,0.000000,0.000000,0.000000,0.000000,819,819,819,819
9522,0,-0.002182,0.000000,0.000000,-0.00,-0.00,0.000374,0.010000,0.000012,-0.000000,0.000000,0.000000,0.000000,0.000000,-0.000090,0.000174,-0.000130,0.000000,0.000000,0.000000,0.000000,819,819,819,819
9532,0,-0.002182,0.000000,0.000000,0.00,-0.00,0.000435,0.010000,0.000012,-0.000000,0.000000,0.000000,0.000000,0.000000,-0.000090,0.000174,-0.000152,0.000000,0.000000,0.000000,0.000000,819,819,819,819
9543,0,-0.002182,0.000000,0.000000,0.00,-0.00,0.000383,0.010000,0.000012,-0.000000,0.000000,0.000000,0.000000,0.000000,-0.000090,0.000173,-0.000144,0.000000,0.000000,0.000000,0.000000,819,819,819,819
9552,0,-0.002182,0.000000,0.000000,0.00,0.00,0.000182,0.010000,0.000012,0.000000,0.000000,0.000000,0.000000,0.000000,-0.000090,0.000173,-0.000096,0.000000,0.000000,0.000000,0.000000,819,819,819,819
9562,0,-0.002182,0.000000,0.000000,-0.00,0.00,0.000045,0.010000,0.000012,0.000001,0.000000,0.000000,0.000000,0.000000,-0.000090,0.000171,-0.000061,0.000000,0.000000,0.000000,0.000000,819,819,819,819
9572,0,-0.002182,0.000000,0.000000,0.00,0.00,-0.000142,0.010000,0.000012,0.000002,0.000000,0.000000,0.000000,0.000000,-0.000090,0.000170,-0.000011,0.000000,0.000000,0.000000,0.000000,819,819,819,819
9582,0,-0.002182,0.000000,0.000000,0.00,0.00,-0.000170,0.010000,0.000012,0.000000,0.000000,0.000000,0.000000,0.000000,-0.000090,0.000171,-0.000002,0.000000,0.000000,0.000000,0.000000,819,819,819,819
9593,0,-0.002182,0.000000,0.000000,0.00,-0.00,-0.000207,0.010000,0.000012,-0.000000,0.000000,0.000000,0.000000,0.000000,-0.000090,0.000173,0.000011,0.000000,0.000000,0.000000,0.000000,819,819,819,819
9602,0,-0.002182,0.000000,0.000000,0.00,0.00,-0.000209,0.010000,0.000012,0.000000,0.000000,0.000000,0.000000,0.000000,-0.000090,0.000172,0.000014,0.000000,0.000000,0.000000,0.000000,819,819,819,819
9612,0,-0.002182,0.000000,0.000000,0.00,0.00,-0.000264,0.062000,0.000012,0.000000,0.000000,0.000000,0.000000,0.000000,-0.000090,0.000172,0.000032,0.062294,0.061887,0.062050,0.061770,870,910,886,910
9623,0,-0.002182,0.000000,0.000000,0.00,-0.00,-0.000266,0.069000,0.000013,-0.000000,0.000000,0.000000,0.000000,0.000000,-0.000090,0.000173,0.000036,0.069299,0.068881,0.069046,0.068773,875,916,892,916
9632,0,-0.002182,0.000000,0.000000,-0.00,-0.00,-0.000248,0.069000,0.000014,-0.000000,0.000000,0.000000,0.000000,0.000000,-0.000090,0.000174,0.000035,0.069299,0.068882,0.069048,0.068771,875,916,892,916
9643,0,-0.002182,0.000000,0.000000,0.00,-0.00,-0.000266,0.076000,0.000015,-0.000002,0.000000,0.000000,0.000000,0.000000,-0.000090,0.000175,0.000043,0.076309,0.075872,0.076041,0.075778,881,922,897,922
9653,0,-0.002182,0.000000,0.000000,0.00,0.00,-0.000212,0.079000,0.000016,0.000000,0.000000,0.000000,0.000000,0.000000,-0.000090,0.000172,0.000033,0.079295,0.078885,0.079049,0.078770,884,924,900,924
9663,0,-0.002182,0.000000,0.000000,0.00,0.00,-0.000119,0.079000,0.000017,0.000000,0.000000,0.000000,0.000000,0.000000,-0.000090,0.000172,0.000011,0.079273,0.078907,0.079071,0.078749,884,924,900,924
9673,0,-0.002182,0.000000,0.000000,0.00,0.00,0.000356,0.079000,0.000018,0.000001,0.000000,0.000000,0.000000,0.000000,-0.000090,0.000171,-0.000115,0.079146,0.079035,0.079196,0.078623,883,924,900,924
9682,0,-0.002182,0.000000,0.000000,-0.00,-0.00,0.000380,0.084000,0.000018,-0.000000,0.000000,0.000000,0.000000,0.000000,-0.000090,0.000174,-0.000127,0.084137,0.084044,0.084210,0.083609,888,928,904,928
9693,0,-0.002182,0.000000,0.000000,-0.00,0.00,-0.000090,0.084000,0.000019,0.000003,0.000000,0.000000,0.000000,0.000000,-0.000090,0.000169,-0.000006,0.084253,0.083928,0.084084,0.083735,888,928,904,928
9703,0,-0.002182,0.000000,0.000000,-0.00,0.00,-0.000330,0.084000,0.000019,0.000005,0.000000,0.000000,0.000000,0.000000,-0.000091,0.000165,0.000060,0.084316,0.083865,0.084014,0.083804,888,928,904,928
9712,0,-0.002182,0.000000,0.000000,-0.00,0.00,-0.000342,0.085000,0.000020,0.000005,0.000000,0.000000,0.000000,0.000000,-0.000091,0.000164,0.000068,0.085323,0.084858,0.085005,0.084813,889,929,905,929
9723,0,-0.001091,-0.001091,0.000000,0.00,-0.00,-0.000017,0.085000,0.000066,-0.000033,0.000000,0.000000,0.000000,0.000000,-0.000082,0.000237,-0.000014,0.085305,0.084860,0.085169,0.084666,889,929,905,929
9740,0,-0.001091,-0.001091,0.000000,0.00,0.00,0.000071,0.085000,0.000018,0.000018,0.000000,0.000000,0.000000,0.000000,-0.000086,0.000177,-0.000038,0.085225,0.084947,0.085130,0.084699,888,929,905,929
9751,0,-0.001091,-0.001091,0.000000,0.00,-0.00,0.000094,0.085000,0.000018,0.000018,0.000000,0.000000,0.000000,0.000000,-0.000086,0.000178,-0.000045,0.085219,0.084953,0.085138,0.084691,888,929,905,929
9762,0,-0.001091,-0.001091,0.000000,0.00,0.00,-0.000104,0.085000,0.000019,0.000019,0.000000,0.000000,0.000000,0.000000,-0.000086,0.000178,0.000007,0.085270,0.084901,0.085085,0.084744,888,929,905,929
9773,0,-0.001091,-0.001091,0.000000,0.00,0.00,-0.000078,0.085000,0.000019,0.000020,0.000000,0.000000,0.000000,0.000000,-0.000086,0.000176,0.000001,0.085263,0.084908,0.085089,0.084740,888,929,905,929
9783,0,-0.001091,-0.001091,0.000000,0.00,0.00,-0.000022,0.085000,0.000021,0.000021,0.000000,0.000000,0.000000,0.000000,-0.000085,0.000176,-0.000013,0.085249,0.084922,0.085103,0.084726,888,929,905,929
9795,0,-0.001091,-0.001091,0.000000,0.00,0.00,-0.000200,0.085000,0.000020,0.000021,0.000000,0.000000,0.000000,0.000000,-0.000085,0.000176,0.000036,0.085297,0.084874,0.085055,0.084774,889,929,905,929
9804,0,-0.001091,-0.001091,0.000000,0.00,0.00,-0.000155,0.085000,0.000020,0.000022,0.000000,0.000000,0.000000,0.000000,-0.000085,0.000176,0.000026,0.085288,0.084883,0.085065,0.084765,889,929,905,929
9814,0,-0.001091,-0.001091,0.000000,0.00,0.00,0.000083,0.085000,0.000021,0.000021,0.000000,0.000000,0.000000,0.000000,-0.000085,0.000177,-0.000035,0.085227,0.084943,0.085127,0.084702,888,929,905,929
9823,0,-0.001091,-0.001091,0.000000,0.00,0.00,0.000167,0.085000,0.000022,0.000022,0.000000,0.000000,0.000000,0.000000,-0.000085,0.000177,-0.000059,0.085203,0.084968,0.085151,0.084679,888,929,905,929
9833,0,-0.001091,-0.001091,0.000000,0.00,-0.00,0.000262,0.085000,0.000022,0.000022,0.000000,0.000000,0.000000,0.000000,-0.000085,0.000178,-0.000087,0.085175,0.084995,0.085180,0.084650,888,929,905,929
9843,0,-0.001091,-0.001091,0.000000,0.00,0.00,0.000176,0.085000,0.000022,0.000024,0.000000,0.000000,0.000000,0.000000,-0.000085,0.000176,-0.000068,0.085193,0.084977,0.085159,0.084671,888,929,905,929
9853,0,-0.001091,-0.001091,0.000000,0.00,0.00,-0.000082,0.085000,0.000023,0.000024,0.000000,0.000000,0.000000,0.000000,-0.000085,0.000176,-0.000001,0.085260,0.084910,0.085092,0.084738,888,929,905,929
9863,0,-0.001091,-0.001091,0.000000,0.00,0.00,-0.000547,0.085000,0.000024,0.000025,0.000000,0.000000,0.000000,0.000000,-0.000085,0.000176,0.000126,0.085386,0.084783,0.084965,0.084865,889,929,905,929
9873,0,-0.001091,-0.001091,0.000000,-0.00,0.00,-0.000968,0.085000,0.000022,0.000026,0.000000,0.000000,0.000000,0.000000,-0.000085,0.000175,0.000247,0.085507,0.084663,0.084842,0.084987,889,929,905,929
9883,0,0.000000,-0.001091,0.000000,0.00,0.00,-0.000627,0.085000,0.000069,0.000027,0.000000,0.000000,0.000000,0.000000,-0.000076,0.000175,0.000170,0.085421,0.084732,0.084928,0.084919,889,929,905,929
9893,0,0.000000,-0.001091,0.000000,-0.00,0.00,0.000240,0.085000,0.000015,0.000026,0.000000,0.000000,0.000000,0.000000,-0.000080,0.000176,-0.000055,0.085201,0.084960,0.085150,0.084689,888,929,905,929
9903,0,0.000000,-0.001091,0.001091,-0.00,0.00,0.000862,0.085000,0.000015,0.000026,0.000000,0.000000,0.000000,0.000000,-0.000081,0.000176,-0.000227,0.085031,0.085131,0.085322,0.084516,888,929,905,929
9913,0,-0.001091,-0.001091,0.001091,-0.00,-0.00,0.001038,0.086000,-0.000031,0.000026,0.000000,0.000000,0.000000,0.000000,-0.000090,0.000177,-0.000287,0.085980,0.086199,0.086374,0.085446,889,930,906,930
9923,0,-0.001091,-0.001091,0.001091,0.00,0.00,0.000594,0.086000,0.000025,0.000028,0.000000,0.000000,0.000000,0.000000,-0.000086,0.000176,-0.000183,0.086079,0.086093,0.086273,0.085556,889,930,906,930
9933,0,-0.002182,-0.001091,0.001091,-0.00,0.00,-0.000025,0.086000,-0.000025,0.000029,0.000000,0.000000,0.000000,0.000000,-0.000095,0.000175,-0.000024,0.086246,0.085944,0.086104,0.085705,889,930,906,930
9943,0,-0.002182,-0.001091,0.001091,-0.00,0.00,-0.000037,0.086000,0.000029,0.000031,0.000000,0.000000,0.000000,0.000000,-0.000092,0.000172,-0.000020,0.086244,0.085940,0.086101,0.085716,889,930,906,930
9953,0,-0.002182,-0.002182,0.001091,-0.00,-0.00,0.000179,0.086000,0.000030,-0.000007,0.000000,0.000000,0.000000,0.000000,-0.000092,0.000247,-0.000078,0.086261,0.085923,0.086233,0.085583,889,930,906,930
9963,0,-0.002182,-0.002182,0.001091,-0.00,-0.00,0.000081,0.086000,0.000032,0.000046,0.000000,0.000000,0.000000,0.000000,-0.000092,0.000185,-0.000055,0.086223,0.085961,0.086148,0.085668,889,930,906,930
9973,0,-0.002182,-0.002182,0.001091,0.00,-0.00,0.000113,0.086000,0.000035,0.000047,0.000000,0.000000,0.000000,0.000000,-0.000092,0.000185,-0.000064,0.086213,0.085971,0.086158,0.085658,889,930,906,930
9983,0,-0.002182,-0.002182,0.001091,0.00,-0.00,0.000223,0.086000,0.000036,0.000048,0.000000,0.000000,0.000000,0.000000,-0.000092,0.000186,-0.000096,0.086183,0.086001,0.086190,0.085626,889,930,906,930
9994,0,-0.002182,-0.002182,0.001091,0.00,-0.00,0.000174,0.086000,0.000037,0.000049,0.000000,0.000000,0.000000,0.000000,-0.000092,0.000186,-0.000086,0.086193,0.085991,0.086180,0.085636,889,930,906,930
10004,0,-0.002182,-0.002182,0.001091,-0.00,-0.00,0.000407,0.086000,0.000037,0.000051,0.000000,0.000000,0.000000,0.000000,-0.000092,0.000185,-0.000151,0.086126,0.086058,0.086245,0.085571,889,930,906,930
10014,0,-0.002182,-0.002182,0.001091,-0.00,-0.00,0.000382,0.086000,0.000038,0.000050,0.000000,0.000000,0.000000,0.000000,-0.000092,0.000188,-0.000151,0.086130,0.086055,0.086247,0.085569,889,930,906,930
