t,is_crashed,roll,pitch,yaw,p,q,r,throttle,p_cmd,q_cmd,r_cmd,roll_cmd,pitch_cmd,yaw_cmd,roll_pid_out,pitch_pid_out,yaw_pid_out,motor_fl,motor_bl,motor_fr,motor_br,pwm_fl,pwm_bl,pwm_fr,pwm_br
6988,0,0.562500,0.212500,71.987503,0.00,-0.00,0.000000,0.004000,0.000000,0.399995,0.000000,0.000000,0.000000,0.000000,0.000000,0.002059,0.000000,0.000000,0.000000,0.000000,0.000000,0,0,0,0
7001,0,0.900000,0.340000,129.577499,0.13,0.05,-0.000207,0.004000,0.000000,0.399995,0.000000,0.000000,0.000000,0.000000,0.000649,0.001806,0.000001,0.000000,0.000000,0.000000,0.000000,819,819,819,819
7013,0,1.170000,0.442000,175.649506,0.23,0.09,-0.000395,0.004000,0.000000,0.399995,0.000000,0.000000,0.000000,0.000000,0.001146,0.001612,0.000002,0.000000,0.000000,0.000000,0.000000,819,819,819,819
7025,0,1.386000,0.523600,-147.492889,0.30,0.11,-0.000461,0.004000,0.000000,0.399995,0.000000,0.000000,0.000000,0.000000,0.001481,0.001481,0.000002,0.000000,0.000000,0.000000,0.000000,819,819,819,819
7035,0,1.558800,0.588880,-118.006805,0.35,0.13,-0.000521,0.004000,0.000000,0.399995,0.000000,0.000000,0.000000,0.000000,0.001764,0.001371,0.000003,0.000000,0.000000,0.000000,0.000000,819,819,819,819
7045,0,1.697040,0.641104,-94.417938,0.39,0.15,-0.000471,0.004000,0.000000,0.399995,0.000000,0.000000,0.000000,0.000000,0.001934,0.001305,0.000002,0.000000,0.000000,0.000000,0.000000,819,819,819,819
7055,0,1.807632,0.682883,-75.546844,0.40,0.15,-0.000427,0.003000,0.000000,0.399995,0.000000,0.000000,0.000000,0.000000,0.002015,0.001274,0.000002,0.000000,0.000000,0.000000,0.000000,819,819,819,819
7065,0,1.896106,0.716307,-60.449982,0.41,0.15,-0.000490,0.004000,0.000000,0.399995,0.000000,0.000000,0.000000,0.000000,0.002035,0.001267,0.000002,0.000000,0.000000,0.000000,0.000000,819,819,819,819
7075,0,1.966885,0.743045,-48.372498,0.40,0.15,-0.000236,0.004000,0.000000,0.399995,0.000000,0.000000,0.000000,0.000000,0.002008,0.001277,0.000001,0.000000,0.000000,0.000000,0.000000,819,819,819,819
7085,0,2.023508,0.764436,-38.710510,0.39,0.15,-0.000213,0.004000,0.000000,0.399995,0.000000,0.000000,0.000000,0.000000,0.001948,0.001298,0.000001,0.000000,0.000000,0.000000,0.000000,819,819,819,819
7095,0,2.068806,0.781549,-30.980927,0.37,0.14,-0.000400,0.004000,0.000000,0.399995,0.000000,0.000000,0.000000,0.000000,0.001866,0.001329,0.000002,0.000000,0.000000,0.000000,0.000000,819,819,819,819
7105,0,2.105045,0.795239,-24.797241,0.35,0.13,-0.000466,0.004000,0.000000,0.399995,0.000000,0.000000,0.000000,0.000000,0.001769,0.001366,0.000002,0.000000,0.000000,0.000000,0.000000,819,819,819,819
7115,0,2.134036,0.806192,-19.850311,0.33,0.13,-0.000525,0.004000,0.000000,0.399995,0.000000,0.000000,0.000000,0.000000,0.001665,0.001407,0.000003,0.000000,0.000000,0.000000,0.000000,819,819,819,819
7125,0,2.157229,0.814953,-15.892761,0.31,0.12,-0.000475,0.004000,0.000000,0.399995,0.000000,0.000000,0.000000,0.000000,0.001556,0.001449,0.000002,0.000000,0.000000,0.000000,0.000000,819,819,819,819
7142,0,2.175783,0.821963,-12.726715,0.29,0.11,-0.000638,0.004000,0.000000,0.399995,0.000000,0.000000,0.000000,0.000000,0.001430,0.001500,0.000003,0.000000,0.000000,0.000000,0.000000,819,819,819,819
7153,0,2.190626,0.827570,-10.193878,0.26,0.10,-0.000473,0.004000,0.000000,0.399995,0.000000,0.000000,0.000000,0.000000,0.001318,0.001543,0.000002,0.000000,0.000000,0.000000,0.000000,819,819,819,819
7165,0,2.202501,0.832056,-8.167603,0.24,0.09,-0.000428,0.004000,0.000000,0.399995,0.000000,0.000000,0.000000,0.000000,0.001211,0.001585,0.000002,0.000000,0.000000,0.000000,0.000000,819,819,819,819
7175,0,2.212001,0.835645,-6.546600,0.22,0.08,-0.000284,0.004000,0.000000,0.399995,0.000000,0.000000,0.000000,0.000000,0.001114,0.001623,0.000001,0.000000,0.000000,0.000000,0.000000,819,819,819,819
7185,0,2.219601,0.838516,-5.249786,0.20,0.08,-0.000153,0.003000,0.000000,0.399995,0.000000,0.000000,0.000000,0.000000,0.001021,0.001658,0.000000,0.000000,0.000000,0.000000,0.000000,819,819,819,819
7195,0,2.225681,0.840813,-4.212341,0.19,0.07,0.000068,0.004000,0.000000,0.399995,0.000000,0.000000,0.000000,0.000000,0.000935,0.001691,-0.000000,0.000000,0.000000,0.000000,0.000000,819,819,819,819
7205,0,2.230545,0.842650,-3.382385,0.17,0.07,0.000166,0.004000,0.000000,0.399995,0.000000,0.000000,0.000000,0.000000,0.000853,0.001721,-0.000000,0.000000,0.000000,0.000000,0.000000,819,819,819,819
7215,0,2.234436,0.844120,-2.718414,0.16,0.06,0.000150,0.004000,0.000000,0.399995,0.000000,0.000000,0.000000,0.000000,0.000778,0.001751,-0.000000,0.000000,0.000000,0.000000,0.000000,819,819,819,819
7225,0,2.237548,0.845296,-2.187225,0.14,0.05,0.000136,0.004000,0.000000,0.399995,0.000000,0.000000,0.000000,0.000000,0.000708,0.001778,-0.000000,0.000000,0.000000,0.000000,0.000000,819,819,819,819
7235,0,2.240039,0.846237,-1.762299,0.13,0.05,0.000330,0.004000,0.000000,0.399995,0.000000,0.000000,0.000000,0.000000,0.000643,0.001803,-0.000002,0.000000,0.000000,0.000000,0.000000,819,819,819,819
7245,0,2.242031,0.846990,-1.422333,0.12,0.04,0.000195,0.004000,0.000000,0.399995,0.000000,0.000000,0.000000,0.000000,0.000583,0.001827,-0.000001,0.000000,0.000000,0.000000,0.000000,819,819,819,819
7255,0,2.243625,0.847592,-1.150360,0.11,0.04,0.000073,0.004000,0.000000,0.399995,0.000000,0.000000,0.000000,0.000000,0.000529,0.001848,-0.000000,0.000000,0.000000,0.000000,0.000000,819,819,819,819
7265,0,2.244900,0.848073,-0.932800,0.10,0.04,0.000066,0.004000,0.000000,0.399995,0.000000,0.000000,0.000000,0.000000,0.000480,0.001867,-0.000000,0.000000,0.000000,0.000000,0.000000,819,819,819,819
7275,0,2.245920,0.848459,-0.758759,0.09,0.03,0.000163,0.004000,0.000000,0.399995,0.000000,0.000000,0.000000,0.000000,0.000434,0.001885,-0.000000,0.000000,0.000000,0.000000,0.000000,819,819,819,819
7285,0,2.246736,0.848767,-0.619507,0.08,0.03,0.000044,0.004000,0.000000,0.399995,0.000000,0.000000,0.000000,0.000000,0.000392,0.001902,-0.000000,0.000000,0.000000,0.000000,0.000000,819,819,819,819
7295,0,2.247389,0.849014,-0.508118,0.07,0.03,-0.000064,0.004000,0.000000,0.399995,0.000000,0.000000,0.000000,0.000000,0.000355,0.001917,0.000000,0.000000,0.000000,0.000000,0.000000,819,819,819,819
7305,0,2.247911,0.849211,-0.419006,0.06,0.02,-0.000161,0.004000,0.000000,0.399995,0.000000,0.000000,0.000000,0.000000,0.000321,0.001930,0.000000,0.000000,0.000000,0.000000,0.000000,819,819,819,819
7315,0,2.248329,0.849369,-0.347717,0.06,0.02,0.000165,0.004000,0.000000,0.399995,0.000000,0.000000,0.000000,0.000000,0.000289,0.001943,-0.000000,0.000000,0.000000,0.000000,0.000000,819,819,819,819
7325,0,2.248663,0.849495,-0.290680,0.05,0.02,0.000357,0.004000,0.000000,0.399995,0.000000,0.000000,0.000000,0.000000,0.000260,0.001954,-0.000002,0.000000,0.000000,0.000000,0.000000,819,819,819,819
7335,0,2.248930,0.849596,-0.245056,0.05,0.02,0.000115,0.004000,0.000000,0.399995,0.000000,0.000000,0.000000,0.000000,0.000235,0.001965,-0.000000,0.000000,0.000000,0.000000,0.000000,819,819,819,819
7345,0,2.249144,0.849677,-0.208557,0.04,0.02,0.000000,0.004000,0.000000,0.399995,0.000000,0.000000,0.000000,0.000000,0.000212,0.001973,-0.000000,0.000000,0.000000,0.000000,0.000000,819,819,819,819
7355,0,2.249316,0.849742,-0.179352,0.04,0.01,-0.000414,0.004000,0.000000,0.399995,0.000000,0.000000,0.000000,0.000000,0.000191,0.001983,0.000002,0.000000,0.000000,0.000000,0.000000,819,819,819,819
7365,0,2.249452,0.849793,-0.155975,0.03,0.01,-0.000478,0.004000,0.000000,0.399995,0.000000,0.000000,0.000000,0.000000,0.000172,0.001989,0.000002,0.000000,0.000000,0.000000,0.000000,819,819,819,819
7375,0,2.249562,0.849835,-0.137299,0.03,0.01,-0.000640,0.004000,0.000000,0.399995,0.000000,0.000000,0.000000,0.000000,0.000155,0.001994,0.000003,0.000000,0.000000,0.000000,0.000000,819,819,819,819
7385,0,2.249650,0.849868,-0.122345,0.03,0.01,-0.000476,0.004000,0.000000,0.399995,0.000000,0.000000,0.000000,0.000000,0.000139,0.002000,0.000002,0.000000,0.000000,0.000000,0.000000,819,819,819,819
7395,0,2.249720,0.849894,-0.110382,0.03,0.01,-0.000534,0.004000,0.000000,0.399995,0.000000,0.000000,0.000000,0.000000,0.000126,0.002005,0.000003,0.000000,0.000000,0.000000,0.000000,819,819,819,819
7405,0,2.249776,0.849915,-0.100800,0.02,0.00,-0.000691,0.004000,0.000000,0.399995,0.000000,0.000000,0.000000,0.000000,0.000114,0.002010,0.000003,0.000000,0.000000,0.000000,0.000000,819,819,819,819
7415,0,2.249820,0.849932,-0.093140,0.02,0.00,-0.000625,0.004000,0.000000,0.399995,0.000000,0.000000,0.000000,0.000000,0.000102,0.002014,0.000003,0.000000,0.000000,0.000000,0.000000,819,819,819,819
7425,0,2.249856,0.849946,-0.087006,0.02,0.00,-0.000566,0.004000,0.000000,0.399995,0.000000,0.000000,0.000000,0.000000,0.000092,0.002017,0.000003,0.000000,0.000000,0.000000,0.000000,819,819,819,819
7435,0,2.249885,0.849957,-0.082123,0.02,0.00,-0.000512,0.004000,0.000000,0.399995,0.000000,0.000000,0.000000,0.000000,0.000083,0.002020,0.000003,0.000000,0.000000,0.000000,0.000000,819,819,819,819
7445,0,2.249908,0.849965,-0.078217,0.02,0.00,-0.000567,0.004000,0.000000,0.399995,0.000000,0.000000,0.000000,0.000000,0.000075,0.002024,0.000003,0.000000,0.000000,0.000000,0.000000,819,819,819,819
7463,0,2.249926,0.849972,-0.075073,0.01,0.00,-0.000824,0.004000,0.000000,0.399995,0.000000,0.000000,0.000000,0.000000,0.000068,0.002027,0.000004,0.000000,0.000000,0.000000,0.000000,819,819,819,819
7475,0,2.249941,0.849978,-0.072571,0.01,0.00,-0.000746,0.004000,0.000000,0.399995,0.000000,0.000000,0.000000,0.000000,0.000060,0.002030,0.000004,0.000000,0.000000,0.000000,0.000000,819,819,819,819
7486,0,2.249953,0.849982,-0.070557,0.01,0.00,-0.000571,0.004000,0.000000,0.399995,0.000000,0.000000,0.000000,0.000000,0.000055,0.002033,0.000003,0.000000,0.000000,0.000000,0.000000,819,819,819,819
7496,0,2.249962,0.849986,-0.068939,0.01,0.00,-0.000517,0.004000,0.000000,0.399995,0.000000,0.000000,0.000000,0.000000,0.000049,0.002035,0.000003,0.000000,0.000000,0.000000,0.000000,819,819,819,819
7506,0,2.249970,0.849989,-0.067657,0.00,0.00,-0.000157,0.004000,0.000000,0.399995,0.000000,0.000000,0.000000,0.000000,0.000043,0.002037,0.000000,0.000000,0.000000,0.000000,0.000000,819,819,819,819
7516,0,2.249976,0.849991,-0.066620,0.00,0.00,-0.000246,0.004000,0.000000,0.399995,0.000000,0.000000,0.000000,0.000000,0.000038,0.002041,0.000001,0.000000,0.000000,0.000000,0.000000,819,819,819,819
7525,0,2.249981,0.849993,-0.065796,0.00,0.00,-0.000222,0.004000,0.000000,0.399995,0.000000,0.000000,0.000000,0.000000,0.000035,0.002043,0.000001,0.000000,0.000000,0.000000,0.000000,819,819,819,819
7536,0,2.249985,0.849994,-0.065155,0.00,0.00,-0.000201,0.004000,0.000000,0.399995,0.000000,0.000000,0.000000,0.000000,0.000031,0.002043,0.000001,0.000000,0.000000,0.000000,0.000000,819,819,819,819
7546,0,2.249988,0.849995,-0.064636,0.00,0.00,-0.000182,0.004000,0.000000,0.399995,0.000000,0.000000,0.000000,0.000000,0.000028,0.002042,0.000000,0.000000,0.000000,0.000000,0.000000,819,819,819,819
7556,0,2.249990,0.849996,-0.064209,0.00,0.00,-0.000268,0.004000,0.000000,0.399995,0.000000,0.000000,0.000000,0.000000,0.000025,0.002043,0.000001,0.000000,0.000000,0.000000,0.000000,819,819,819,819
7566,0,2.249992,0.849997,-0.063873,0.00,0.00,-0.000347,0.004000,0.000000,0.399995,0.000000,0.000000,0.000000,0.000000,0.000022,0.002045,0.000002,0.000000,0.000000,0.000000,0.000000,819,819,819,819
7576,0,2.249994,0.849998,-0.063599,0.00,0.00,-0.000314,0.004000,0.000000,0.399995,0.000000,0.000000,0.000000,0.000000,0.000021,0.002044,0.000002,0.000000,0.000000,0.000000,0.000000,819,819,819,819
7586,0,2.249995,0.849998,-0.063385,0.00,0.00,-0.000387,0.004000,0.000000,0.399995,0.000000,0.000000,0.000000,0.000000,0.000018,0.002042,0.000002,0.000000,0.000000,0.000000,0.000000,819,819,819,819
7596,0,2.249996,0.849999,-0.063202,0.00,0.00,-0.000040,0.004000,0.000000,0.399995,0.000000,0.000000,0.000000,0.000000,0.000017,0.002043,0.000000,0.000000,0.000000,0.000000,0.000000,819,819,819,819
7606,0,2.249997,0.849999,-0.063080,0.00,0.00,-0.000140,0.004000,0.000000,0.399995,0.000000,0.000000,0.000000,0.000000,0.000016,0.002044,0.000000,0.000000,0.000000,0.000000,0.000000,819,819,819,819
7616,0,2.249997,0.849999,-0.062958,0.00,0.00,-0.000126,0.004000,0.000000,0.399995,0.000000,0.000000,0.000000,0.000000,0.000014,0.002044,0.000000,0.000000,0.000000,0.000000,0.000000,819,819,819,819
7626,0,2.249998,0.849999,-0.062866,0.00,0.00,-0.000529,0.004000,0.000000,0.399995,0.000000,0.000000,0.000000,0.000000,0.000013,0.002045,0.000003,0.000000,0.000000,0.000000,0.000000,819,819,819,819
7636,0,2.249998,0.849999,-0.062805,0.00,0.00,-0.000686,0.004000,0.000000,0.399995,0.000000,0.000000,0.000000,0.000000,0.000011,0.002048,0.000003,0.000000,0.000000,0.000000,0.000000,819,819,819,819
7646,0,2.249999,0.850000,-0.062744,0.00,0.00,-0.000932,0.004000,0.000000,0.399995,0.000000,0.000000,0.000000,0.000000,0.000009,0.002049,0.000005,0.000000,0.000000,0.000000,0.000000,819,819,819,819
7656,0,2.249999,0.850000,-0.062714,0.00,0.00,-0.001154,0.004000,0.000000,0.399995,0.000000,0.000000,0.000000,0.000000,0.000007,0.002049,0.000006,0.000000,0.000000,0.000000,0.000000,819,819,819,819
7666,0,2.249999,0.850000,-0.062683,0.00,0.00,-0.001252,0.004000,0.000000,0.399995,0.000000,0.000000,0.000000,0.000000,0.000006,0.002051,0.000006,0.000000,0.000000,0.000000,0.000000,819,819,819,819
7676,0,2.249999,0.850000,-0.062653,0.00,0.00,-0.001236,0.004000,0.000000,0.399995,0.000000,0.000000,0.000000,0.000000,0.000005,0.002051,0.000006,0.000000,0.000000,0.000000,0.000000,819,819,819,819
7686,0,2.250000,0.850000,-0.062622,0.00,-0.00,-0.001223,0.004000,0.000000,0.399995,0.000000,0.000000,0.000000,0.000000,0.000004,0.002052,0.000006,0.000000,0.000000,0.000000,0.000000,819,819,819,819
7696,0,2.250000,0.850000,-0.062592,0.00,-0.00,-0.001106,0.004000,0.000000,0.399995,0.000000,0.000000,0.000000,0.000000,0.000003,0.002053,0.000006,0.000000,0.000000,0.000000,0.000000,819,819,819,819
7706,0,2.250000,0.850000,-0.062592,0.00,-0.00,-0.001001,0.004000,0.000000,0.399995,0.000000,0.000000,0.000000,0.000000,0.000001,0.002054,0.000005,0.000000,0.000000,0.000000,0.000000,819,819,819,819
7716,0,2.250000,0.850000,-0.062592,0.00,-0.00,-0.001113,0.004000,0.000000,0.399995,0.000000,0.000000,0.000000,0.000000,0.000001,0.002055,0.000006,0.000000,0.000000,0.000000,0.000000,819,819,819,819
7726,0,2.250000,0.850000,-0.062592,0.00,-0.00,-0.001215,0.004000,0.000000,0.399995,0.000000,0.000000,0.000000,0.000000,0.000001,0.002056,0.000006,0.000000,0.000000,0.000000,0.000000,819,819,819,819
7736,0,2.250000,0.850000,-0.062592,0.00,-0.00,-0.001203,0.004000,0.000000,0.399995,0.000000,0.000000,0.000000,0.000000,0.000000,0.002056,0.000006,0.000000,0.000000,0.000000,0.000000,819,819,819,819
7746,0,2.250000,0.850000,-0.062592,0.00,-0.00,-0.001089,0.004000,0.000000,0.399995,0.000000,0.000000,0.000000,0.000000,0.000002,0.002056,0.000005,0.000000,0.000000,0.000000,0.000000,819,819,819,819
7756,0,2.250000,0.850000,-0.062592,0.00,-0.00,-0.000882,0.004000,0.000000,0.399995,0.000000,0.000000,0.000000,0.000000,0.000001,0.002055,0.000004,0.000000,0.000000,0.000000,0.000000,819,819,819,819
7766,0,2.250000,0.850000,-0.062592,0.00,-0.00,-0.000383,0.003000,0.000000,0.399995,0.000000,0.000000,0.000000,0.000000,0.000000,0.002053,0.000002,0.000000,0.000000,0.000000,0.000000,819,819,819,819
7784,0,2.250000,0.850000,-0.062592,0.00,-0.00,-0.000347,0.003000,0.000000,0.399995,0.000000,0.000000,0.000000,0.000000,0.000001,0.002051,0.000002,0.000000,0.000000,0.000000,0.000000,819,819,819,819
7795,0,2.250000,0.850000,-0.062592,0.00,0.00,-0.000418,0.003000,0.000000,0.399995,0.000000,0.000000,0.000000,0.000000,0.000000,0.002050,0.000002,0.000000,0.000000,0.000000,0.000000,819,819,819,819
7806,0,2.250000,0.850000,-0.062592,0.00,0.00,-0.000274,0.004000,0.000000,0.399995,0.000000,0.000000,0.000000,0.000000,0.000001,0.002049,0.000001,0.000000,0.000000,0.000000,0.000000,819,819,819,819
7816,0,2.250000,0.850000,-0.062592,0.00,0.00,-0.000145,0.004000,0.000000,0.399995,0.000000,0.000000,0.000000,0.000000,0.000000,0.002050,0.000000,0.000000,0.000000,0.000000,0.000000,819,819,819,819
7826,0,2.250000,0.850000,-0.062592,0.00,-0.00,-0.000027,0.004000,0.000000,0.399995,0.000000,0.000000,0.000000,0.000000,0.000000,0.002052,0.000000,0.000000,0.000000,0.000000,0.000000,819,819,819,819
7836,0,2.250000,0.850000,-0.062592,0.00,0.00,-0.000025,0.004000,0.000000,0.399995,0.000000,0.000000,0.000000,0.000000,0.000000,0.002051,0.000000,0.000000,0.000000,0.000000,0.000000,819,819,819,819
7848,0,2.250000,0.850000,-0.062592,-0.00,0.00,-0.000022,0.004000,0.000000,0.399995,0.000000,0.000000,0.000000,0.000000,-0.000000,0.002050,0.000000,0.000000,0.000000,0.000000,0.000000,819,819,819,819
7858,0,2.250000,0.850000,-0.062592,-0.00,0.00,-0.000124,0.003000,0.000000,0.399995,0.000000,0.000000,0.000000,0.000000,-0.000000,0.002048,0.000000,0.000000,0.000000,0.000000,0.000000,819,819,819,819
7867,0,2.250000,0.850000,-0.062592,-0.00,0.00,-0.000008,0.003000,0.000000,0.399995,0.000000,0.000000,0.000000,0.000000,-0.000000,0.002047,0.000000,0.000000,0.000000,0.000000,0.000000,819,819,819,819
7877,0,2.250000,0.850000,-0.062592,-0.00,0.00,0.000303,0.003000,0.000000,0.399995,0.000000,0.000000,0.000000,0.000000,-0.000000,0.002046,-0.000002,0.000000,0.000000,0.000000,0.000000,819,819,819,819
7887,0,2.250000,0.850000,-0.062592,-0.00,0.00,0.000171,0.003000,0.000000,0.399995,0.000000,0.000000,0.000000,0.000000,-0.000001,0.002046,-0.000000,0.000000,0.000000,0.000000,0.000000,819,819,819,819
7897,0,2.250000,0.850000,-0.062592,-0.00,0.00,0.000465,0.004000,0.000000,0.399995,0.000000,0.000000,0.000000,0.000000,-0.000001,0.002046,-0.000002,0.000000,0.000000,0.000000,0.000000,819,819,819,819
7907,0,2.250000,0.850000,-0.062592,-0.00,0.00,0.000318,0.004000,0.000000,0.399995,0.000000,0.000000,0.000000,0.000000,-0.000000,0.002046,-0.000002,0.000000,0.000000,0.000000,0.000000,819,819,819,819
7917,0,2.250000,0.850000,-0.062592,-0.00,0.00,0.000287,0.004000,0.000000,0.399995,0.000000,0.000000,0.000000,0.000000,-0.000000,0.002045,-0.000001,0.000000,0.000000,0.000000,0.000000,819,819,819,819
7927,0,2.250000,0.850000,-0.062592,-0.00,0.00,0.000260,0.004000,0.000000,0.399995,0.000000,0.000000,0.000000,0.000000,-0.000001,0.002044,-0.000001,0.000000,0.000000,0.000000,0.000000,819,819,819,819
7937,0,2.250000,0.850000,-0.062592,-0.00,0.00,0.000235,0.004000,0.000000,0.399995,0.000000,0.000000,0.000000,0.000000,-0.000000,0.002046,-0.000001,0.000000,0.000000,0.000000,0.000000,819,819,819,819
7947,0,2.250000,0.850000,-0.062592,-0.00,0.00,0.000109,0.004000,0.000000,0.399995,0.000000,0.000000,0.000000,0.000000,-0.000000,0.002046,-0.000000,0.000000,0.000000,0.000000,0.000000,819,819,819,819
7957,0,2.250000,0.850000,-0.062592,0.00,0.00,0.000099,0.004000,0.000000,0.399995,0.000000,0.000000,0.000000,0.000000,0.000000,0.002045,-0.000000,0.000000,0.000000,0.000000,0.000000,819,819,819,819
7967,0,2.250000,0.850000,-0.062592,-0.00,0.00,0.000090,0.004000,0.000000,0.399995,0.000000,0.000000,0.000000,0.000000,-0.000000,0.002045,-0.000000,0.000000,0.000000,0.000000,0.000000,819,819,819,819
7977,0,2.250000,0.850000,-0.062592,-0.00,0.00,0.000288,0.004000,0.000000,0.399995,0.000000,0.000000,0.000000,0.000000,-0.000001,0.002045,-0.000001,0.000000,0.000000,0.000000,0.000000,819,819,819,819
7987,0,2.250000,0.850000,-0.062592,-0.00,0.00,0.000365,0.003000,0.000000,0.399995,0.000000,0.000000,0.000000,0.000000,-0.000001,0.002046,-0.000002,0.000000,0.000000,0.000000,0.000000,819,819,819,819
7997,0,2.250000,0.850000,-0.062592,-0.00,0.00,0.000434,0.003000,0.000000,0.399995,0.000000,0.000000,0.000000,0.000000,-0.000002,0.002044,-0.000002,0.000000,0.000000,0.000000,0.000000,819,819,819,819
8007,0,2.250000,0.850000,-0.062592,-0.00,0.00,0.000392,0.003000,0.000000,0.399995,0.000000,0.000000,0.000000,0.000000,-0.000002,0.002044,-0.000002,0.000000,0.000000,0.000000,0.000000,819,819,819,819
8017,0,2.250000,0.850000,-0.062592,-0.00,0.00,0.000459,0.004000,0.000000,0.399995,0.000000,0.000000,0.000000,0.000000,-0.000001,0.002045,-0.000002,0.000000,0.000000,0.000000,0.000000,819,819,819,819
8027,0,2.250000,0.850000,-0.062592,-0.00,0.00,0.000519,0.004000,0.000000,0.399995,0.000000,0.000000,0.000000,0.000000,-0.000001,0.002044,-0.000003,0.000000,0.000000,0.000000,0.000000,819,819,819,819
8037,0,2.250000,0.850000,-0.062592,-0.00,0.00,0.000159,0.004000,0.000000,0.399995,0.000000,0.000000,0.000000,0.000000,-0.000002,0.002045,-0.000000,0.000000,0.000000,0.000000,0.000000,819,819,819,819
8047,0,2.250000,0.850000,-0.062592,-0.00,0.00,0.000040,0.004000,0.000000,0.399995,0.000000,0.000000,0.000000,0.000000,-0.000002,0.002045,-0.000000,0.000000,0.000000,0.000000,0.000000,819,819,819,819
8057,0,2.250000,0.850000,-0.062592,-0.00,0.00,0.000243,0.004000,0.000000,0.399995,0.000000,0.000000,0.000000,0.000000,-0.000000,0.002045,-0.000001,0.000000,0.000000,0.000000,0.000000,819,819,819,819
8067,0,2.250000,0.850000,-0.062592,-0.00,0.00,0.000117,0.004000,0.000000,0.399995,0.000000,0.000000,0.000000,0.000000,-0.000000,0.002045,-0.000000,0.000000,0.000000,0.000000,0.000000,819,819,819,819
8077,0,2.250000,0.850000,-0.062592,-0.00,0.00,0.000209,0.004000,0.000000,0.399995,0.000000,0.000000,0.000000,0.000000,-0.000000,0.002047,-0.000001,0.000000,0.000000,0.000000,0.000000,819,819,819,819
8093,0,2.250000,0.850000,-0.062592,-0.00,0.00,0.000293,0.004000,0.000000,0.399995,0.000000,0.000000,0.000000,0.000000,-0.000001,0.002047,-0.000001,0.000000,0.000000,0.000000,0.000000,819,819,819,819
8104,0,2.250000,0.850000,-0.062592,-0.00,0.00,0.000058,0.004000,0.000000,0.399995,0.000000,0.000000,0.000000,0.000000,-0.000000,0.002047,-0.000000,0.000000,0.000000,0.000000,0.000000,819,819,819,819
8116,0,2.250000,0.850000,-0.062592,-0.00,0.00,0.000260,0.004000,0.000000,0.399995,0.000000,0.000000,0.000000,0.000000,-0.000002,0.002047,-0.000001,0.000000,0.000000,0.000000,0.000000,819,819,819,819
8127,0,2.250000,0.850000,-0.062592,-0.00,0.00,0.000235,0.004000,0.000000,0.399995,0.000000,0.000000,0.000000,0.000000,-0.000000,0.002047,-0.000001,0.000000,0.000000,0.000000,0.000000,819,819,819,819
8137,0,2.250000,0.850000,-0.062592,-0.00,0.00,0.000316,0.004000,0.000000,0.399995,0.000000,0.000000,0.000000,0.000000,-0.000000,0.002047,-0.000002,0.000000,0.000000,0.000000,0.000000,819,819,819,819
8147,0,2.250000,0.850000,-0.062592,-0.00,0.00,0.000183,0.004000,0.000000,0.399995,0.000000,0.000000,0.000000,0.000000,-0.000000,0.002046,-0.000000,0.000000,0.000000,0.000000,0.000000,819,819,819,819
8157,0,2.250000,0.850000,-0.062592,-0.00,0.00,0.000269,0.004000,0.000000,0.399995,0.000000,0.000000,0.000000,0.000000,-0.000001,0.002047,-0.000001,0.000000,0.000000,0.000000,0.000000,819,819,819,819
8167,0,2.250000,0.850000,-0.062592,-0.00,0.00,0.000140,0.004000,0.000000,0.399995,0.000000,0.000000,0.000000,0.000000,-0.000002,0.002047,-0.000000,0.000000,0.000000,0.000000,0.000000,819,819,819,819
8177,0,2.250000,0.850000,-0.062592,-0.00,0.00,0.000230,0.004000,0.000000,0.399995,0.000000,0.000000,0.000000,0.000000,-0.000002,0.002046,-0.000001,0.000000,0.000000,0.000000,0.000000,819,819,819,819
8187,0,2.250000,0.850000,-0.062592,-0.00,0.00,0.000415,0.004000,0.000000,0.399995,0.000000,0.000000,0.000000,0.000000,-0.000001,0.002047,-0.000002,0.000000,0.000000,0.000000,0.000000,819,819,819,819
8197,0,2.250000,0.850000,-0.062592,-0.00,0.00,0.000687,0.004000,0.000000,0.399995,0.000000,0.000000,0.000000,0.000000,-0.000002,0.002047,-0.000003,0.000000,0.000000,0.000000,0.000000,819,819,819,819
8207,0,2.250000,0.850000,-0.062592,-0.00,0.00,0.000829,0.004000,0.000000,0.399995,0.000000,0.000000,0.000000,0.000000,-0.000002,0.002046,-0.000004,0.000000,0.000000,0.000000,0.000000,819,819,819,819
8217,0,2.250000,0.850000,-0.062592,-0.00,0.00,0.000750,0.005000,0.000000,0.399995,0.000000,0.000000,0.000000,0.000000,-0.000000,0.002046,-0.000004,0.000000,0.000000,0.000000,0.000000,819,819,819,819
8227,0,2.250000,0.850000,-0.062592,-0.00,0.00,0.000679,0.012000,0.000000,0.399995,0.000000,0.000000,0.000000,0.000000,-0.000000,0.002045,-0.000003,0.000000,0.000000,0.000000,0.000000,819,819,819,819
8238,0,2.250000,0.850000,-0.062592,0.00,0.00,0.000511,0.012000,0.000000,0.399995,0.000000,0.000000,0.000000,0.000000,0.000000,0.002044,-0.000003,0.000000,0.000000,0.000000,0.000000,819,819,819,819
8247,0,2.250000,0.850000,-0.062592,0.00,0.00,0.000566,0.031000,0.000000,0.399995,0.000000,0.000000,0.000000,0.000000,0.000000,0.002042,-0.000003,0.033039,0.028960,0.033046,0.028955,1000,1000,1000,1000
8257,0,2.250000,0.850000,-0.062592,0.00,0.00,0.000616,0.037000,0.000000,0.399995,0.000000,0.000000,0.000000,0.000000,0.000000,0.002042,-0.000003,0.039038,0.034960,0.039046,0.034956,1000,1000,1000,1000
8268,0,2.250000,0.850000,-0.062592,0.00,0.00,0.000454,0.037000,0.000000,0.399995,0.000000,0.000000,0.000000,0.000000,0.000000,0.002041,-0.000002,0.039038,0.034961,0.039044,0.034957,1000,1000,1000,1000
8278,0,2.250000,0.850000,-0.062592,0.00,0.00,0.000411,0.044000,0.000000,0.399995,0.000000,0.000000,0.000000,0.000000,0.000000,0.002041,-0.000002,0.046039,0.041961,0.046043,0.041957,1000,1000,1000,1000
8288,0,2.250000,0.850000,-0.062592,-0.00,0.00,0.000372,0.045000,0.000000,0.399995,0.000000,0.000000,0.000000,0.000000,-0.000000,0.002043,-0.000002,0.047042,0.042959,0.047045,0.042954,1000,1000,1000,1000
8298,0,2.250000,0.850000,-0.062592,0.00,0.00,0.000336,0.046000,0.000000,0.399995,0.000000,0.000000,0.000000,0.000000,0.000000,0.002044,-0.000002,0.048042,0.043958,0.048046,0.043955,1000,1000,1000,1000
8308,0,2.250000,0.850000,-0.062592,-0.00,0.00,0.001133,0.046000,0.000000,0.399995,0.000000,0.000000,0.000000,0.000000,-0.000005,0.002047,-0.000006,0.048046,0.043963,0.048048,0.043943,1000,1000,1000,1000
8318,0,2.237500,0.850000,-0.062592,-0.01,0.00,0.004756,0.046000,0.000000,0.399995,0.000000,0.000000,0.000000,0.000000,-0.000052,0.002044,-0.000024,0.048072,0.044031,0.048016,0.043880,1000,1000,1000,1000
8328,0,2.227500,0.850000,-72.050079,-0.02,0.00,0.008242,0.048000,0.000000,0.399995,0.000000,0.000000,0.000000,0.000000,-0.000098,0.002047,-0.000041,0.050104,0.046092,0.049990,0.045813,1000,1000,1000,1000
8338,0,2.219500,0.850000,-129.640060,-0.02,-0.00,0.007459,0.048000,0.000000,0.399995,0.000000,0.000000,0.000000,0.000000,-0.000119,0.002055,-0.000037,0.050137,0.046102,0.049973,0.045789,1000,1000,1000,1000
8348,0,2.213100,0.850000,-175.712051,-0.03,-0.00,0.004885,0.048000,0.000000,0.399995,0.000000,0.000000,0.000000,0.000000,-0.000127,0.002062,-0.000024,0.050164,0.046089,0.049959,0.045787,1000,1000,1000,1000
8358,0,2.207980,0.850000,147.430359,-0.03,-0.00,0.001727,0.048000,0.000000,0.399995,0.000000,0.000000,0.000000,0.000000,-0.000127,0.002058,-0.000009,0.050177,0.046077,0.049940,0.045806,1000,1000,1000,1000
8368,0,2.203884,0.850000,117.944290,-0.03,-0.00,-0.001028,0.048000,0.000000,0.399995,0.000000,0.000000,0.000000,0.000000,-0.000129,0.002056,0.000005,0.050191,0.046068,0.049922,0.045820,1000,1000,1000,1000
8378,0,2.213107,0.850000,94.355431,-0.02,-0.00,-0.003314,0.049000,0.000000,0.399995,0.000000,0.000000,0.000000,0.000000,-0.000101,0.002051,0.000017,0.051168,0.047033,0.050934,0.046865,1000,1000,1000,1000
8388,0,2.220486,0.850000,75.484344,-0.02,-0.00,-0.002688,0.049000,0.000000,0.399995,0.000000,0.000000,0.000000,0.000000,-0.000079,0.002048,0.000013,0.051141,0.047017,0.050956,0.046886,1000,1000,1000,1000
8398,0,2.226389,0.850000,60.399979,-0.01,0.00,-0.001707,0.049000,0.000000,0.399995,0.000000,0.000000,0.000000,0.000000,-0.000070,0.002043,0.000009,0.051121,0.047019,0.050964,0.046896,1000,1000,1000,1000
8415,0,2.231111,0.850000,48.332485,-0.02,0.00,-0.000094,0.049000,0.000000,0.399995,0.000000,0.000000,0.000000,0.000000,-0.000081,0.002036,0.000000,0.051117,0.047044,0.050955,0.046883,1000,1000,1000,1000
8428,0,2.222389,0.837500,38.703487,-0.03,-0.00,0.004371,0.049000,0.000000,0.399995,0.000000,0.000000,0.000000,0.000000,-0.000152,0.002052,-0.000022,0.051182,0.047123,0.050921,0.046774,1000,1000,1000,1000
8438,0,2.202911,0.827500,31.012789,-0.05,-0.00,0.009966,0.049000,0.000000,0.399995,0.000000,0.000000,0.000000,0.000000,-0.000265,0.002070,-0.000050,0.051285,0.047244,0.050856,0.046615,1000,1000,1000,1000
8448,0,2.187329,0.819500,24.860231,-0.07,-0.00,0.016688,0.048000,0.000000,0.399995,0.000000,0.000000,0.000000,0.000000,-0.000364,0.002085,-0.000083,0.050366,0.046362,0.049805,0.045467,1000,1000,1000,1000
8458,0,2.174863,0.813100,19.975685,-0.08,-0.01,0.009921,0.048000,0.000000,0.399995,0.000000,0.000000,0.000000,0.000000,-0.000425,0.002102,-0.000050,0.050477,0.046373,0.049726,0.045424,1000,1000,1000,1000
8468,0,2.202391,0.807980,16.080547,-0.06,-0.02,-0.021385,0.048000,0.000000,0.399995,0.000000,0.000000,0.000000,0.000000,-0.000325,0.002129,0.000107,0.050561,0.046089,0.049698,0.045653,1000,1000,1000,1000
8478,0,2.261913,0.803884,12.964438,-0.03,-0.02,-0.050027,0.048000,0.000000,0.399995,0.000000,0.000000,0.000000,0.000000,-0.000150,0.002145,0.000250,0.050545,0.045754,0.049745,0.045955,1000,1000,1000,1000
8488,0,2.309530,0.800607,10.471551,-0.00,-0.01,-0.069006,0.048000,0.000000,0.399995,0.000000,0.000000,0.000000,0.000000,-0.000009,0.002116,0.000345,0.050470,0.045548,0.049762,0.046220,1000,1000,1000,1000
8498,0,2.385124,0.785486,8.464741,0.04,-0.00,-0.077166,0.048000,0.000000,0.399995,0.000000,0.000000,0.000000,0.000000,0.000194,0.002086,0.000386,0.050278,0.045334,0.049894,0.046494,1000,1000,1000,1000
8508,0,2.445599,0.760889,6.859293,0.07,-0.01,-0.066519,0.048000,0.000000,0.399995,0.000000,0.000000,0.000000,0.000000,0.000349,0.002105,0.000333,0.050089,0.045213,0.050122,0.046576,1000,1000,1000,1000
8518,0,2.481479,0.741211,5.562434,0.09,-0.02,-0.045691,0.048000,0.000000,0.399995,0.000000,0.000000,0.000000,0.000000,0.000428,0.002155,0.000228,0.049956,0.045188,0.050355,0.046501,1000,1000,1000,1000
8528,0,2.485184,0.737969,4.524947,0.08,-0.03,-0.022490,0.048000,0.000000,0.399995,0.000000,0.000000,0.000000,0.000000,0.000399,0.002183,0.000112,0.049896,0.045305,0.050470,0.046329,1000,1000,1000,1000
8539,0,2.463147,0.747875,3.694958,0.06,-0.03,-0.002840,0.048000,0.000000,0.399995,0.000000,0.000000,0.000000,0.000000,0.000307,0.002189,0.000014,0.049896,0.045490,0.050482,0.046133,1000,1000,1000,1000
8548,0,2.433017,0.755800,3.030966,0.04,-0.02,0.014839,0.048000,0.000000,0.399995,0.000000,0.000000,0.000000,0.000000,0.000190,0.002168,-0.000074,0.049904,0.045717,0.050432,0.045948,1000,1000,1000,1000
8559,0,2.383914,0.762140,2.499773,0.01,-0.02,0.030943,0.048000,0.000000,0.399995,0.000000,0.000000,0.000000,0.000000,0.000065,0.002139,-0.000155,0.049919,0.045951,0.050359,0.045772,1000,1000,1000,1000
8569,0,2.332131,0.754712,2.074818,-0.01,-0.02,0.040749,0.048000,0.000000,0.399995,0.000000,0.000000,0.000000,0.000000,-0.000070,0.002124,-0.000204,0.049990,0.046149,0.050258,0.045602,1000,1000,1000,1000
8579,0,2.278205,0.748770,1.734855,-0.04,-0.01,0.046309,0.048000,0.000000,0.399995,0.000000,0.000000,0.000000,0.000000,-0.000218,0.002122,-0.000232,0.050108,0.046328,0.050136,0.045429,1000,1000,1000,1000
8589,0,2.235064,0.744016,1.475384,-0.06,-0.01,0.045951,0.048000,0.000000,0.399995,0.000000,0.000000,0.000000,0.000000,-0.000315,0.002116,-0.000230,0.050201,0.046429,0.050030,0.045339,1000,1000,1000,1000
8598,0,2.200551,0.740213,1.267807,-0.08,-0.02,0.041482,0.048000,0.000000,0.399995,0.000000,0.000000,0.000000,0.000000,-0.000395,0.002125,-0.000207,0.050312,0.046478,0.049937,0.045273,1000,1000,1000,1000
8609,0,2.172941,0.737170,1.101746,-0.08,-0.02,0.030183,0.048000,0.000000,0.399995,0.000000,0.000000,0.000000,0.000000,-0.000419,0.002123,-0.000151,0.050392,0.046447,0.049855,0.045306,1000,1000,1000,1000
8619,0,2.163353,0.734736,0.968897,-0.08,-0.02,0.015710,0.048000,0.000000,0.399995,0.000000,0.000000,0.000000,0.000000,-0.000385,0.002125,-0.000079,0.050431,0.046338,0.049819,0.045412,1000,1000,1000,1000
8629,0,2.180682,0.732789,0.862617,-0.06,-0.01,0.001263,0.048000,0.000000,0.399995,0.000000,0.000000,0.000000,0.000000,-0.000294,0.002122,-0.000006,0.050409,0.046179,0.049834,0.045578,1000,1000,1000,1000
8639,0,2.194546,0.731231,0.777594,-0.05,-0.01,-0.005800,0.048000,0.000000,0.399995,0.000000,0.000000,0.000000,0.000000,-0.000231,0.002119,0.000029,0.050379,0.046083,0.049859,0.045679,1000,1000,1000,1000
8649,0,2.205637,0.729985,0.709575,-0.04,-0.01,-0.008254,0.048000,0.000000,0.399995,0.000000,0.000000,0.000000,0.000000,-0.000191,0.002105,0.000041,0.050337,0.046045,0.049872,0.045745,1000,1000,1000,1000
8659,0,2.227009,0.728988,0.655160,-0.02,-0.01,-0.012133,0.048000,0.000000,0.399995,0.000000,0.000000,0.000000,0.000000,-0.000118,0.002099,0.000061,0.050278,0.045958,0.049921,0.045843,1000,1000,1000,1000
8669,0,2.244107,0.728190,0.611628,-0.01,-0.01,-0.015437,0.048000,0.000000,0.399995,0.000000,0.000000,0.000000,0.000000,-0.000059,0.002097,0.000077,0.050233,0.045885,0.049960,0.045922,1000,1000,1000,1000
8681,0,2.270286,0.727552,0.564302,0.00,-0.00,-0.017908,0.048000,0.000000,0.399995,0.000000,0.000000,0.000000,0.000000,0.000013,0.002092,0.000090,0.050168,0.045805,0.050016,0.046011,1000,1000,1000,1000
8690,0,2.278729,0.727042,0.526442,0.00,-0.00,-0.013616,0.048000,0.000000,0.399995,0.000000,0.000000,0.000000,0.000000,0.000043,0.002081,0.000068,0.050106,0.045807,0.050056,0.046030,1000,1000,1000,1000
8700,0,2.285483,0.726633,0.496154,0.01,-0.00,-0.003410,0.048000,0.000000,0.399995,0.000000,0.000000,0.000000,0.000000,0.000050,0.002077,0.000017,0.050044,0.045856,0.050110,0.045990,1000,1000,1000,1000
8709,0,2.278387,0.726307,0.484423,0.00,-0.00,0.007380,0.048000,0.000000,0.399995,0.000000,0.000000,0.000000,0.000000,0.000018,0.002081,-0.000037,0.050027,0.045938,0.050136,0.045900,1000,1000,1000,1000
8727,0,2.260209,0.726045,0.475038,-0.00,-0.00,0.013415,0.048000,0.000000,0.399995,0.000000,0.000000,0.000000,0.000000,-0.000016,0.002073,-0.000067,0.050022,0.046010,0.050125,0.045844,1000,1000,1000,1000
8738,0,2.245667,0.725836,0.467531,-0.00,-0.00,0.013902,0.048000,0.000000,0.399995,0.000000,0.000000,0.000000,0.000000,-0.000047,0.002067,-0.000070,0.050045,0.046049,0.050090,0.045816,1000,1000,1000,1000
8748,0,2.234034,0.725669,0.461525,-0.02,-0.00,0.016416,0.048000,0.000000,0.399995,0.000000,0.000000,0.000000,0.000000,-0.000077,0.002078,-0.000082,0.050072,0.046081,0.050083,0.045764,1000,1000,1000,1000
8759,0,2.212227,0.725535,0.456720,-0.03,-0.00,0.020452,0.048000,0.000000,0.399995,0.000000,0.000000,0.000000,0.000000,-0.000127,0.002087,-0.000102,0.050111,0.046142,0.050062,0.045684,1000,1000,1000,1000
8769,0,2.194782,0.737928,0.452876,-0.03,-0.00,0.017680,0.048000,0.000000,0.399995,0.000000,0.000000,0.000000,0.000000,-0.000160,0.002058,-0.000088,0.050130,0.046191,0.049986,0.045693,1000,1000,1000,1000
8779,0,2.180826,0.747843,0.449801,-0.04,0.00,0.011026,0.048000,0.000000,0.399995,0.000000,0.000000,0.000000,0.000000,-0.000178,0.002041,-0.000055,0.050163,0.046192,0.049918,0.045726,1000,1000,1000,1000
8789,0,2.182161,0.755774,0.447340,-0.03,0.00,0.002207,0.048000,0.000000,0.399995,0.000000,0.000000,0.000000,0.000000,-0.000149,0.002020,-0.000011,0.050158,0.046140,0.049882,0.045820,1000,1000,1000,1000
8799,0,2.195729,0.762119,0.445372,-0.02,0.00,-0.005879,0.048000,0.000000,0.399995,0.000000,0.000000,0.000000,0.000000,-0.000102,0.001998,0.000029,0.050129,0.046075,0.049866,0.045930,1000,1000,1000,1000
8809,0,2.206583,0.754695,0.443798,-0.01,0.00,-0.008844,0.048000,0.000000,0.399995,0.000000,0.000000,0.000000,0.000000,-0.000070,0.001999,0.000044,0.050114,0.046027,0.049884,0.045975,1000,1000,1000,1000
8819,0,2.215266,0.748756,0.442538,-0.00,0.00,-0.006656,0.048000,0.000000,0.399995,0.000000,0.000000,0.000000,0.000000,-0.000045,0.002012,0.000033,0.050090,0.046000,0.049934,0.045977,1000,1000,1000,1000
8829,0,2.222213,0.744005,0.441531,-0.00,0.00,-0.006438,0.048000,0.000000,0.399995,0.000000,0.000000,0.000000,0.000000,-0.000018,0.002025,0.000032,0.050076,0.045961,0.049975,0.045989,1000,1000,1000,1000
8839,0,2.227770,0.740204,0.440725,0.00,0.00,-0.006449,0.048000,0.000000,0.399995,0.000000,0.000000,0.000000,0.000000,0.000006,0.002043,0.000032,0.050069,0.045919,0.050016,0.045995,1000,1000,1000,1000
8850,0,2.232216,0.737163,0.440080,0.00,-0.00,-0.008945,0.049000,0.000000,0.399995,0.000000,0.000000,0.000000,0.000000,0.000017,0.002056,0.000045,0.051084,0.046882,0.051028,0.047005,1000,1000,1000,1000
8860,0,2.235773,0.734731,0.439564,0.00,-0.00,-0.004986,0.049000,0.000000,0.399995,0.000000,0.000000,0.000000,0.000000,0.000024,0.002066,0.000025,0.051067,0.046885,0.051065,0.046983,1000,1000,1000,1000
8869,0,2.226119,0.732784,0.439151,-0.00,-0.00,0.004089,0.049000,0.000000,0.399995,0.000000,0.000000,0.000000,0.000000,-0.000011,0.002073,-0.000020,0.051064,0.046959,0.051082,0.046895,1000,1000,1000,1000
8879,0,2.218395,0.731228,0.438821,-0.00,-0.00,0.009400,0.049000,0.000000,0.399995,0.000000,0.000000,0.000000,0.000000,-0.000032,0.002068,-0.000047,0.051053,0.047011,0.051083,0.046853,1000,1000,1000,1000
8890,0,2.199716,0.729982,0.438557,-0.01,-0.00,0.012756,0.049000,0.000000,0.399995,0.000000,0.000000,0.000000,0.000000,-0.000071,0.002074,-0.000064,0.051082,0.047061,0.051066,0.046791,1000,1000,1000,1000
8900,0,2.184773,0.728986,0.438345,-0.02,-0.00,0.013098,0.049000,0.000000,0.399995,0.000000,0.000000,0.000000,0.000000,-0.000103,0.002077,-0.000065,0.051115,0.047092,0.051039,0.046754,1000,1000,1000,1000
8909,0,2.172818,0.728189,0.438176,-0.02,-0.00,0.012268,0.051000,0.000000,0.399995,0.000000,0.000000,0.000000,0.000000,-0.000121,0.002085,-0.000061,0.053145,0.049098,0.053025,0.048732,1000,1000,1000,1000
8919,0,2.163255,0.727551,0.438041,-0.03,-0.00,0.011517,0.051000,0.000000,0.399995,0.000000,0.000000,0.000000,0.000000,-0.000137,0.002080,-0.000058,0.053160,0.049115,0.053000,0.048725,1000,1000,1000,1000
8929,0,2.168104,0.727041,0.437933,-0.02,-0.00,0.004413,0.051000,0.000000,0.399995,0.000000,0.000000,0.000000,0.000000,-0.000117,0.002068,-0.000022,0.053163,0.049072,0.052973,0.048793,1000,1000,1000,1000
8940,0,2.184483,0.726633,0.437846,-0.01,-0.00,-0.005022,0.051000,0.000000,0.399995,0.000000,0.000000,0.000000,0.000000,-0.000069,0.002057,0.000025,0.053151,0.048987,0.052962,0.048899,1000,1000,1000,1000
8950,0,2.197587,0.726306,0.437777,-0.00,-0.00,-0.011903,0.052000,0.000000,0.399995,0.000000,0.000000,0.000000,0.000000,-0.000030,0.002048,0.000060,0.054138,0.049922,0.053959,0.049981,1000,1000,1000,1000
8959,0,2.220569,0.726045,0.437722,0.00,-0.00,-0.016161,0.052000,0.000000,0.399995,0.000000,0.000000,0.000000,0.000000,0.000039,0.002052,0.000081,0.054094,0.049827,0.054011,0.050068,1000,1000,1000,1000
8970,0,2.238955,0.725836,0.437677,0.02,-0.00,-0.016491,0.052000,0.000000,0.399995,0.000000,0.000000,0.000000,0.000000,0.000077,0.002053,0.000082,0.054059,0.049788,0.054047,0.050106,1000,1000,1000,1000
8979,0,2.253664,0.725669,0.437642,0.02,-0.00,-0.014302,0.057000,0.000000,0.399995,0.000000,0.000000,0.000000,0.000000,0.000109,0.002060,0.000072,0.059022,0.054760,0.059097,0.055121,1000,1000,1000,1000
8990,0,2.265432,0.725535,0.437613,0.03,-0.00,-0.008591,0.057000,0.000000,0.399995,0.000000,0.000000,0.000000,0.000000,0.000128,0.002061,0.000043,0.058976,0.054768,0.059146,0.055110,1000,1000,1000,1000
9000,0,2.262345,0.725428,0.437591,0.02,-0.00,-0.001765,0.057000,0.000000,0.399995,0.000000,0.000000,0.000000,0.000000,0.000111,0.002059,0.000009,0.058957,0.054821,0.059161,0.055061,1000,1000,1000,1000
9010,0,2.259876,0.725342,0.437573,0.02,-0.00,0.003688,0.063000,0.000000,0.399995,0.000000,0.000000,0.000000,0.000000,0.000091,0.002057,-0.000018,0.064947,0.060871,0.065166,0.061016,1000,1000,1000,1000
9020,0,2.245401,0.725274,0.437558,0.00,-0.00,0.008208,0.065000,0.000000,0.399995,0.000000,0.000000,0.000000,0.000000,0.000043,0.002054,-0.000041,0.066970,0.062944,0.067138,0.062948,1000,1000,1000,1000
9030,0,2.233821,0.725219,0.437547,0.00,-0.00,0.011885,0.065000,0.000000,0.399995,0.000000,0.000000,0.000000,0.000000,0.000010,0.002058,-0.000059,0.066989,0.062991,0.067128,0.062892,1000,1000,1000,1000
9046,0,2.224557,0.725175,0.437537,-0.00,-0.00,0.011999,0.068000,0.000000,0.399995,0.000000,0.000000,0.000000,0.000000,-0.000011,0.002054,-0.000060,0.070005,0.066018,0.070102,0.065875,1000,1000,1000,1000
9058,0,2.217146,0.725140,0.437530,-0.00,-0.00,0.010445,0.068000,0.000000,0.399995,0.000000,0.000000,0.000000,0.000000,-0.000023,0.002051,-0.000052,0.070022,0.066025,0.070080,0.065874,1000,1000,1000,1000
9069,0,2.211217,0.725112,0.437524,-0.00,-0.00,0.005618,0.070000,0.000000,0.399995,0.000000,0.000000,0.000000,0.000000,-0.000031,0.002054,-0.000028,0.072057,0.068005,0.072051,0.067887,1000,1000,1000,1000
9079,0,2.206473,0.725090,0.437519,-0.00,-0.00,-0.002066,0.070000,0.000000,0.399995,0.000000,0.000000,0.000000,0.000000,-0.000036,0.002051,0.000010,0.072098,0.067975,0.072005,0.067923,1000,1000,1000,1000
9090,0,2.227679,0.725072,0.437515,0.00,-0.00,-0.011507,0.070000,0.000000,0.399995,0.000000,0.000000,0.000000,0.000000,0.000015,0.002057,0.000058,0.072100,0.067871,0.072014,0.068015,1000,1000,1000,1000
9100,0,2.244643,0.725057,0.437512,0.01,-0.00,-0.017772,0.070000,0.000000,0.399995,0.000000,0.000000,0.000000,0.000000,0.000049,0.002057,0.000089,0.072097,0.067806,0.072017,0.068081,1000,1000,1000,1000
9110,0,2.270714,0.725046,0.437510,0.02,-0.00,-0.022612,0.071000,0.000000,0.399995,0.000000,0.000000,0.000000,0.000000,0.000100,0.002046,0.000113,0.073059,0.068741,0.073032,0.069167,1000,1000,1000,1000
9120,0,2.291571,0.725037,0.437508,0.03,0.00,-0.023987,0.071000,0.000000,0.399995,0.000000,0.000000,0.000000,0.000000,0.000148,0.002034,0.000120,0.073006,0.068697,0.073063,0.069234,1000,1000,1000,1000
9130,0,2.308257,0.725029,0.437506,0.04,0.00,-0.019221,0.071000,0.000000,0.399995,0.000000,0.000000,0.000000,0.000000,0.000189,0.002025,0.000096,0.072932,0.068690,0.073118,0.069260,1000,1000,1000,1000
9140,0,2.321606,0.725024,0.437505,0.04,0.00,-0.012836,0.071000,0.000000,0.399995,0.000000,0.000000,0.000000,0.000000,0.000215,0.002034,0.000064,0.072883,0.068687,0.073185,0.069245,1000,1000,1000,1000
9150,0,2.319785,0.725019,0.437504,0.04,0.00,-0.002497,0.072000,0.000000,0.399995,0.000000,0.000000,0.000000,0.000000,0.000181,0.002039,0.000012,0.073871,0.069768,0.074207,0.070154,1000,1000,1000,1000
9160,0,2.305828,0.725015,0.437503,0.02,-0.00,0.006342,0.072000,0.000000,0.399995,0.000000,0.000000,0.000000,0.000000,0.000118,0.002053,-0.000032,0.073904,0.069860,0.074203,0.070033,1000,1000,1000,1000
9170,0,2.282162,0.725012,0.437503,0.00,-0.00,0.013822,0.072000,0.000000,0.399995,0.000000,0.000000,0.000000,0.000000,0.000044,0.002068,-0.000069,0.073954,0.069957,0.074181,0.069907,1000,1000,1000,1000
9180,0,2.263230,0.725010,0.437502,-0.00,-0.00,0.016965,0.079000,0.000000,0.399995,0.000000,0.000000,0.000000,0.000000,-0.000003,0.002067,-0.000085,0.080986,0.077020,0.081149,0.076845,1000,1000,1000,1000
9190,0,2.235584,0.725008,0.437502,-0.01,-0.00,0.022918,0.079000,0.000000,0.399995,0.000000,0.000000,0.000000,0.000000,-0.000071,0.002070,-0.000115,0.081026,0.077115,0.081114,0.076745,1000,1000,1000,1000
9200,0,2.213467,0.725006,0.437501,-0.02,-0.00,0.025093,0.079000,0.000000,0.399995,0.000000,0.000000,0.000000,0.000000,-0.000119,0.002071,-0.000125,0.081065,0.077174,0.081077,0.076684,1000,1000,1000,1000
9210,0,2.195774,0.725005,0.437501,-0.03,-0.00,0.023850,0.080000,0.000000,0.399995,0.000000,0.000000,0.000000,0.000000,-0.000145,0.002067,-0.000119,0.082093,0.078198,0.082041,0.077668,1000,1000,1000,1000
9220,0,2.181619,0.725004,0.437501,-0.03,-0.00,0.020962,0.080000,0.000000,0.399995,0.000000,0.000000,0.000000,0.000000,-0.000172,0.002064,-0.000105,0.082131,0.078213,0.081996,0.077660,1000,1000,1000,1000
9230,0,2.170295,0.725003,0.437501,-0.04,-0.00,0.019282,0.080000,0.000000,0.399995,0.000000,0.000000,0.000000,0.000000,-0.000192,0.002068,-0.000096,0.082164,0.078220,0.081973,0.077643,1000,1000,1000,1000
9240,0,2.161237,0.725002,0.450001,-0.04,-0.00,0.015999,0.081000,0.000000,0.399995,0.000000,0.000000,0.000000,0.000000,-0.000203,0.002065,-0.000080,0.083187,0.079218,0.082942,0.078653,1000,1000,1000,1000
9250,0,2.153989,0.725002,0.447500,-0.04,-0.00,0.007121,0.081000,0.000000,0.399995,0.000000,0.000000,0.000000,0.000000,-0.000197,0.002057,-0.000036,0.083219,0.079176,0.082895,0.078710,1000,1000,1000,1000
9260,0,2.160691,0.725002,0.445500,-0.03,0.00,-0.002778,0.081000,0.000000,0.399995,0.000000,0.000000,0.000000,0.000000,-0.000145,0.002038,0.000014,0.083197,0.079093,0.082880,0.078831,1000,1000,1000,1000
9270,0,2.178553,0.725001,0.443900,-0.02,0.00,-0.012048,0.081000,0.000000,0.399995,0.000000,0.000000,0.000000,0.000000,-0.000083,0.002023,0.000060,0.083167,0.078999,0.082880,0.078954,1000,1000,1000,1000
9280,0,2.192842,0.725001,0.442620,-0.00,0.00,-0.016189,0.081000,0.000000,0.399995,0.000000,0.000000,0.000000,0.000000,-0.000042,0.002024,0.000081,0.083146,0.078937,0.082901,0.079016,1000,1000,1000,1000
9290,0,2.216774,0.725001,0.441596,0.00,0.00,-0.016620,0.081000,0.000000,0.399995,0.000000,0.000000,0.000000,0.000000,0.000012,0.002028,0.000083,0.083099,0.078877,0.082957,0.079067,1000,1000,1000,1000
9300,0,2.235919,0.725001,0.440777,0.01,0.00,-0.014315,0.081000,0.000000,0.399995,0.000000,0.000000,0.000000,0.000000,0.000053,0.002039,0.000072,0.083058,0.078836,0.083021,0.079085,1000,1000,1000,1000
9310,0,2.238735,0.725001,0.440122,0.01,-0.00,-0.007463,0.082000,0.000000,0.399995,0.000000,0.000000,0.000000,0.000000,0.000058,0.002043,0.000037,0.084023,0.079862,0.084064,0.080052,1000,1000,1000,1000
9320,0,2.240988,0.725000,0.439597,0.01,-0.00,-0.004578,0.082000,0.000000,0.399995,0.000000,0.000000,0.000000,0.000000,0.000065,0.002046,0.000023,0.084003,0.079866,0.084088,0.080042,1000,1000,1000,1000
9330,0,2.242791,0.725000,0.439178,0.01,-0.00,0.001660,0.082000,0.000000,0.399995,0.000000,0.000000,0.000000,0.000000,0.000069,0.002055,-0.000008,0.083978,0.079885,0.084132,0.080005,1000,1000,1000,1000
9341,0,2.231733,0.725000,0.438842,0.00,-0.00,0.009896,0.086000,0.000000,0.399995,0.000000,0.000000,0.000000,0.000000,0.000031,0.002057,-0.000049,0.087977,0.083961,0.088138,0.083924,1000,1000,1000,1000
9350,0,2.222886,0.725000,0.438574,-0.00,-0.00,0.015692,0.086000,0.000000,0.399995,0.000000,0.000000,0.000000,0.000000,-0.000000,0.002061,-0.000078,0.087983,0.084018,0.088139,0.083860,1000,1000,1000,1000
9368,0,2.203309,0.725000,0.438359,-0.00,-0.00,0.016999,0.086000,0.000000,0.399995,0.000000,0.000000,0.000000,0.000000,-0.000026,0.002056,-0.000085,0.087997,0.084055,0.088115,0.083833,1000,1000,1000,1000
9380,0,2.187647,0.725000,0.438187,-0.01,-0.00,0.013519,0.086000,0.000000,0.399995,0.000000,0.000000,0.000000,0.000000,-0.000057,0.002058,-0.000068,0.088047,0.084066,0.088069,0.083818,1000,1000,1000,1000
9391,0,2.187618,0.725000,0.438050,-0.01,-0.00,0.009022,0.098000,0.000000,0.399995,0.000000,0.000000,0.000000,0.000000,-0.000053,0.002050,-0.000045,0.100058,0.096048,0.100042,0.095852,1000,1000,1000,1000
9401,0,2.187594,0.725000,0.437940,-0.01,0.00,0.006818,0.098000,0.000000,0.399995,0.000000,0.000000,0.000000,0.000000,-0.000053,0.002038,-0.000034,0.100057,0.096050,0.100018,0.095875,1000,1000,1000,1000
9411,0,2.187576,0.725000,0.437852,-0.00,0.00,0.001196,0.098000,0.000000,0.399995,0.000000,0.000000,0.000000,0.000000,-0.000046,0.002034,-0.000006,0.100074,0.096018,0.099994,0.095914,1000,1000,1000,1000
9421,0,2.200060,0.725000,0.437782,-0.00,0.00,-0.002337,0.098000,0.000000,0.399995,0.000000,0.000000,0.000000,0.000000,-0.000003,0.002036,0.000012,0.100051,0.095955,0.100021,0.095972,1000,1000,1000,1000
9431,0,2.210048,0.725000,0.437725,0.00,0.00,-0.006260,0.098000,0.000000,0.399995,0.000000,0.000000,0.000000,0.000000,0.000022,0.002036,0.000031,0.100045,0.095911,0.100026,0.096017,1000,1000,1000,1000
9441,0,2.218039,0.725000,0.437680,0.00,-0.00,-0.007013,0.098000,0.000000,0.399995,0.000000,0.000000,0.000000,0.000000,0.000037,0.002045,0.000035,0.100043,0.095883,0.100047,0.096027,1000,1000,1000,1000
9451,0,2.224431,0.725000,0.437644,0.00,-0.00,-0.009663,0.098000,0.000000,0.399995,0.000000,0.000000,0.000000,0.000000,0.000046,0.002047,0.000048,0.100050,0.095859,0.100044,0.096047,1000,1000,1000,1000
9461,0,2.242045,0.725000,0.437615,0.02,0.00,-0.012475,0.098000,0.000000,0.399995,0.000000,0.000000,0.000000,0.000000,0.000088,0.002037,0.000062,0.100012,0.095813,0.100062,0.096113,1000,1000,1000,1000
9471,0,2.243636,0.712500,0.437592,0.02,-0.00,-0.005902,0.098000,0.000000,0.399995,0.000000,0.000000,0.000000,0.000000,0.000083,0.002057,0.000030,0.100003,0.095830,0.100111,0.096056,1000,1000,1000,1000
9481,0,2.244909,0.702500,0.437574,0.02,-0.00,-0.003061,0.098000,0.000000,0.399995,0.000000,0.000000,0.000000,0.000000,0.000077,0.002072,0.000015,0.100010,0.095836,0.100133,0.096020,1000,1000,1000,1000
9491,0,2.245927,0.694500,0.437559,0.02,-0.00,-0.001112,0.098000,0.000000,0.399995,0.000000,0.000000,0.000000,0.000000,0.000075,0.002090,0.000006,0.100021,0.095829,0.100160,0.095990,1000,1000,1000,1000
9501,0,2.246742,0.688100,0.437547,0.01,-0.01,-0.001525,0.098000,0.000000,0.399995,0.000000,0.000000,0.000000,0.000000,0.000067,0.002105,0.000008,0.100046,0.095820,0.100164,0.095969,1000,1000,1000,1000
9511,0,2.247393,0.682980,0.437538,0.01,-0.01,-0.001276,0.098000,0.000000,0.399995,0.000000,0.000000,0.000000,0.000000,0.000056,0.002114,0.000006,0.100064,0.095823,0.100164,0.095949,1000,1000,1000,1000
9523,0,2.235415,0.678884,0.437530,0.00,-0.01,0.004648,0.098000,0.000000,0.399995,0.000000,0.000000,0.000000,0.000000,0.000023,0.002117,-0.000023,0.100070,0.095883,0.100163,0.095883,1000,1000,1000,1000
9533,0,2.225832,0.675607,0.437524,0.00,-0.02,0.006072,0.098000,0.000000,0.399995,0.000000,0.000000,0.000000,0.000000,0.000001,0.002121,-0.000030,0.100090,0.095908,0.100153,0.095849,1000,1000,1000,1000
9542,0,2.218165,0.685486,0.437519,-0.00,-0.01,0.008811,0.098000,0.000000,0.399995,0.000000,0.000000,0.000000,0.000000,-0.000017,0.002092,-0.000044,0.100065,0.095969,0.100120,0.095847,1000,1000,1000,1000
9552,0,2.212032,0.693389,0.437516,-0.00,-0.00,0.007352,0.098000,0.000000,0.399995,0.000000,0.000000,0.000000,0.000000,-0.000031,0.002067,-0.000037,0.100062,0.096000,0.100073,0.095865,1000,1000,1000,1000
9562,0,2.207126,0.699711,0.437512,-0.00,-0.00,0.003649,0.098000,0.000000,0.399995,0.000000,0.000000,0.000000,0.000000,-0.000039,0.002052,-0.000018,0.100072,0.096005,0.100032,0.095891,1000,1000,1000,1000
9572,0,2.203201,0.692269,0.437510,-0.00,-0.00,0.001540,0.098000,0.000000,0.399995,0.000000,0.000000,0.000000,0.000000,-0.000042,0.002058,-0.000008,0.100093,0.095992,0.100023,0.095892,1000,1000,1000,1000
9582,0,2.200061,0.686315,0.437508,-0.01,-0.00,0.001290,0.098000,0.000000,0.399995,0.000000,0.000000,0.000000,0.000000,-0.000050,0.002071,-0.000006,0.100114,0.095985,0.100028,0.095873,1000,1000,1000,1000
9592,0,2.197549,0.681552,0.437506,-0.01,-0.00,0.002411,0.098000,0.000000,0.399995,0.000000,0.000000,0.000000,0.000000,-0.000053,0.002075,-0.000012,0.100116,0.095990,0.100035,0.095860,1000,1000,1000,1000
9601,0,2.195539,0.677742,0.437505,-0.01,-0.00,0.001353,0.098000,0.000000,0.399995,0.000000,0.000000,0.000000,0.000000,-0.000053,0.002085,-0.000007,0.100131,0.095975,0.100039,0.095856,1000,1000,1000,1000
9611,0,2.193932,0.674693,0.437504,-0.01,-0.01,-0.000951,0.098000,0.000000,0.399995,0.000000,0.000000,0.000000,0.000000,-0.000053,0.002093,0.000005,0.100151,0.095956,0.100035,0.095859,1000,1000,1000,1000
9621,0,2.205145,0.672255,0.437503,-0.00,-0.01,-0.002830,0.098000,0.000000,0.399995,0.000000,0.000000,0.000000,0.000000,-0.000021,0.002103,0.000014,0.100139,0.095904,0.100068,0.095889,1000,1000,1000,1000
9631,0,2.214116,0.682804,0.437503,0.00,-0.00,-0.002561,0.098000,0.000000,0.399995,0.000000,0.000000,0.000000,0.000000,0.000003,0.002080,0.000013,0.100090,0.095905,0.100070,0.095936,1000,1000,1000,1000
9641,0,2.221293,0.691243,0.437502,0.00,-0.00,-0.002422,0.098000,0.000000,0.399995,0.000000,0.000000,0.000000,0.000000,0.000020,0.002050,0.000012,0.100042,0.095918,0.100058,0.095982,1000,1000,1000,1000
9651,0,2.227034,0.697994,0.437502,0.00,0.00,-0.001362,0.098000,0.000000,0.399995,0.000000,0.000000,0.000000,0.000000,0.000033,0.002028,0.000007,0.100002,0.095933,0.100054,0.096012,1000,1000,1000,1000
9661,0,2.231627,0.690895,0.437501,0.00,0.00,-0.001233,0.098000,0.000000,0.399995,0.000000,0.000000,0.000000,0.000000,0.000044,0.002037,0.000006,0.099999,0.095914,0.100074,0.096013,1000,1000,1000,1000
9678,0,2.235302,0.685216,0.437501,0.00,0.00,-0.002049,0.098000,0.000000,0.399995,0.000000,0.000000,0.000000,0.000000,0.000047,0.002041,0.000010,0.100004,0.095902,0.100078,0.096017,1000,1000,1000,1000
9691,0,2.225742,0.680673,0.450001,0.00,-0.00,-0.002683,0.098000,0.000000,0.399995,0.000000,0.000000,0.000000,0.000000,0.000017,0.002050,0.000013,0.100046,0.095920,0.100054,0.095981,1000,1000,1000,1000
9701,0,2.218093,0.677038,0.460001,-0.00,-0.00,-0.000977,0.098000,0.000000,0.399995,0.000000,0.000000,0.000000,0.000000,-0.000000,0.002059,0.000005,0.100064,0.095937,0.100053,0.095945,1000,1000,1000,1000
9711,0,2.211975,0.674131,0.468001,-0.00,-0.00,-0.001195,0.098000,0.000000,0.399995,0.000000,0.000000,0.000000,0.000000,-0.000007,0.002066,0.000006,0.100080,0.095935,0.100053,0.095932,1000,1000,1000,1000
9721,0,2.207080,0.684305,0.461900,-0.00,-0.00,0.000162,0.099000,0.000000,0.399995,0.000000,0.000000,0.000000,0.000000,-0.000017,0.002049,-0.000000,0.101066,0.096969,0.101033,0.096932,1000,1000,1000,1000
9732,0,2.203164,0.692444,0.457020,-0.00,0.00,0.005431,0.099000,0.000000,0.399995,0.000000,0.000000,0.000000,0.000000,-0.000029,0.002025,-0.000027,0.101026,0.097031,0.101024,0.096919,1000,1000,1000,1000
9741,0,2.187531,0.698955,0.465616,-0.02,0.00,0.007403,0.099000,0.000000,0.399995,0.000000,0.000000,0.000000,0.000000,-0.000082,0.002010,-0.000037,0.101055,0.097108,0.100966,0.096871,1000,1000,1000,1000
9751,0,2.175025,0.704164,0.472493,-0.02,0.00,0.004316,0.099000,0.000000,0.399995,0.000000,0.000000,0.000000,0.000000,-0.000104,0.002000,-0.000022,0.101083,0.097125,0.100918,0.096874,1000,1000,1000,1000
9761,0,2.177520,0.708331,0.477994,-0.02,0.01,-0.003452,0.099000,0.000000,0.399995,0.000000,0.000000,0.000000,0.000000,-0.000078,0.001987,0.000017,0.101082,0.097074,0.100892,0.096952,1000,1000,1000,1000
9771,0,2.192016,0.699165,0.482396,-0.00,0.00,-0.007684,0.099000,0.000000,0.399995,0.000000,0.000000,0.000000,0.000000,-0.000033,0.002006,0.000038,0.101077,0.096988,0.100935,0.097000,1000,1000,1000,1000
9781,0,2.203613,0.691832,0.485916,-0.00,0.00,-0.007679,0.099000,0.000000,0.399995,0.000000,0.000000,0.000000,0.000000,-0.000000,0.002020,0.000038,0.101060,0.096942,0.100981,0.097017,1000,1000,1000,1000
9792,0,2.200390,0.685966,0.488733,-0.00,-0.00,-0.004566,0.099000,0.000000,0.399995,0.000000,0.000000,0.000000,0.000000,-0.000016,0.002047,0.000023,0.101086,0.096947,0.101007,0.096960,1000,1000,1000,1000
9802,0,2.197812,0.681272,0.490987,-0.00,-0.00,-0.004443,0.099000,0.000000,0.399995,0.000000,0.000000,0.000000,0.000000,-0.000024,0.002066,0.000022,0.101113,0.096936,0.101020,0.096932,1000,1000,1000,1000
9812,0,2.208250,0.690018,0.492789,0.00,-0.00,-0.007959,0.099000,0.000000,0.399995,0.000000,0.000000,0.000000,0.000000,0.000008,0.002052,0.000040,0.101083,0.096901,0.101020,0.096996,1000,1000,1000,1000
9822,0,2.216600,0.697014,0.494231,0.00,0.00,-0.010623,0.100000,0.000000,0.399995,0.000000,0.000000,0.000000,0.000000,0.000035,0.002028,0.000053,0.102046,0.097884,0.102009,0.098060,1000,1000,1000,1000
9832,0,2.223280,0.702611,0.482885,0.01,0.00,-0.005676,0.100000,0.000000,0.399995,0.000000,0.000000,0.000000,0.000000,0.000055,0.002014,0.000028,0.101987,0.097902,0.102041,0.098069,1000,1000,1000,1000
9842,0,2.216124,0.707089,0.486308,0.00,0.00,0.002325,0.100000,0.000000,0.399995,0.000000,0.000000,0.000000,0.000000,0.000027,0.002006,-0.000012,0.101968,0.097979,0.102045,0.098008,1000,1000,1000,1000
9852,0,2.210399,0.710671,0.489046,0.00,0.00,0.005731,0.100000,0.000000,0.399995,0.000000,0.000000,0.000000,0.000000,0.000000,0.002007,-0.000029,0.101978,0.098022,0.102035,0.097965,1000,1000,1000,1000
9862,0,2.205820,0.713537,0.491237,-0.00,0.00,0.004979,0.100000,0.000000,0.399995,0.000000,0.000000,0.000000,0.000000,-0.000012,0.002003,-0.000025,0.101989,0.098034,0.102016,0.097961,1000,1000,1000,1000
9872,0,2.202156,0.715830,0.492990,-0.00,0.00,0.000154,0.101000,0.000000,0.399995,0.000000,0.000000,0.000000,0.000000,-0.000016,0.001996,-0.000000,0.103011,0.099021,0.102981,0.098988,1000,1000,1000,1000
9882,0,2.199225,0.717664,0.494392,-0.00,0.00,-0.000690,0.101000,0.000000,0.399995,0.000000,0.000000,0.000000,0.000000,-0.000019,0.001997,0.000003,0.103019,0.099019,0.102974,0.098988,1000,1000,1000,1000
9892,0,2.196880,0.719131,0.495513,-0.00,0.00,0.002485,0.101000,0.000000,0.399995,0.000000,0.000000,0.000000,0.000000,-0.000027,0.001999,-0.000012,0.103013,0.099040,0.102984,0.098962,1000,1000,1000,1000
9902,0,2.195004,0.720305,0.496411,-0.00,0.00,0.001938,0.100000,0.000000,0.399995,0.000000,0.000000,0.000000,0.000000,-0.000030,0.002006,-0.000010,0.102026,0.098033,0.101986,0.097954,1000,1000,1000,1000
9912,0,2.193503,0.721244,0.497129,-0.00,0.00,0.000925,0.100000,0.000000,0.399995,0.000000,0.000000,0.000000,0.000000,-0.000030,0.002010,-0.000005,0.102035,0.098025,0.101984,0.097955,1000,1000,1000,1000
9922,0,2.192303,0.721995,0.497703,-0.00,0.00,-0.003516,0.100000,0.000000,0.399995,0.000000,0.000000,0.000000,0.000000,-0.000029,0.002007,0.000018,0.102053,0.098004,0.101961,0.097982,1000,1000,1000,1000
9932,0,2.191342,0.722596,0.498162,-0.00,0.00,-0.003285,0.100000,0.000000,0.399995,0.000000,0.000000,0.000000,0.000000,-0.000023,0.001999,0.000016,0.102039,0.098008,0.101959,0.097994,1000,1000,1000,1000
9942,0,2.190574,0.723077,0.498530,-0.00,0.00,-0.001212,0.101000,0.000000,0.399995,0.000000,0.000000,0.000000,0.000000,-0.000017,0.001998,0.000006,0.103020,0.099013,0.102975,0.098992,1000,1000,1000,1000
9952,0,2.189959,0.723461,0.498824,-0.00,0.00,0.000976,0.101000,0.000000,0.399995,0.000000,0.000000,0.000000,0.000000,-0.000022,0.002015,-0.000005,0.103032,0.099012,0.102998,0.098959,1000,1000,1000,1000
9962,0,2.189467,0.723769,0.499059,-0.00,0.00,0.004303,0.101000,0.000000,0.399995,0.000000,0.000000,0.000000,0.000000,-0.000031,0.002029,-0.000022,0.103039,0.099024,0.103019,0.098918,1000,1000,1000,1000
9972,0,2.189074,0.724015,0.499247,-0.00,0.00,0.004723,0.106000,0.000000,0.399995,0.000000,0.000000,0.000000,0.000000,-0.000035,0.002039,-0.000024,0.108051,0.104019,0.108028,0.103902,1000,1000,1000,1000
9982,0,2.188759,0.724212,0.499398,-0.00,0.00,0.003446,0.106000,0.000000,0.399995,0.000000,0.000000,0.000000,0.000000,-0.000031,0.002038,-0.000017,0.108052,0.104009,0.108025,0.103914,1000,1000,1000,1000
9997,0,2.188508,0.724370,0.499518,-0.00,0.00,-0.000094,0.106000,0.000000,0.399995,0.000000,0.000000,0.000000,0.000000,-0.000020,0.002030,0.000000,0.108051,0.103989,0.108010,0.103950,1000,1000,1000,1000
10009,0,2.188306,0.724496,0.499615,-0.00,0.00,-0.002158,0.106000,0.000000,0.399995,0.000000,0.000000,0.000000,0.000000,-0.000020,0.002020,0.000011,0.108051,0.103989,0.107990,0.103970,1000,1000,1000,1000
10021,0,2.188145,0.724597,0.499692,-0.00,0.00,-0.001642,0.106000,0.000000,0.399995,0.000000,0.000000,0.000000,0.000000,-0.000019,0.002015,0.000008,0.108042,0.103996,0.107988,0.103975,1000,1000,1000,1000
10031,0,2.188016,0.724677,0.499753,-0.00,0.00,-0.002626,0.114000,0.000000,0.399995,0.000000,0.000000,0.000000,0.000000,-0.000016,0.002022,0.000013,0.116051,0.111980,0.115993,0.111975,1000,1000,1000,1000
10042,0,2.187913,0.724742,0.499803,-0.00,0.00,0.000007,0.114000,0.000000,0.399995,0.000000,0.000000,0.000000,0.000000,-0.000014,0.002028,-0.000000,0.116042,0.111986,0.116014,0.111958,1000,1000,1000,1000
10052,0,2.187830,0.724793,0.499842,-0.00,0.00,0.003219,0.114000,0.000000,0.399995,0.000000,0.000000,0.000000,0.000000,-0.000016,0.002027,-0.000016,0.116027,0.112006,0.116027,0.111941,1000,1000,1000,1000
10062,0,2.187764,0.724835,0.499874,-0.00,0.00,0.002188,0.114000,0.000000,0.399995,0.000000,0.000000,0.000000,0.000000,-0.000016,0.002029,-0.000011,0.116034,0.111998,0.116024,0.111944,1000,1000,1000,1000
