t,is_crashed,roll,pitch,yaw,p,q,r,throttle,p_cmd,q_cmd,r_cmd,roll_cmd,pitch_cmd,yaw_cmd,roll_pid_out,pitch_pid_out,yaw_pid_out,motor_fl,motor_bl,motor_fr,motor_br,pwm_fl,pwm_bl,pwm_fr,pwm_br
7023,0,1.750000,1.812500,-0.062500,0.00,0.00,0.000000,-1.000000,-0.087559,-0.127509,0.000000,0.000000,0.000000,0.000000,0.000908,-0.002220,0.000000,0.000000,0.000000,0.000000,0.000000,0,0,0,0
7035,0,0.000000,0.000000,-0.062500,-7.29,-7.56,0.001036,0.200000,-0.007353,-0.005372,0.000000,0.000000,0.039999,0.000000,-0.073075,0.128605,-0.000010,0.401669,0.144480,0.255540,-0.001690,1148,1000,1028,1000
7045,0,0.000000,0.000000,-0.062500,0.00,-0.00,0.002124,0.200000,-0.000059,0.002202,0.000000,0.000000,0.039999,0.000000,-0.000014,0.000099,-0.000021,0.200092,0.199936,0.200106,0.199865,1000,1015,1000,1015
7055,0,0.000000,0.000000,-0.062500,0.00,-0.00,-0.000930,0.154000,-0.000060,0.002220,0.000000,0.000000,0.039999,0.000000,-0.000025,0.000135,0.000009,0.154169,0.153881,0.154101,0.153850,1000,1000,1000,1000
7065,0,0.000000,0.000000,-0.062500,0.00,-0.00,-0.000047,0.140000,-0.000058,0.002242,0.000000,0.000000,0.039999,0.000000,-0.000014,0.000100,0.000000,0.140115,0.139914,0.140085,0.139886,1000,1000,1000,1000
7075,0,0.000000,0.000000,-0.062500,0.00,0.00,0.002070,0.140000,-0.000058,0.002265,0.000000,0.000000,0.039999,0.000000,-0.000025,0.000047,-0.000021,0.140051,0.139998,0.140043,0.139907,1000,1000,1000,1000
7085,0,0.000000,0.000000,-0.062500,0.00,0.00,0.001140,0.065000,-0.000057,0.002285,0.000000,0.000000,0.039999,0.000000,-0.000014,0.000030,-0.000011,0.000000,0.000000,0.000000,0.000000,819,819,819,819
7095,0,0.000000,0.000000,-0.062500,0.00,0.00,-0.000979,0.037000,0.000002,0.002814,0.000000,0.000000,0.039999,0.000000,-0.000005,0.000074,0.000010,0.000000,0.000000,0.000000,0.000000,819,819,819,819
7105,0,0.000000,0.000000,-0.062500,0.00,0.00,-0.001085,0.037000,0.000001,0.002815,0.000000,0.000000,0.039999,0.000000,-0.000015,0.000057,0.000011,0.000000,0.000000,0.000000,0.000000,819,819,819,819
7115,0,0.000000,0.000000,-0.062500,0.00,0.00,-0.001091,0.005000,0.000001,0.002814,0.000000,0.000000,0.039999,0.000000,-0.000015,0.000074,0.000011,0.000000,0.000000,0.000000,0.000000,819,819,819,819
7125,0,0.000000,0.000000,-0.062500,0.00,-0.00,-0.002127,0.005000,0.000002,0.002813,0.000000,0.000000,0.039999,0.000000,-0.000005,0.000092,0.000021,0.000000,0.000000,0.000000,0.000000,819,819,819,819
7135,0,0.000000,0.000000,-0.062500,-0.00,0.00,-0.000106,0.005000,-0.000001,0.002815,0.000000,0.000000,0.039999,0.000000,-0.000036,0.000057,0.000001,0.000000,0.000000,0.000000,0.000000,819,819,819,819
7145,0,0.000000,0.000000,-0.062500,-0.00,0.00,0.001031,0.005000,-0.000001,0.002815,0.000000,0.000000,0.039999,0.000000,-0.000036,0.000057,-0.000010,0.000000,0.000000,0.000000,0.000000,819,819,819,819
7155,0,0.000000,0.000000,-0.062500,0.00,0.00,0.003160,0.005000,0.000000,0.002816,0.000000,0.000000,0.039999,0.000000,-0.000025,0.000039,-0.000032,0.000000,0.000000,0.000000,0.000000,819,819,819,819
7165,0,0.000000,0.000000,-0.062500,0.00,0.00,0.000158,0.005000,0.000001,0.002815,0.000000,0.000000,0.039999,0.000000,-0.000015,0.000057,-0.000002,0.000000,0.000000,0.000000,0.000000,819,819,819,819
7175,0,0.000000,0.000000,-0.062500,0.00,0.00,-0.001028,0.005000,0.000001,0.002817,0.000000,0.000000,0.039999,0.000000,-0.000015,0.000022,0.000010,0.000000,0.000000,0.000000,0.000000,819,819,819,819
7190,0,0.000000,0.000000,-0.062500,0.00,-0.00,0.000985,0.004000,0.000000,0.002812,0.000000,0.000000,0.039999,0.000000,-0.000025,0.000110,-0.000010,0.000000,0.000000,0.000000,0.000000,819,819,819,819
7202,0,0.000000,0.000000,-0.062500,0.00,-0.00,0.001086,0.004000,0.000001,0.002812,0.000000,0.000000,0.039999,0.000000,-0.000015,0.000110,-0.000011,0.000000,0.000000,0.000000,0.000000,819,819,819,819
7213,0,0.000000,0.000000,-0.062500,0.00,0.00,-0.000982,0.004000,0.000002,0.002815,0.000000,0.000000,0.039999,0.000000,-0.000005,0.000057,0.000010,0.000000,0.000000,0.000000,0.000000,819,819,819,819
7225,0,0.000000,0.000000,-0.062500,0.00,-0.00,-0.000049,0.004000,0.000000,0.002812,0.000000,0.000000,0.039999,0.000000,-0.000025,0.000110,0.000000,0.000000,0.000000,0.000000,0.000000,819,819,819,819
7235,0,0.000000,0.000000,-0.062500,0.00,0.00,0.001034,0.004000,0.000002,0.002815,0.000000,0.000000,0.039999,0.000000,-0.000004,0.000057,-0.000010,0.000000,0.000000,0.000000,0.000000,819,819,819,819
7245,0,0.000000,0.000000,-0.062500,0.00,-0.00,0.001088,0.004000,0.000000,0.002812,0.000000,0.000000,0.039999,0.000000,-0.000025,0.000110,-0.000011,0.000000,0.000000,0.000000,0.000000,819,819,819,819
7255,0,0.000000,0.000000,-0.062500,0.00,0.00,-0.000982,0.005000,0.000002,0.002817,0.000000,0.000000,0.039999,0.000000,-0.000004,0.000039,0.000010,0.000000,0.000000,0.000000,0.000000,819,819,819,819
7265,0,0.000000,0.000000,-0.062500,0.00,0.00,0.000987,0.005000,0.000001,0.002817,0.000000,0.000000,0.039999,0.000000,-0.000015,0.000039,-0.000010,0.000000,0.000000,0.000000,0.000000,819,819,819,819
7275,0,0.000000,0.000000,-0.062500,0.00,0.00,0.000049,0.005000,0.000002,0.002815,0.000000,0.000000,0.039999,0.000000,-0.000004,0.000075,-0.000000,0.000000,0.000000,0.000000,0.000000,819,819,819,819
7285,0,0.000000,0.000000,-0.062500,0.00,0.00,0.000002,0.005000,0.000001,0.002816,0.000000,0.000000,0.039999,0.000000,-0.000015,0.000057,-0.000000,0.000000,0.000000,0.000000,0.000000,819,819,819,819
7295,0,0.000000,0.000000,-0.062500,0.00,0.00,0.000000,0.005000,0.000000,0.002815,0.000000,0.000000,0.039999,0.000000,-0.000025,0.000075,-0.000000,0.000000,0.000000,0.000000,0.000000,819,819,819,819
7305,0,0.000000,0.000000,-0.062500,0.00,0.00,0.000000,0.005000,0.000002,0.002815,0.000000,0.000000,0.039999,0.000000,-0.000004,0.000075,-0.000000,0.000000,0.000000,0.000000,0.000000,819,819,819,819
7315,0,0.000000,0.000000,-0.062500,0.00,0.00,0.001036,0.005000,0.000001,0.002815,0.000000,0.000000,0.039999,0.000000,-0.000015,0.000075,-0.000010,0.000000,0.000000,0.000000,0.000000,819,819,819,819
7325,0,0.000000,0.000000,-0.062500,0.00,-0.00,0.000052,0.005000,0.000002,0.002810,0.000000,0.000000,0.039999,0.000000,-0.000004,0.000145,-0.000000,0.000000,0.000000,0.000000,0.000000,819,819,819,819
7336,0,0.000000,0.000000,-0.062500,0.00,-0.00,-0.001034,0.005000,0.000001,0.002814,0.000000,0.000000,0.039999,0.000000,-0.000015,0.000092,0.000010,0.000000,0.000000,0.000000,0.000000,819,819,819,819
7345,0,0.000000,0.000000,-0.062500,0.00,-0.00,0.002021,0.005000,0.000000,0.002813,0.000000,0.000000,0.039999,0.000000,-0.000025,0.000110,-0.000020,0.000000,0.000000,0.000000,0.000000,819,819,819,819
7355,0,0.000000,0.000000,-0.062500,0.00,-0.00,0.001137,0.005000,0.000001,0.002812,0.000000,0.000000,0.039999,0.000000,-0.000015,0.000128,-0.000011,0.000000,0.000000,0.000000,0.000000,819,819,819,819
7365,0,0.000000,0.000000,-0.062500,-0.00,0.00,0.000057,0.005000,-0.000001,0.002816,0.000000,0.000000,0.039999,0.000000,-0.000036,0.000057,-0.000000,0.000000,0.000000,0.000000,0.000000,819,819,819,819
7376,0,0.000000,0.000000,-0.062500,0.00,0.00,0.001039,0.005000,0.000000,0.002817,0.000000,0.000000,0.039999,0.000000,-0.000025,0.000039,-0.000010,0.000000,0.000000,0.000000,0.000000,819,819,819,819
7386,0,0.000000,0.000000,-0.062500,0.00,-0.00,0.000052,0.005000,0.000001,0.002814,0.000000,0.000000,0.039999,0.000000,-0.000015,0.000092,-0.000000,0.000000,0.000000,0.000000,0.000000,819,819,819,819
7396,0,0.000000,0.000000,-0.062500,0.00,-0.00,-0.001034,0.005000,0.000001,0.002813,0.000000,0.000000,0.039999,0.000000,-0.000015,0.000110,0.000010,0.000000,0.000000,0.000000,0.000000,819,819,819,819
7405,0,0.000000,0.000000,-0.062500,0.00,0.00,-0.004197,0.005000,0.000001,0.002817,0.000000,0.000000,0.039999,0.000000,-0.000015,0.000039,0.000042,0.000000,0.000000,0.000000,0.000000,819,819,819,819
7415,0,0.000000,0.000000,-0.062500,0.00,0.00,-0.000210,0.005000,0.000002,0.002816,0.000000,0.000000,0.039999,0.000000,-0.000004,0.000057,0.000002,0.000000,0.000000,0.000000,0.000000,819,819,819,819
7425,0,0.000000,0.000000,-0.062500,0.00,-0.00,0.001026,0.005000,0.000001,0.002814,0.000000,0.000000,0.039999,0.000000,-0.000015,0.000092,-0.000010,0.000000,0.000000,0.000000,0.000000,819,819,819,819
7436,0,0.000000,0.000000,-0.062500,0.00,0.00,-0.000985,0.005000,0.000000,0.002816,0.000000,0.000000,0.039999,0.000000,-0.000025,0.000057,0.000010,0.000000,0.000000,0.000000,0.000000,819,819,819,819
7446,0,0.000000,0.000000,-0.062500,0.00,-0.00,0.004096,0.005000,0.000001,0.002810,0.000000,0.000000,0.039999,0.000000,-0.000015,0.000163,-0.000041,0.000000,0.000000,0.000000,0.000000,819,819,819,819
7456,0,0.000000,0.000000,-0.062500,0.00,-0.00,0.000205,0.005000,0.000000,0.002811,0.000000,0.000000,0.039999,0.000000,-0.000025,0.000145,-0.000002,0.000000,0.000000,0.000000,0.000000,819,819,819,819
7466,0,0.000000,0.000000,-0.062500,0.00,-0.00,-0.001026,0.005000,0.000000,0.002810,0.000000,0.000000,0.039999,0.000000,-0.000025,0.000163,0.000010,0.000000,0.000000,0.000000,0.000000,819,819,819,819
7476,0,0.000000,0.000000,-0.062500,0.00,-0.00,0.003058,0.005000,0.000001,0.002814,0.000000,0.000000,0.039999,0.000000,-0.000015,0.000092,-0.000031,0.000000,0.000000,0.000000,0.000000,819,819,819,819
7486,0,0.000000,0.000000,-0.062500,0.00,0.00,0.000153,0.005000,0.000000,0.002816,0.000000,0.000000,0.039999,0.000000,-0.000025,0.000057,-0.000002,0.000000,0.000000,0.000000,0.000000,819,819,819,819
7496,0,0.000000,0.000000,-0.062500,-0.00,-0.00,0.002080,0.005000,-0.000001,0.002814,0.000000,0.000000,0.039999,0.000000,-0.000036,0.000092,-0.000021,0.000000,0.000000,0.000000,0.000000,819,819,819,819
7513,0,0.000000,0.000000,-0.062500,0.00,0.00,-0.000932,0.005000,0.000000,0.002816,0.000000,0.000000,0.039999,0.000000,-0.000025,0.000057,0.000009,0.000000,0.000000,0.000000,0.000000,819,819,819,819
7526,0,0.000000,0.000000,-0.062500,0.00,-0.00,0.002026,0.005000,0.000000,0.002811,0.000000,0.000000,0.039999,0.000000,-0.000025,0.000145,-0.000020,0.000000,0.000000,0.000000,0.000000,819,819,819,819
7536,0,0.000000,0.000000,-0.062500,0.00,-0.00,-0.000935,0.005000,0.000001,0.002814,0.000000,0.000000,0.039999,0.000000,-0.000015,0.000093,0.000009,0.000000,0.000000,0.000000,0.000000,819,819,819,819
7546,0,0.000000,0.000000,-0.062500,-0.00,-0.00,0.002026,0.005000,-0.000002,0.002814,0.000000,0.000000,0.039999,0.000000,-0.000046,0.000093,-0.000020,0.000000,0.000000,0.000000,0.000000,819,819,819,819
7556,0,0.000000,0.000000,-0.062500,-0.00,0.00,-0.000935,0.005000,-0.000001,0.002817,0.000000,0.000000,0.039999,0.000000,-0.000036,0.000040,0.000009,0.000000,0.000000,0.000000,0.000000,819,819,819,819
7566,0,0.000000,0.000000,-0.062500,0.00,0.00,-0.000047,0.005000,0.000002,0.002815,0.000000,0.000000,0.039999,0.000000,-0.000004,0.000075,0.000000,0.000000,0.000000,0.000000,0.000000,819,819,819,819
7576,0,0.000000,0.000000,-0.062500,-0.00,-0.00,0.001034,0.005000,-0.000001,0.002814,0.000000,0.000000,0.039999,0.000000,-0.000036,0.000093,-0.000010,0.000000,0.000000,0.000000,0.000000,819,819,819,819
7586,0,0.000000,0.000000,-0.062500,0.00,0.00,-0.002021,0.005000,0.000001,0.002820,0.000000,0.000000,0.039999,0.000000,-0.000015,-0.000013,0.000020,0.000000,0.000000,0.000000,0.000000,819,819,819,819
7596,0,0.000000,0.000000,-0.062500,-0.00,-0.00,-0.000101,0.005000,-0.000002,0.002814,0.000000,0.000000,0.039999,0.000000,-0.000046,0.000093,0.000001,0.000000,0.000000,0.000000,0.000000,819,819,819,819
7606,0,0.000000,0.000000,-0.062500,-0.00,-0.00,-0.000005,0.005000,-0.000002,0.002814,0.000000,0.000000,0.039999,0.000000,-0.000046,0.000093,-0.000000,0.000000,0.000000,0.000000,0.000000,819,819,819,819
7616,0,0.000000,0.000000,-0.062500,0.00,-0.00,-0.005182,0.005000,0.000001,0.002813,0.000000,0.000000,0.039999,0.000000,-0.000015,0.000110,0.000052,0.000000,0.000000,0.000000,0.000000,819,819,819,819
7626,0,0.000000,0.000000,-0.062500,-0.00,-0.00,-0.001295,0.005000,-0.000001,0.002813,0.000000,0.000000,0.039999,0.000000,-0.000036,0.000110,0.000013,0.000000,0.000000,0.000000,0.000000,819,819,819,819
7636,0,0.000000,0.000000,-0.062500,0.00,-0.00,0.002008,0.005000,0.000000,0.002812,0.000000,0.000000,0.039999,0.000000,-0.000025,0.000128,-0.000020,0.000000,0.000000,0.000000,0.000000,819,819,819,819
7646,0,0.000000,0.000000,-0.062500,0.00,-0.00,-0.001972,0.005000,0.000000,0.002813,0.000000,0.000000,0.039999,0.000000,-0.000025,0.000110,0.000020,0.000000,0.000000,0.000000,0.000000,819,819,819,819
7656,0,0.000000,0.000000,-0.062500,-0.00,-0.00,0.003010,0.005000,-0.000001,0.002810,0.000000,0.000000,0.039999,0.000000,-0.000036,0.000163,-0.000030,0.000000,0.000000,0.000000,0.000000,819,819,819,819
7666,0,0.000000,0.000000,-0.062500,0.00,-0.00,-0.000886,0.005000,0.000001,0.002812,0.000000,0.000000,0.039999,0.000000,-0.000015,0.000128,0.000009,0.000000,0.000000,0.000000,0.000000,819,819,819,819
7676,0,0.000000,0.000000,-0.062500,0.00,0.00,0.002028,0.005000,0.000000,0.002815,0.000000,0.000000,0.039999,0.000000,-0.000025,0.000075,-0.000020,0.000000,0.000000,0.000000,0.000000,819,819,819,819
7686,0,0.000000,0.000000,-0.062500,-0.00,-0.00,0.002174,0.005000,-0.000002,0.002814,0.000000,0.000000,0.039999,0.000000,-0.000046,0.000093,-0.000022,0.000000,0.000000,0.000000,0.000000,819,819,819,819
7696,0,0.000000,0.000000,-0.062500,0.00,0.00,0.001145,0.005000,0.000001,0.002815,0.000000,0.000000,0.039999,0.000000,-0.000015,0.000075,-0.000012,0.000000,0.000000,0.000000,0.000000,819,819,819,819
7706,0,0.000000,0.000000,-0.062500,0.00,-0.00,0.001094,0.005000,0.000000,0.002812,0.000000,0.000000,0.039999,0.000000,-0.000025,0.000128,-0.000011,0.000000,0.000000,0.000000,0.000000,819,819,819,819
7716,0,0.000000,0.000000,-0.062500,-0.00,0.00,0.002127,0.005000,-0.000002,0.002816,0.000000,0.000000,0.039999,0.000000,-0.000046,0.000058,-0.000021,0.000000,0.000000,0.000000,0.000000,819,819,819,819
7726,0,0.000000,0.000000,-0.062500,0.00,-0.00,0.004252,0.005000,0.000001,0.002813,0.000000,0.000000,0.039999,0.000000,-0.000015,0.000110,-0.000043,0.000000,0.000000,0.000000,0.000000,819,819,819,819
7736,0,0.000000,0.000000,-0.062500,-0.00,-0.00,-0.001860,0.005000,-0.000002,0.002814,0.000000,0.000000,0.039999,0.000000,-0.000046,0.000093,0.000019,0.000000,0.000000,0.000000,0.000000,819,819,819,819
7746,0,0.000000,0.000000,-0.062500,-0.00,0.00,-0.003202,0.005000,-0.000001,0.002816,0.000000,0.000000,0.039999,0.000000,-0.000036,0.000058,0.000032,0.000000,0.000000,0.000000,0.000000,819,819,819,819
7756,0,0.000000,0.000000,-0.062500,-0.00,0.00,0.000876,0.005000,-0.000001,0.002815,0.000000,0.000000,0.039999,0.000000,-0.000036,0.000075,-0.000009,0.000000,0.000000,0.000000,0.000000,819,819,819,819
7766,0,0.000000,0.000000,-0.062500,0.00,-0.00,0.002116,0.005000,0.000001,0.002813,0.000000,0.000000,0.039999,0.000000,-0.000015,0.000110,-0.000021,0.000000,0.000000,0.000000,0.000000,819,819,819,819
7776,0,0.000000,0.000000,-0.062500,0.00,0.00,0.001142,0.005000,0.000000,0.002816,0.000000,0.000000,0.039999,0.000000,-0.000025,0.000075,-0.000012,0.000000,0.000000,0.000000,0.000000,819,819,819,819
7787,0,0.000000,0.000000,-0.062500,-0.00,-0.00,0.004202,0.005000,-0.000001,0.002813,0.000000,0.000000,0.039999,0.000000,-0.000036,0.000111,-0.000042,0.000000,0.000000,0.000000,0.000000,819,819,819,819
7796,0,0.000000,0.000000,-0.062500,0.00,0.00,-0.001862,0.005000,0.000000,0.002816,0.000000,0.000000,0.039999,0.000000,-0.000025,0.000075,0.000019,0.000000,0.000000,0.000000,0.000000,819,819,819,819
7806,0,0.000000,0.000000,-0.062500,0.00,0.00,-0.001129,0.005000,0.000001,0.002818,0.000000,0.000000,0.039999,0.000000,-0.000015,0.000040,0.000011,0.000000,0.000000,0.000000,0.000000,819,819,819,819
7816,0,0.000000,0.000000,-0.062500,0.00,0.00,-0.000056,0.005000,0.000000,0.002817,0.000000,0.000000,0.039999,0.000000,-0.000025,0.000058,0.000000,0.000000,0.000000,0.000000,0.000000,819,819,819,819
7834,0,0.000000,0.000000,-0.062500,0.00,-0.00,-0.001039,0.005000,0.000000,0.002813,0.000000,0.000000,0.039999,0.000000,-0.000025,0.000128,0.000010,0.000000,0.000000,0.000000,0.000000,819,819,819,819
7845,0,0.000000,0.000000,-0.062500,-0.00,-0.00,-0.000052,0.005000,-0.000001,0.002814,0.000000,0.000000,0.039999,0.000000,-0.000036,0.000111,0.000000,0.000000,0.000000,0.000000,0.000000,819,819,819,819
7856,0,0.000000,0.000000,-0.062500,0.00,0.00,-0.001039,0.005000,0.000002,0.002817,0.000000,0.000000,0.039999,0.000000,-0.000004,0.000058,0.000010,0.000000,0.000000,0.000000,0.000000,819,819,819,819
7869,0,0.000000,0.000000,-0.062500,0.00,0.00,-0.000052,0.005000,0.000000,0.002820,0.000000,0.000000,0.039999,0.000000,-0.000025,0.000005,0.000000,0.000000,0.000000,0.000000,0.000000,819,819,819,819
7878,0,0.000000,0.000000,-0.062500,-0.00,-0.00,0.001034,0.005000,-0.000001,0.002814,0.000000,0.000000,0.039999,0.000000,-0.000036,0.000111,-0.000010,0.000000,0.000000,0.000000,0.000000,819,819,819,819
7888,0,0.000000,0.000000,-0.062500,0.00,-0.00,0.002124,0.005000,0.000000,0.002814,0.000000,0.000000,0.039999,0.000000,-0.000025,0.000111,-0.000021,0.000000,0.000000,0.000000,0.000000,819,819,819,819
7897,0,0.000000,0.000000,-0.062500,-0.00,-0.00,0.003215,0.005000,-0.000001,0.002815,0.000000,0.000000,0.039999,0.000000,-0.000036,0.000093,-0.000032,0.000000,0.000000,0.000000,0.000000,819,819,819,819
7907,0,0.000000,0.000000,-0.062500,0.00,0.00,-0.000876,0.005000,0.000002,0.002819,0.000000,0.000000,0.039999,0.000000,-0.000004,0.000023,0.000009,0.000000,0.000000,0.000000,0.000000,819,819,819,819
7917,0,0.000000,0.000000,-0.062500,0.00,0.00,0.002029,0.005000,0.000000,0.002816,0.000000,0.000000,0.039999,0.000000,-0.000025,0.000075,-0.000020,0.000000,0.000000,0.000000,0.000000,819,819,819,819
7927,0,0.000000,0.000000,-0.062500,-0.00,-0.00,0.000101,0.005000,-0.000002,0.002814,0.000000,0.000000,0.039999,0.000000,-0.000046,0.000111,-0.000001,0.000000,0.000000,0.000000,0.000000,819,819,819,819
7937,0,0.000000,0.000000,-0.062500,0.00,-0.00,0.001041,0.005000,0.000001,0.002814,0.000000,0.000000,0.039999,0.000000,-0.000015,0.000111,-0.000011,0.000000,0.000000,0.000000,0.000000,819,819,819,819
7947,0,0.000000,0.000000,-0.062500,0.00,0.00,-0.000984,0.005000,0.000000,0.002817,0.000000,0.000000,0.039999,0.000000,-0.000025,0.000058,0.000010,0.000000,0.000000,0.000000,0.000000,819,819,819,819
7957,0,0.000000,0.000000,-0.062500,0.00,0.00,-0.002122,0.005000,0.000000,0.002820,0.000000,0.000000,0.039999,0.000000,-0.000025,0.000005,0.000021,0.000000,0.000000,0.000000,0.000000,819,819,819,819
7967,0,0.000000,0.000000,-0.062500,-0.00,-0.00,-0.001142,0.005000,-0.000001,0.002815,0.000000,0.000000,0.039999,0.000000,-0.000036,0.000093,0.000011,0.000000,0.000000,0.000000,0.000000,819,819,819,819
7977,0,0.000000,0.000000,-0.062500,-0.00,-0.00,-0.001093,0.005000,-0.000001,0.002813,0.000000,0.000000,0.039999,0.000000,-0.000036,0.000128,0.000011,0.000000,0.000000,0.000000,0.000000,819,819,819,819
7987,0,0.000000,0.000000,-0.062500,0.00,-0.00,-0.000055,0.005000,0.000000,0.002815,0.000000,0.000000,0.039999,0.000000,-0.000025,0.000093,0.000000,0.000000,0.000000,0.000000,0.000000,819,819,819,819
7997,0,0.000000,0.000000,-0.062500,0.00,0.00,-0.001039,0.005000,0.000001,0.002818,0.000000,0.000000,0.039999,0.000000,-0.000015,0.000040,0.000010,0.000000,0.000000,0.000000,0.000000,819,819,819,819
8007,0,0.000000,0.000000,-0.062500,0.00,0.00,-0.000052,0.005000,0.000000,0.002818,0.000000,0.000000,0.039999,0.000000,-0.000025,0.000040,0.000000,0.000000,0.000000,0.000000,0.000000,819,819,819,819
8017,0,0.000000,0.000000,-0.062500,0.00,-0.00,-0.001039,0.005000,0.000000,0.002815,0.000000,0.000000,0.039999,0.000000,-0.000025,0.000093,0.000010,0.000000,0.000000,0.000000,0.000000,819,819,819,819
8027,0,0.000000,0.000000,-0.062500,0.00,-0.00,0.000984,0.005000,0.000000,0.002814,0.000000,0.000000,0.039999,0.000000,-0.000025,0.000111,-0.000010,0.000000,0.000000,0.000000,0.000000,819,819,819,819
8037,0,0.000000,0.000000,-0.062500,0.00,-0.00,-0.002023,0.005000,0.000000,0.002815,0.000000,0.000000,0.039999,0.000000,-0.000025,0.000093,0.000020,0.000000,0.000000,0.000000,0.000000,819,819,819,819
8047,0,0.000000,0.000000,-0.062500,0.00,-0.00,-0.003210,0.005000,0.000000,0.002815,0.000000,0.000000,0.039999,0.000000,-0.000025,0.000093,0.000032,0.000000,0.000000,0.000000,0.000000,819,819,819,819
8057,0,0.000000,0.000000,-0.062500,-0.00,-0.00,-0.000161,0.005000,-0.000001,0.002815,0.000000,0.000000,0.039999,0.000000,-0.000036,0.000093,0.000002,0.000000,0.000000,0.000000,0.000000,819,819,819,819
8067,0,0.000000,0.000000,-0.062500,0.00,-0.00,-0.001044,0.005000,0.000001,0.002815,0.000000,0.000000,0.039999,0.000000,-0.000015,0.000093,0.000010,0.000000,0.000000,0.000000,0.000000,819,819,819,819
8077,0,0.000000,0.000000,-0.062500,-0.00,-0.00,0.002020,0.005000,-0.000001,0.002812,0.000000,0.000000,0.039999,0.000000,-0.000036,0.000146,-0.000020,0.000000,0.000000,0.000000,0.000000,819,819,819,819
8087,0,0.000000,0.000000,-0.062500,0.00,-0.00,0.000101,0.005000,0.000000,0.002814,0.000000,0.000000,0.039999,0.000000,-0.000025,0.000111,-0.000001,0.000000,0.000000,0.000000,0.000000,819,819,819,819
8097,0,0.000000,0.000000,-0.062500,0.00,-0.00,-0.002068,0.005000,0.000002,0.002815,0.000000,0.000000,0.039999,0.000000,-0.000004,0.000093,0.000021,0.000000,0.000000,0.000000,0.000000,819,819,819,819
8107,0,0.000000,0.000000,-0.062500,-0.00,-0.00,-0.001140,0.005000,-0.000001,0.002815,0.000000,0.000000,0.039999,0.000000,-0.000036,0.000093,0.000011,0.000000,0.000000,0.000000,0.000000,819,819,819,819
8117,0,0.000000,0.000000,-0.062500,-0.00,-0.00,0.000979,0.005000,-0.000001,0.002814,0.000000,0.000000,0.039999,0.000000,-0.000036,0.000111,-0.000010,0.000000,0.000000,0.000000,0.000000,819,819,819,819
8127,0,0.000000,0.000000,-0.062500,-0.00,0.00,0.000049,0.005000,-0.000002,0.002817,0.000000,0.000000,0.039999,0.000000,-0.000046,0.000058,-0.000000,0.000000,0.000000,0.000000,0.000000,819,819,819,819
8141,0,0.000000,0.000000,-0.062500,-0.00,-0.00,-0.001034,0.005000,-0.000001,0.002815,0.000000,0.000000,0.039999,0.000000,-0.000036,0.000093,0.000010,0.000000,0.000000,0.000000,0.000000,819,819,819,819
8154,0,0.000000,0.000000,-0.062500,-0.00,-0.00,-0.002124,0.005000,-0.000001,0.002814,0.000000,0.000000,0.039999,0.000000,-0.000036,0.000111,0.000021,0.000000,0.000000,0.000000,0.000000,819,819,819,819
8166,0,0.000000,0.000000,-0.062500,0.00,0.00,-0.001143,0.005000,0.000000,0.002817,0.000000,0.000000,0.039999,0.000000,-0.000025,0.000058,0.000011,0.000000,0.000000,0.000000,0.000000,819,819,819,819
8178,0,0.000000,0.000000,-0.062500,-0.00,-0.00,-0.002130,0.005000,-0.000002,0.002814,0.000000,0.000000,0.039999,0.000000,-0.000046,0.000111,0.000021,0.000000,0.000000,0.000000,0.000000,819,819,819,819
8188,0,0.000000,0.000000,-0.062500,-0.00,0.00,0.001966,0.005000,-0.000001,0.002816,0.000000,0.000000,0.039999,0.000000,-0.000036,0.000076,-0.000020,0.000000,0.000000,0.000000,0.000000,819,819,819,819
8198,0,0.000000,0.000000,-0.062500,-0.00,0.00,0.001135,0.005000,-0.000001,0.002817,0.000000,0.000000,0.039999,0.000000,-0.000036,0.000058,-0.000011,0.000000,0.000000,0.000000,0.000000,819,819,819,819
8207,0,0.000000,0.000000,-0.062500,0.00,0.00,0.000057,0.005000,0.000001,0.002819,0.000000,0.000000,0.039999,0.000000,-0.000015,0.000023,-0.000000,0.000000,0.000000,0.000000,0.000000,819,819,819,819
8217,0,0.000000,0.000000,-0.062500,0.00,0.00,-0.003106,0.005000,0.000002,0.002816,0.000000,0.000000,0.039999,0.000000,-0.000004,0.000076,0.000031,0.000000,0.000000,0.000000,0.000000,819,819,819,819
8228,0,0.000000,0.000000,-0.062500,0.00,0.00,-0.004300,0.005000,0.000000,0.002817,0.000000,0.000000,0.039999,0.000000,-0.000025,0.000058,0.000043,0.000000,0.000000,0.000000,0.000000,819,819,819,819
8238,0,0.000000,0.000000,-0.062500,0.00,-0.00,-0.001251,0.005000,0.000000,0.002815,0.000000,0.000000,0.039999,0.000000,-0.000025,0.000093,0.000013,0.000000,0.000000,0.000000,0.000000,819,819,819,819
8248,0,0.000000,0.000000,-0.062500,0.00,-0.00,0.000974,0.005000,0.000000,0.002815,0.000000,0.000000,0.039999,0.000000,-0.000025,0.000093,-0.000010,0.000000,0.000000,0.000000,0.000000,819,819,819,819
8258,0,0.000000,0.000000,-0.062500,0.00,0.00,-0.000988,0.005000,0.000001,0.002819,0.000000,0.000000,0.039999,0.000000,-0.000015,0.000041,0.000010,0.000000,0.000000,0.000000,0.000000,819,819,819,819
8268,0,0.000000,0.000000,-0.062500,-0.00,0.00,-0.003158,0.005000,-0.000001,0.002818,0.000000,0.000000,0.039999,0.000000,-0.000036,0.000058,0.000032,0.000000,0.000000,0.000000,0.000000,819,819,819,819
8278,0,0.000000,0.000000,-0.062500,-0.00,0.00,-0.002230,0.005000,-0.000002,0.002818,0.000000,0.000000,0.039999,0.000000,-0.000046,0.000058,0.000022,0.000000,0.000000,0.000000,0.000000,819,819,819,819
8288,0,0.000000,0.000000,-0.062500,-0.00,-0.00,-0.000112,0.005000,-0.000001,0.002814,0.000000,0.000000,0.039999,0.000000,-0.000036,0.000111,0.000001,0.000000,0.000000,0.000000,0.000000,819,819,819,819
8298,0,0.000000,0.000000,-0.062500,0.00,0.00,-0.002078,0.005000,0.000000,0.002817,0.000000,0.000000,0.039999,0.000000,-0.000025,0.000076,0.000021,0.000000,0.000000,0.000000,0.000000,819,819,819,819
8308,0,0.000000,0.000000,-0.062500,-0.00,0.00,-0.001140,0.005000,-0.000002,0.002818,0.000000,0.000000,0.039999,0.000000,-0.000046,0.000058,0.000011,0.000000,0.000000,0.000000,0.000000,819,819,819,819
8318,0,0.000000,0.000000,-0.062500,-0.00,-0.00,-0.000057,0.005000,-0.000002,0.002816,0.000000,0.000000,0.039999,0.000000,-0.000046,0.000094,0.000000,0.000000,0.000000,0.000000,0.000000,819,819,819,819
8328,0,0.000000,0.000000,-0.062500,0.00,-0.00,-0.001039,0.005000,0.000000,0.002816,0.000000,0.000000,0.039999,0.000000,-0.000025,0.000094,0.000010,0.000000,0.000000,0.000000,0.000000,819,819,819,819
8338,0,0.000000,0.000000,-0.062500,-0.00,-0.00,0.000984,0.005000,-0.000002,0.002816,0.000000,0.000000,0.039999,0.000000,-0.000046,0.000094,-0.000010,0.000000,0.000000,0.000000,0.000000,819,819,819,819
8348,0,0.000000,0.000000,-0.062500,0.00,-0.00,-0.000987,0.005000,0.000000,0.002814,0.000000,0.000000,0.039999,0.000000,-0.000025,0.000129,0.000010,0.000000,0.000000,0.000000,0.000000,819,819,819,819
8358,0,0.000000,0.000000,-0.062500,-0.00,-0.00,0.002023,0.005000,-0.000001,0.002815,0.000000,0.000000,0.039999,0.000000,-0.000036,0.000111,-0.000020,0.000000,0.000000,0.000000,0.000000,819,819,819,819
8368,0,0.000000,0.000000,-0.062500,-0.00,-0.00,0.001137,0.005000,-0.000002,0.002816,0.000000,0.000000,0.039999,0.000000,-0.000046,0.000094,-0.000011,0.000000,0.000000,0.000000,0.000000,819,819,819,819
8378,0,0.000000,0.000000,-0.062500,0.00,0.00,0.001093,0.005000,0.000001,0.002818,0.000000,0.000000,0.039999,0.000000,-0.000015,0.000058,-0.000011,0.000000,0.000000,0.000000,0.000000,819,819,819,819
8388,0,0.000000,0.000000,-0.062500,0.00,-0.00,0.000055,0.005000,0.000000,0.002816,0.000000,0.000000,0.039999,0.000000,-0.000025,0.000094,-0.000000,0.000000,0.000000,0.000000,0.000000,819,819,819,819
8398,0,0.000000,0.000000,-0.062500,0.00,0.00,0.000003,0.005000,0.000001,0.002817,0.000000,0.000000,0.039999,0.000000,-0.000015,0.000076,-0.000000,0.000000,0.000000,0.000000,0.000000,819,819,819,819
8408,0,0.000000,0.000000,-0.062500,0.00,0.00,-0.001036,0.005000,0.000000,0.002818,0.000000,0.000000,0.039999,0.000000,-0.000025,0.000058,0.000010,0.000000,0.000000,0.000000,0.000000,819,819,819,819
8418,0,0.000000,0.000000,-0.062500,0.00,-0.00,-0.001088,0.005000,0.000000,0.002814,0.000000,0.000000,0.039999,0.000000,-0.000025,0.000129,0.000011,0.000000,0.000000,0.000000,0.000000,819,819,819,819
8428,0,0.000000,0.000000,-0.062500,-0.00,0.00,-0.002127,0.005000,-0.000002,0.002818,0.000000,0.000000,0.039999,0.000000,-0.000046,0.000058,0.000021,0.000000,0.000000,0.000000,0.000000,819,819,819,819
8438,0,0.000000,0.000000,-0.062500,0.00,0.00,-0.001143,0.005000,0.000001,0.002817,0.000000,0.000000,0.039999,0.000000,-0.000015,0.000076,0.000011,0.000000,0.000000,0.000000,0.000000,819,819,819,819
8448,0,0.000000,0.000000,-0.062500,0.00,0.00,-0.002130,0.005000,0.000000,0.002817,0.000000,0.000000,0.039999,0.000000,-0.000025,0.000076,0.000021,0.000000,0.000000,0.000000,0.000000,819,819,819,819
8466,0,0.000000,0.000000,-0.062500,0.00,0.00,-0.000106,0.005000,0.000001,0.002818,0.000000,0.000000,0.039999,0.000000,-0.000015,0.000058,0.000001,0.000000,0.000000,0.000000,0.000000,819,819,819,819
8478,0,0.000000,0.000000,-0.062500,0.00,0.00,-0.001042,0.005000,0.000001,0.002817,0.000000,0.000000,0.039999,0.000000,-0.000015,0.000076,0.000010,0.000000,0.000000,0.000000,0.000000,819,819,819,819
8488,0,0.000000,0.000000,-0.062500,0.00,-0.00,0.000984,0.005000,0.000000,0.002816,0.000000,0.000000,0.039999,0.000000,-0.000025,0.000094,-0.000010,0.000000,0.000000,0.000000,0.000000,819,819,819,819
8498,0,0.000000,0.000000,-0.062500,0.00,-0.00,-0.002023,0.005000,0.000000,0.002816,0.000000,0.000000,0.039999,0.000000,-0.000025,0.000094,0.000020,0.000000,0.000000,0.000000,0.000000,819,819,819,819
8508,0,0.000000,0.000000,-0.062500,-0.00,0.00,0.001971,0.005000,-0.000001,0.002817,0.000000,0.000000,0.039999,0.000000,-0.000036,0.000076,-0.000020,0.000000,0.000000,0.000000,0.000000,819,819,819,819
8518,0,0.000000,0.000000,-0.062500,0.00,0.00,0.002171,0.005000,0.000003,0.002819,0.000000,0.000000,0.039999,0.000000,0.000006,0.000041,-0.000022,0.000000,0.000000,0.000000,0.000000,819,819,819,819
8528,0,0.000000,0.000000,-0.062500,-0.00,0.00,-0.000928,0.005000,-0.000001,0.002820,0.000000,0.000000,0.039999,0.000000,-0.000036,0.000023,0.000009,0.000000,0.000000,0.000000,0.000000,819,819,819,819
8538,0,0.000000,0.000000,-0.062500,-0.00,0.00,0.003062,0.005000,-0.000001,0.002817,0.000000,0.000000,0.039999,0.000000,-0.000036,0.000076,-0.000031,0.000000,0.000000,0.000000,0.000000,819,819,819,819
8548,0,0.000000,0.000000,-0.062500,-0.00,0.00,0.000153,0.005000,-0.000001,0.002818,0.000000,0.000000,0.039999,0.000000,-0.000036,0.000059,-0.000002,0.000000,0.000000,0.000000,0.000000,819,819,819,819
8558,0,0.000000,0.000000,-0.062500,0.00,0.00,-0.001029,0.005000,0.000001,0.002818,0.000000,0.000000,0.039999,0.000000,-0.000015,0.000059,0.000010,0.000000,0.000000,0.000000,0.000000,819,819,819,819
8568,0,0.000000,0.000000,-0.062500,-0.00,-0.00,-0.001088,0.005000,-0.000001,0.002814,0.000000,0.000000,0.039999,0.000000,-0.000036,0.000129,0.000011,0.000000,0.000000,0.000000,0.000000,819,819,819,819
8579,0,0.000000,0.000000,-0.062500,0.00,-0.00,0.000982,0.005000,0.000000,0.002816,0.000000,0.000000,0.039999,0.000000,-0.000025,0.000094,-0.000010,0.000000,0.000000,0.000000,0.000000,819,819,819,819
8589,0,0.000000,0.000000,-0.062500,0.00,-0.00,0.000049,0.005000,0.000000,0.002811,0.000000,0.000000,0.039999,0.000000,-0.000025,0.000182,-0.000000,0.000000,0.000000,0.000000,0.000000,819,819,819,819
8599,0,0.000000,0.000000,-0.062500,0.00,-0.00,0.000002,0.005000,0.000000,0.002816,0.000000,0.000000,0.039999,0.000000,-0.000025,0.000094,0.000000,0.000000,0.000000,0.000000,0.000000,819,819,819,819
8608,0,0.000000,0.000000,-0.062500,-0.00,0.00,0.000000,0.005000,-0.000002,0.002820,0.000000,0.000000,0.039999,0.000000,-0.000046,0.000023,0.000000,0.000000,0.000000,0.000000,0.000000,819,819,819,819
8619,0,0.000000,0.000000,-0.062500,0.00,0.00,0.002073,0.005000,0.000000,0.002819,0.000000,0.000000,0.039999,0.000000,-0.000025,0.000041,-0.000021,0.000000,0.000000,0.000000,0.000000,819,819,819,819
8629,0,0.000000,0.000000,-0.062500,-0.00,-0.00,0.000104,0.005000,-0.000003,0.002815,0.000000,0.000000,0.039999,0.000000,-0.000056,0.000112,-0.000001,0.000000,0.000000,0.000000,0.000000,819,819,819,819
8639,0,0.000000,0.000000,-0.062500,0.00,-0.00,0.001041,0.005000,0.000000,0.002816,0.000000,0.000000,0.039999,0.000000,-0.000025,0.000094,-0.000010,0.000000,0.000000,0.000000,0.000000,819,819,819,819
8649,0,0.000000,0.000000,-0.062500,-0.00,0.00,0.001088,0.005000,-0.000002,0.002818,0.000000,0.000000,0.039999,0.000000,-0.000046,0.000059,-0.000011,0.000000,0.000000,0.000000,0.000000,819,819,819,819
8659,0,0.000000,0.000000,-0.062500,0.00,0.00,0.000054,0.005000,0.000001,0.002820,0.000000,0.000000,0.039999,0.000000,-0.000015,0.000023,-0.000000,0.000000,0.000000,0.000000,0.000000,819,819,819,819
8669,0,0.000000,0.000000,-0.062500,0.00,-0.00,0.001039,0.005000,0.000000,0.002816,0.000000,0.000000,0.039999,0.000000,-0.000025,0.000094,-0.000010,0.000000,0.000000,0.000000,0.000000,819,819,819,819
8679,0,0.000000,0.000000,-0.062500,-0.00,-0.00,-0.000984,0.005000,-0.000001,0.002815,0.000000,0.000000,0.039999,0.000000,-0.000036,0.000112,0.000010,0.000000,0.000000,0.000000,0.000000,819,819,819,819
8689,0,0.000000,0.000000,-0.062500,-0.00,-0.00,0.000987,0.005000,-0.000002,0.002816,0.000000,0.000000,0.039999,0.000000,-0.000046,0.000094,-0.000010,0.000000,0.000000,0.000000,0.000000,819,819,819,819
8699,0,0.000000,0.000000,-0.062500,0.00,-0.00,-0.000987,0.005000,0.000003,0.002816,0.000000,0.000000,0.039999,0.000000,0.000006,0.000094,0.000010,0.000000,0.000000,0.000000,0.000000,819,819,819,819
8711,0,0.000000,0.000000,-0.062500,0.00,0.00,-0.000049,0.005000,0.000001,0.002817,0.000000,0.000000,0.039999,0.000000,-0.000015,0.000076,0.000000,0.000000,0.000000,0.000000,0.000000,819,819,819,819
8721,0,0.000000,0.000000,-0.062500,0.00,0.00,0.001034,0.005000,0.000001,0.002817,0.000000,0.000000,0.039999,0.000000,-0.000015,0.000076,-0.000010,0.000000,0.000000,0.000000,0.000000,819,819,819,819
8730,0,0.000000,0.000000,-0.062500,-0.00,-0.00,0.002124,0.005000,-0.000002,0.002814,0.000000,0.000000,0.039999,0.000000,-0.000046,0.000129,-0.000021,0.000000,0.000000,0.000000,0.000000,819,819,819,819
8740,0,0.000000,0.000000,-0.062500,-0.00,-0.00,0.002179,0.005000,-0.000001,0.002814,0.000000,0.000000,0.039999,0.000000,-0.000036,0.000129,-0.000022,0.000000,0.000000,0.000000,0.000000,819,819,819,819
8750,0,0.000000,0.000000,-0.062500,-0.00,0.00,0.000109,0.005000,-0.000002,0.002817,0.000000,0.000000,0.039999,0.000000,-0.000046,0.000077,-0.000001,0.000000,0.000000,0.000000,0.000000,819,819,819,819
8759,0,0.000000,0.000000,-0.062500,-0.00,-0.00,-0.001031,0.005000,-0.000002,0.002816,0.000000,0.000000,0.039999,0.000000,-0.000046,0.000094,0.000010,0.000000,0.000000,0.000000,0.000000,819,819,819,819
8777,0,0.000000,0.000000,-0.062500,-0.00,0.00,0.003057,0.005000,-0.000002,0.002819,0.000000,0.000000,0.039999,0.000000,-0.000046,0.000059,-0.000031,0.000000,0.000000,0.000000,0.000000,819,819,819,819
8788,0,0.000000,0.000000,-0.062500,-0.00,0.00,0.002225,0.005000,-0.000002,0.002818,0.000000,0.000000,0.039999,0.000000,-0.000046,0.000077,-0.000022,0.000000,0.000000,0.000000,0.000000,819,819,819,819
8799,0,0.000000,0.000000,-0.062500,0.00,-0.00,0.000111,0.006000,0.000000,0.002814,0.000000,0.000000,0.039999,0.000000,-0.000025,0.000129,-0.000001,0.000000,0.000000,0.000000,0.000000,819,819,819,819
8809,0,0.000000,0.000000,-0.062500,0.00,0.00,-0.001031,0.006000,0.000000,0.002818,0.000000,0.000000,0.039999,0.000000,-0.000025,0.000077,0.000010,0.000000,0.000000,0.000000,0.000000,819,819,819,819
8819,0,0.000000,0.000000,-0.062500,-0.00,0.00,0.002021,0.006000,-0.000002,0.002818,0.000000,0.000000,0.039999,0.000000,-0.000046,0.000077,-0.000020,0.000000,0.000000,0.000000,0.000000,819,819,819,819
8829,0,0.000000,0.000000,-0.062500,-0.00,0.00,-0.000935,0.006000,-0.000001,0.002819,0.000000,0.000000,0.039999,0.000000,-0.000036,0.000059,0.000009,0.000000,0.000000,0.000000,0.000000,819,819,819,819
8839,0,0.000000,0.000000,-0.062500,0.00,-0.00,0.000990,0.006000,0.000000,0.002816,0.000000,0.000000,0.039999,0.000000,-0.000025,0.000112,-0.000010,0.000000,0.000000,0.000000,0.000000,819,819,819,819
8849,0,0.000000,0.000000,-0.062500,-0.00,-0.00,0.003158,0.007000,-0.000002,0.002816,0.000000,0.000000,0.039999,0.000000,-0.000046,0.000112,-0.000032,0.000000,0.000000,0.000000,0.000000,819,819,819,819
8859,0,0.000000,0.000000,-0.062500,-0.00,-0.00,0.000158,0.007000,-0.000003,0.002816,0.000000,0.000000,0.039999,0.000000,-0.000057,0.000112,-0.000002,0.000000,0.000000,0.000000,0.000000,819,819,819,819
8869,0,0.000000,0.000000,-0.062500,0.00,-0.00,0.000008,0.007000,0.000000,0.002817,0.000000,0.000000,0.039999,0.000000,-0.000025,0.000094,-0.000000,0.000000,0.000000,0.000000,0.000000,819,819,819,819
8879,0,0.000000,0.000000,-0.062500,0.00,0.00,-0.001036,0.008000,0.000002,0.002820,0.000000,0.000000,0.039999,0.000000,-0.000005,0.000041,0.000010,0.000000,0.000000,0.000000,0.000000,819,819,819,819
8890,0,0.000000,0.000000,-0.062500,-0.00,-0.00,-0.000052,0.008000,-0.000003,0.002816,0.000000,0.000000,0.039999,0.000000,-0.000057,0.000112,0.000000,0.000000,0.000000,0.000000,0.000000,819,819,819,819
8899,0,0.000000,0.000000,-0.062500,-0.00,0.00,-0.000003,0.008000,-0.000001,0.002819,0.000000,0.000000,0.039999,0.000000,-0.000036,0.000059,-0.000000,0.000000,0.000000,0.000000,0.000000,819,819,819,819
8909,0,0.000000,0.000000,-0.062500,0.00,0.00,0.001036,0.024000,0.000001,0.002819,0.000000,0.000000,0.039999,0.000000,-0.000015,0.000059,-0.000010,0.000000,0.000000,0.000000,0.000000,819,819,819,819
8919,0,0.000000,0.000000,-0.062500,0.00,-0.00,0.002124,0.028000,0.000000,0.002815,0.000000,0.000000,0.039999,0.000000,-0.000025,0.000130,-0.000021,0.000000,0.000000,0.000000,0.000000,819,819,819,819
8930,0,0.000000,0.000000,-0.062500,-0.00,0.00,0.002179,0.028000,-0.000001,0.002819,0.000000,0.000000,0.039999,0.000000,-0.000036,0.000059,-0.000022,0.000000,0.000000,0.000000,0.000000,819,819,819,819
8940,0,0.000000,0.000000,-0.062500,-0.00,-0.00,0.001145,0.028000,-0.000002,0.002817,0.000000,0.000000,0.039999,0.000000,-0.000046,0.000094,-0.000012,0.000000,0.000000,0.000000,0.000000,819,819,819,819
8949,0,0.000000,0.000000,-0.062500,0.00,0.00,0.001094,0.037000,0.000000,0.002818,0.000000,0.000000,0.039999,0.000000,-0.000025,0.000077,-0.000011,0.000000,0.000000,0.000000,0.000000,819,819,819,819
8959,0,0.000000,0.000000,-0.062500,0.00,0.00,-0.000982,0.037000,0.000001,0.002821,0.000000,0.000000,0.039999,0.000000,-0.000015,0.000024,0.000010,0.000000,0.000000,0.000000,0.000000,819,819,819,819
8969,0,0.000000,0.000000,-0.062500,-0.00,0.00,-0.004194,0.037000,-0.000001,0.002820,0.000000,0.000000,0.039999,0.000000,-0.000036,0.000042,0.000042,0.000000,0.000000,0.000000,0.000000,819,819,819,819
8980,0,0.000000,0.000000,-0.062500,0.00,0.00,-0.003319,0.044000,0.000000,0.002818,0.000000,0.000000,0.039999,0.000000,-0.000025,0.000077,0.000033,0.000000,0.000000,0.000000,0.000000,819,819,819,819
8990,0,0.000000,0.000000,-0.062500,0.00,0.00,-0.003275,0.044000,0.000001,0.002821,0.000000,0.000000,0.039999,0.000000,-0.000015,0.000024,0.000033,0.000000,0.000000,0.000000,0.000000,819,819,819,819
9000,0,0.000000,0.000000,-0.062500,-0.00,0.00,-0.001200,0.044000,-0.000001,0.002819,0.000000,0.000000,0.039999,0.000000,-0.000036,0.000059,0.000012,0.000000,0.000000,0.000000,0.000000,819,819,819,819
9010,0,0.000000,0.000000,-0.062500,0.00,0.00,-0.002133,0.050000,0.000001,0.002818,0.000000,0.000000,0.039999,0.000000,-0.000015,0.000077,0.000021,0.000000,0.000000,0.000000,0.000000,819,819,819,819
9020,0,0.000000,0.000000,-0.062500,0.00,0.00,0.000930,0.051000,0.000000,0.002820,0.000000,0.000000,0.039999,0.000000,-0.000025,0.000042,-0.000009,0.000000,0.000000,0.000000,0.000000,819,819,819,819
9030,0,0.000000,0.000000,-0.062500,0.00,0.00,-0.002026,0.051000,0.000001,0.002820,0.000000,0.000000,0.039999,0.000000,-0.000015,0.000042,0.000020,0.000000,0.000000,0.000000,0.000000,819,819,819,819
9040,0,0.000000,0.000000,-0.062500,0.00,0.00,-0.001138,0.051000,0.000000,0.002818,0.000000,0.000000,0.039999,0.000000,-0.000025,0.000077,0.000011,0.000000,0.000000,0.000000,0.000000,819,819,819,819
9050,0,0.000000,0.000000,-0.062500,0.00,0.00,-0.001093,0.051000,0.000000,0.002819,0.000000,0.000000,0.039999,0.000000,-0.000025,0.000059,0.000011,0.000000,0.000000,0.000000,0.000000,819,819,819,819
9060,0,0.000000,0.000000,-0.062500,0.00,0.00,-0.000055,0.051000,0.000001,0.002822,0.000000,0.000000,0.039999,0.000000,-0.000015,0.000006,0.000000,0.000000,0.000000,0.000000,0.000000,819,819,819,819
9070,0,0.000000,0.000000,-0.062500,0.00,0.00,-0.002075,0.051000,0.000002,0.002819,0.000000,0.000000,0.039999,0.000000,-0.000005,0.000059,0.000021,0.000000,0.000000,0.000000,0.000000,819,819,819,819
9080,0,0.000000,0.000000,-0.062500,-0.00,0.00,-0.000104,0.052000,-0.000001,0.002818,0.000000,0.000000,0.039999,0.000000,-0.000036,0.000077,0.000001,0.000000,0.000000,0.000000,0.000000,819,819,819,819
9095,0,0.000000,0.000000,-0.062500,0.00,0.00,0.001031,0.056000,0.000001,0.002819,0.000000,0.000000,0.039999,0.000000,-0.000015,0.000059,-0.000010,0.000000,0.000000,0.000000,0.000000,819,819,819,819
9107,0,0.000000,0.000000,-0.062500,0.00,0.00,-0.003057,0.060000,0.000002,0.002821,0.000000,0.000000,0.039999,0.000000,-0.000005,0.000024,0.000031,0.000000,0.000000,0.000000,0.000000,819,819,819,819
9118,0,0.000000,0.000000,-0.062500,0.00,0.00,-0.003262,0.060000,0.000000,0.002819,0.000000,0.000000,0.039999,0.000000,-0.000025,0.000059,0.000033,0.000000,0.000000,0.000000,0.000000,819,819,819,819
9129,0,0.000000,0.000000,-0.062500,0.00,0.00,-0.002236,0.065000,0.000003,0.002819,0.000000,0.000000,0.039999,0.000000,0.000006,0.000059,0.000022,0.000000,0.000000,0.000000,0.000000,819,819,819,819
9141,0,0.000000,0.000000,-0.062500,0.00,0.00,0.000925,0.065000,0.000000,0.002819,0.000000,0.000000,0.039999,0.000000,-0.000025,0.000059,-0.000009,0.000000,0.000000,0.000000,0.000000,819,819,819,819
9151,0,0.000000,0.000000,-0.062500,0.00,0.00,0.001083,0.072000,0.000001,0.002820,0.000000,0.000000,0.039999,0.000000,-0.000015,0.000042,-0.000011,0.000000,0.000000,0.000000,0.000000,819,819,819,819
9160,0,0.000000,0.000000,-0.062500,0.00,-0.00,0.000054,0.072000,0.000001,0.002817,0.000000,0.000000,0.039999,0.000000,-0.000015,0.000095,-0.000000,0.000000,0.000000,0.000000,0.000000,819,819,819,819
9170,0,0.000000,0.000000,-0.062500,0.00,-0.00,0.000003,0.072000,0.000001,0.002817,0.000000,0.000000,0.039999,0.000000,-0.000015,0.000095,0.000000,0.000000,0.000000,0.000000,0.000000,819,819,819,819
9180,0,0.000000,0.000000,-0.062500,0.00,0.00,-0.002072,0.084000,0.000002,0.002820,0.000000,0.000000,0.039999,0.000000,-0.000005,0.000042,0.000021,0.000000,0.000000,0.000000,0.000000,819,819,819,819
9190,0,0.000000,0.000000,-0.062500,0.00,0.00,-0.001140,0.092000,0.000000,0.002819,0.000000,0.000000,0.039999,0.000000,-0.000025,0.000059,0.000011,0.000000,0.000000,0.000000,0.000000,819,819,819,819
9200,0,0.000000,0.000000,-0.062500,0.00,0.00,-0.002130,0.092000,0.000003,0.002818,0.000000,0.000000,0.039999,0.000000,0.000006,0.000077,0.000021,0.000000,0.000000,0.000000,0.000000,819,819,819,819
9210,0,0.000000,0.000000,-0.062500,0.00,0.00,-0.002179,0.107000,0.000001,0.002820,0.000000,0.000000,0.039999,0.000000,-0.000015,0.000042,0.000022,0.107079,0.106951,0.107005,0.106965,1000,1000,1000,1000
9220,0,0.000000,0.000000,-0.062500,0.00,-0.00,0.000927,0.113000,0.000003,0.002834,0.000000,0.000000,0.039999,0.000000,0.000006,0.000130,-0.000009,0.113115,0.112873,0.113145,0.112866,1000,1000,1000,1000
9230,0,0.000000,0.000000,-0.062500,0.00,-0.00,-0.002026,0.113000,0.000002,0.002853,0.000000,0.000000,0.039999,0.000000,-0.000005,0.000113,0.000020,0.113138,0.112871,0.113088,0.112903,1000,1000,1000,1000
9241,0,0.000000,0.000000,-0.062500,0.00,0.00,0.000935,0.132000,0.000000,0.002873,0.000000,0.000000,0.039999,0.000000,-0.000025,0.000078,-0.000009,0.132094,0.131957,0.132062,0.131887,1000,1000,1000,1000
9250,0,0.000000,0.000000,-0.062500,0.00,-0.00,0.000047,0.135000,0.000002,0.002888,0.000000,0.000000,0.039999,0.000000,-0.000005,0.000114,-0.000000,0.135118,0.134891,0.135109,0.134882,1000,1000,1000,1000
9260,0,0.000000,0.000000,-0.062500,0.00,-0.00,0.003111,0.135000,0.000000,0.002907,0.000000,0.000000,0.039999,0.000000,-0.000025,0.000096,-0.000031,0.135090,0.134960,0.135102,0.134847,1000,1000,1000,1000
9270,0,0.000000,0.000000,-0.062500,0.00,-0.00,-0.001917,0.135000,0.000003,0.002923,0.000000,0.000000,0.039999,0.000000,0.000006,0.000114,0.000019,0.135128,0.134861,0.135101,0.134911,1000,1000,1000,1000
9280,0,0.000000,0.000000,-0.062500,0.00,0.00,0.000940,0.140000,0.000003,0.002950,0.000000,0.000000,0.039999,0.000000,0.000006,-0.000044,-0.000009,0.139941,0.140048,0.139971,0.140041,1000,1000,1000,1000
9291,0,0.000000,0.062500,-0.062500,-0.00,0.27,-0.011352,0.140000,-0.000004,-0.001172,0.000000,0.000000,0.039999,0.000000,-0.000067,-0.004616,0.000114,0.135564,0.144569,0.135203,0.144664,1000,1000,1000,1000
9301,0,0.000000,0.062500,-0.062500,0.01,0.00,-0.007822,0.140000,0.000013,-0.001452,0.000000,0.000000,0.039999,0.000000,0.000110,-0.000068,0.000079,0.139901,0.139880,0.139963,0.140256,1000,1000,1000,1000
9311,0,0.062500,0.062500,-0.062500,0.31,-0.00,-0.020081,0.142000,-0.002814,-0.001471,0.000000,0.000000,0.039999,0.000000,0.003147,0.000055,0.000201,0.139110,0.138596,0.145001,0.145293,1000,1000,1000,1000
9321,0,0.062500,0.062500,-0.062500,-0.02,-0.03,-0.016548,0.143000,-0.003146,-0.001505,0.000000,0.000000,0.039999,0.000000,-0.000148,0.000443,0.000166,0.143757,0.142539,0.143129,0.142576,1000,1000,1000,1000
9330,0,0.062500,0.062500,-0.062500,-0.00,0.00,-0.022589,0.143000,-0.003142,-0.001481,0.000000,0.000000,0.039999,0.000000,-0.000075,-0.000157,0.000227,0.143145,0.143005,0.142542,0.143308,1000,1000,1000,1000
9341,0,0.062500,0.062500,-0.062500,0.00,0.01,-0.011492,0.144000,-0.003136,-0.001490,0.000000,0.000000,0.039999,0.000000,0.000008,-0.000192,0.000116,0.143916,0.144068,0.143700,0.144316,1000,1000,1000,1000
9351,0,0.062500,0.062500,-0.062500,0.00,0.00,0.012897,0.143000,-0.003139,-0.001506,0.000000,0.000000,0.039999,0.000000,0.000008,-0.000122,-0.000129,0.142741,0.143243,0.143015,0.143001,1000,1000,1000,1000
9360,0,0.062500,0.062500,-0.062500,-0.01,-0.03,0.040024,0.143000,-0.003153,-0.001557,0.000000,0.000000,0.039999,0.000000,-0.000106,0.000565,-0.000401,0.143271,0.142942,0.143860,0.141928,1000,1000,1000,1000
9371,0,0.000000,0.062500,0.000000,-0.31,-0.05,0.047598,0.143000,-0.000325,-0.001586,0.000000,0.000000,0.039999,0.000000,-0.003108,0.000865,-0.000477,0.146496,0.145720,0.141234,0.138550,1000,1000,1000,1000
9381,0,0.000000,0.125000,0.000000,-0.02,0.27,0.046940,0.144000,-0.000037,-0.005676,0.000000,0.000000,0.039999,0.000000,-0.000233,-0.004737,-0.000471,0.139025,0.149440,0.139501,0.148034,1000,1000,1000,1000
9391,0,-0.062500,0.125000,0.000000,-0.32,-0.03,0.058307,0.144000,0.002786,-0.006017,0.000000,0.000000,0.039999,0.000000,-0.003311,0.000382,-0.000585,0.147109,0.147514,0.141656,0.139722,1000,1000,1000,1000
9401,0,-0.062500,0.125000,0.000000,-0.00,-0.03,0.079601,0.144000,0.003107,-0.006056,0.000000,0.000000,0.039999,0.000000,-0.000131,0.000364,-0.000799,0.143697,0.144566,0.145031,0.142706,1000,1000,1000,1000
9418,0,-0.125000,0.125000,0.000000,-0.20,-0.00,0.001907,0.143000,0.006047,-0.006070,0.000000,0.000000,0.039999,0.000000,-0.002077,-0.000060,-0.000020,0.144997,0.145156,0.140884,0.140963,1000,1000,1000,1000
9430,0,0.062500,0.062500,0.000000,0.79,-0.15,-0.235142,0.143000,-0.002343,-0.001852,0.000000,0.000000,0.039999,0.000000,0.007912,0.002523,0.002357,0.139968,0.130208,0.151078,0.150745,1000,1000,1000,1000
9441,0,0.187500,-0.062500,0.000000,0.57,-0.40,-0.230414,0.143000,-0.008825,0.006699,0.000000,0.000000,0.039999,0.000000,0.005741,0.006905,0.002310,0.146474,0.128044,0.153335,0.144147,1000,1000,1000,1000
9450,0,0.312500,-0.125000,0.000000,0.69,-0.32,-0.161783,0.143000,-0.014963,0.011233,0.000000,0.000000,0.039999,0.000000,0.007072,0.005622,0.001623,0.143173,0.128683,0.154070,0.146073,1000,1000,1000,1000
9461,0,0.437500,-0.187500,0.000000,0.57,-0.39,-0.038142,0.143000,-0.021353,0.015644,0.000000,0.000000,0.039999,0.000000,0.005947,0.006918,0.000384,0.144356,0.129751,0.155480,0.142413,1000,1000,1000,1000
9471,0,0.437500,-0.125000,0.000000,0.00,0.17,-0.039213,0.143000,-0.021941,0.011904,0.000000,0.000000,0.039999,0.000000,0.000259,-0.002649,0.000395,0.140488,0.144995,0.140214,0.146303,1000,1000,1000,1000
9481,0,0.500000,0.000000,0.000000,0.29,0.56,-0.048594,0.143000,-0.024800,0.003565,0.000000,0.000000,0.039999,0.000000,0.003192,-0.009507,0.000490,0.130790,0.148825,0.136196,0.156189,1000,1000,1000,1000
9491,0,0.500000,0.000000,0.000000,-0.04,0.03,0.049385,0.143000,-0.025155,0.003048,0.000000,0.000000,0.039999,0.000000,-0.000133,-0.000412,-0.000492,0.142228,0.144038,0.142947,0.142787,1000,1000,1000,1000
9501,0,0.437500,0.000000,0.062500,-0.37,0.06,0.066719,0.143000,-0.022381,0.003093,0.000000,0.000000,0.039999,0.000000,-0.003492,-0.000906,-0.000666,0.144919,0.148064,0.139269,0.139748,1000,1000,1000,1000
9511,0,0.437500,-0.062500,0.125000,-0.09,-0.32,0.014735,0.143000,-0.022125,0.007140,0.000000,0.000000,0.039999,0.000000,-0.000726,0.005542,-0.000146,0.149123,0.138330,0.147962,0.136586,1000,1000,1000,1000
9521,0,0.437500,0.000000,0.187500,-0.14,0.29,0.015245,0.143000,-0.022191,0.003384,0.000000,0.000000,0.039999,0.000000,-0.001204,-0.004773,-0.000151,0.139280,0.149128,0.137173,0.146419,1000,1000,1000,1000
9531,0,0.437500,0.000000,0.187500,-0.15,0.03,0.062940,0.143000,-0.022224,0.003142,0.000000,0.000000,0.039999,0.000000,-0.001339,-0.000393,-0.000629,0.143317,0.145362,0.141896,0.141425,1000,1000,1000,1000
9541,0,0.375000,-0.062500,0.312500,-0.47,-0.28,0.136828,0.143000,-0.019432,0.007260,0.000000,0.000000,0.039999,0.000000,-0.004543,0.004839,-0.001370,0.151011,0.144074,0.144666,0.132248,1000,1000,1000,1000
9554,0,0.250000,-0.062500,0.500000,-0.67,-0.01,0.123942,0.143000,-0.013389,0.007570,0.000000,0.000000,0.039999,0.000000,-0.006584,0.000337,-0.001242,0.148679,0.150489,0.137994,0.134838,1000,1000,1000,1000
9564,0,0.187500,-0.062500,0.625000,-0.56,-0.06,0.098427,0.143000,-0.010162,0.007561,0.000000,0.000000,0.039999,0.000000,-0.005535,0.001254,-0.000986,0.148803,0.148268,0.139705,0.135224,1000,1000,1000,1000
9573,0,0.125000,0.062500,0.812500,-0.61,0.56,0.123058,0.143000,-0.007094,-0.000577,0.000000,0.000000,0.039999,0.000000,-0.006104,-0.009562,-0.001234,0.138309,0.159900,0.128568,0.145224,1000,1000,1000,1000
9583,0,0.062500,0.125000,1.000000,-0.60,0.11,0.150197,0.143000,-0.003955,-0.005446,0.000000,0.000000,0.039999,0.000000,-0.005988,-0.002016,-0.001506,0.145466,0.152510,0.136503,0.137521,1000,1000,1000,1000
9593,0,0.000000,0.250000,1.187500,-0.64,0.44,0.103885,0.143000,-0.000870,-0.013974,0.000000,0.000000,0.039999,0.000000,-0.006448,-0.007712,-0.001043,0.140693,0.158203,0.129882,0.143221,1000,1000,1000,1000
9603,0,0.000000,0.375000,1.375000,-0.38,0.42,0.038355,0.144000,-0.000608,-0.022904,0.000000,0.000000,0.039999,0.000000,-0.003851,-0.007603,-0.000386,0.139862,0.155840,0.132933,0.147365,1000,1000,1000,1000
9612,0,0.000000,0.500000,1.625000,-0.39,0.39,0.035079,0.144000,-0.000618,-0.031910,0.000000,0.000000,0.039999,0.000000,-0.003977,-0.007177,-0.000354,0.140446,0.155508,0.133199,0.146846,1000,1000,1000,1000
9622,0,0.000000,0.750000,1.875000,-0.41,0.85,0.011081,0.144000,-0.000637,-0.049294,0.000000,0.000000,0.039999,0.000000,-0.004187,-0.015259,-0.000113,0.132814,0.163559,0.124667,0.154959,1000,1000,1000,1000
9632,0,0.000000,1.000000,2.125000,-0.45,0.87,-0.033644,0.143000,-0.000674,-0.067233,0.000000,0.000000,0.039999,0.000000,-0.004583,-0.015888,0.000335,0.132030,0.163136,0.122193,0.154640,1000,1000,1000,1000
9642,0,0.062500,1.187500,2.437500,-0.18,0.56,-0.069041,0.143000,-0.003525,-0.081211,0.000000,0.000000,0.039999,0.000000,-0.001797,-0.010865,0.000690,0.134623,0.154972,0.129648,0.152757,1000,1000,1000,1000
9652,0,0.125000,1.437500,2.750000,-0.20,0.81,-0.059412,0.143000,-0.006670,-0.099121,0.000000,0.000000,0.039999,0.000000,-0.001933,-0.015436,0.000594,0.130090,0.159775,0.125037,0.157098,1000,1000,1000,1000
9662,0,0.187500,1.750000,3.062500,-0.21,1.04,-0.074475,0.143000,-0.009820,-0.121574,0.000000,0.000000,0.039999,0.000000,-0.002078,-0.019699,0.000745,0.126125,0.164032,0.120478,0.161366,1000,1000,1000,1000
9672,0,0.312500,2.000000,3.375000,0.08,0.75,-0.127042,0.143000,-0.015794,-0.140282,0.000000,0.000000,0.039999,0.000000,0.000875,-0.015093,0.001273,0.128305,0.155945,0.127510,0.160240,1000,1000,1000,1000
9682,0,0.437500,2.312500,3.687500,0.06,1.06,-0.229154,0.143000,-0.022079,-0.162907,0.000000,0.000000,0.039999,0.000000,0.000773,-0.020805,0.002297,0.123719,0.160735,0.120671,0.166875,1000,1000,1000,1000
9692,0,0.625000,2.625000,4.062500,0.36,0.97,-0.268457,0.143000,-0.031185,-0.186070,0.000000,0.000000,0.039999,0.000000,0.003843,-0.019761,0.002692,0.122089,0.156226,0.124390,0.169295,1000,1000,1000,1000
9702,0,0.625000,2.625000,4.062500,-0.60,-0.71,-0.271459,0.143000,-0.032171,-0.188944,0.000000,0.000000,0.039999,0.000000,-0.005762,0.008798,0.002723,0.160284,0.137241,0.143312,0.131163,1000,1000,1000,1000
9712,0,1.000000,3.437500,4.750000,1.25,3.31,-0.318242,0.143000,-0.049114,-0.243382,0.000000,0.000000,0.039999,0.000000,0.012986,-0.060468,0.003194,0.072740,0.187289,0.092324,0.219648,1000,1005,1000,1031
9729,0,1.250000,3.937500,5.125000,0.09,0.61,-0.346488,0.143000,-0.062830,-0.282888,0.000000,0.000000,0.039999,0.000000,0.001508,-0.015216,0.003478,0.129755,0.153230,0.125813,0.163202,1000,1000,1000,1000
9741,0,1.500000,4.500000,5.562500,0.37,1.36,-0.345828,0.143000,-0.075116,-0.323579,0.000000,0.000000,0.039999,0.000000,0.004465,-0.028684,0.003474,0.113324,0.163745,0.115308,0.179623,1000,1000,1000,1000
9750,0,1.750000,5.062500,5.937500,0.68,2.08,-0.403827,0.143000,-0.087389,-0.364556,0.000000,0.000000,0.039999,0.000000,0.007678,-0.041636,0.004057,0.097742,0.172901,0.104985,0.196371,1000,1000,1000,1012
9761,0,2.062500,5.687500,6.375000,0.68,1.67,-0.460614,0.143000,-0.103107,-0.411321,0.000000,0.000000,0.039999,0.000000,0.007856,-0.035495,0.004628,0.104277,0.166011,0.110733,0.190979,1000,1000,1000,1008
9771,0,2.375000,6.312500,6.812500,0.80,1.93,-0.431329,0.143000,-0.118729,-0.457699,0.000000,0.000000,0.039999,0.000000,0.009151,-0.040713,0.004337,0.097473,0.170225,0.107102,0.197201,1000,1000,1000,1013
9781,0,2.687500,7.000000,7.312500,0.77,2.25,-0.413284,0.143000,-0.134503,-0.508698,0.000000,0.000000,0.039999,0.000000,0.009056,-0.047130,0.004158,0.090972,0.176916,0.100768,0.203343,1000,1000,1000,1018
9792,0,3.000000,7.625000,7.750000,0.61,1.67,-0.435180,0.143000,-0.150429,-0.556509,0.000000,0.000000,0.039999,0.000000,0.007590,-0.037999,0.004379,0.101791,0.169030,0.108211,0.192968,1000,1000,1000,1009
9801,0,3.375000,8.312500,8.250000,1.23,2.59,-0.490162,0.143000,-0.168713,-0.607498,0.000000,0.000000,0.039999,0.000000,0.014008,-0.054520,0.004933,0.079405,0.178579,0.097556,0.216461,1000,1000,1000,1029
9812,0,3.750000,8.937500,8.750000,0.82,1.61,-0.530217,0.143000,-0.188043,-0.656278,0.000000,0.000000,0.039999,0.000000,0.010123,-0.038764,0.005337,0.099450,0.166304,0.109022,0.197223,1000,1000,1000,1013
9822,0,4.125000,9.625000,9.250000,1.00,2.23,-0.555018,0.143000,-0.206799,-0.708141,0.000000,0.000000,0.039999,0.000000,0.012151,-0.050208,0.005588,0.086229,0.175469,0.099355,0.210947,1000,1000,1000,1024
9832,0,5.062500,10.937500,10.312500,3.82,5.32,-0.617399,0.143000,-0.251090,-0.801887,0.000000,0.000000,0.039999,0.000000,0.040843,-0.104467,0.006216,0.003906,0.200408,0.073160,0.294526,1000,1016,1000,1093
9842,0,5.062500,10.937500,10.312500,-0.87,-1.18,-0.637099,0.143000,-0.256010,-0.813303,0.000000,0.000000,0.039999,0.000000,-0.006091,0.005924,0.006416,0.161431,0.136751,0.136416,0.137402,1000,1000,1000,1000
9852,0,6.000000,12.125000,11.312500,3.86,4.85,-0.596633,0.143000,-0.298430,-0.895858,0.000000,0.000000,0.039999,0.000000,0.041765,-0.098163,0.006014,0.009086,0.193384,0.080588,0.288942,1000,1010,1000,1088
9862,0,6.000000,12.125000,11.312500,-0.75,-0.96,-0.533468,0.143000,-0.303314,-0.907083,0.000000,0.000000,0.039999,0.000000,-0.004400,0.000586,0.005384,0.153370,0.141430,0.133803,0.143398,1000,1000,1000,1000
9872,0,6.812500,13.000000,12.125000,3.37,3.56,-0.537564,0.143000,-0.340128,-0.969614,0.000000,0.000000,0.039999,0.000000,0.037290,-0.077334,0.005427,0.033803,0.177616,0.097529,0.263051,1000,1000,1000,1067
9882,0,6.812500,13.000000,12.125000,-0.62,-0.68,-0.614454,0.143000,-0.344431,-0.979589,0.000000,0.000000,0.039999,0.000000,-0.002700,-0.005494,0.006201,0.146407,0.144993,0.128605,0.151995,1000,1000,1000,1000
9892,0,7.812500,13.625000,12.750000,4.45,2.54,-0.724000,0.143000,-0.389718,-1.026125,0.000000,0.000000,0.039999,0.000000,0.048569,-0.061066,0.007302,0.040667,0.148196,0.123200,0.259937,1000,1000,1000,1064
9902,0,8.312500,13.875000,13.000000,2.00,0.72,-0.777147,0.143000,-0.417535,-1.051515,0.000000,0.000000,0.039999,0.000000,0.024404,-0.030585,0.007838,0.095850,0.141343,0.128981,0.205827,1000,1000,1000,1020
9912,0,8.875000,14.000000,13.250000,2.38,0.30,-0.833691,0.143000,-0.445688,-1.066772,0.000000,0.000000,0.039999,0.000000,0.028436,-0.023601,0.008409,0.099372,0.129756,0.139425,0.203446,1000,1000,1000,1018
9922,0,8.875000,14.000000,13.250000,-0.34,-0.17,-0.858280,0.143000,-0.448802,-1.073264,0.000000,0.000000,0.039999,0.000000,0.001242,-0.015796,0.008660,0.134623,0.148894,0.119786,0.168697,1000,1000,1000,1000
9932,0,9.937500,14.062500,13.437500,5.09,0.31,-0.839820,0.143000,-0.496941,-1.083165,0.000000,0.000000,0.039999,0.000000,0.056193,-0.024131,0.008479,0.071155,0.102459,0.166584,0.231802,1000,1000,1000,1041
9942,0,9.937500,14.062500,13.437500,-0.15,0.17,-0.884494,0.143000,-0.502623,-1.089255,0.000000,0.000000,0.039999,0.000000,0.003747,-0.021885,0.008931,0.126298,0.152207,0.115931,0.177563,1000,1000,1000,1000
9952,0,10.437500,13.937500,13.437500,2.42,-0.28,-0.938542,0.143000,-0.525523,-1.086800,0.000000,0.000000,0.039999,0.000000,0.029677,-0.014067,0.009477,0.108733,0.117913,0.149133,0.196221,1000,1000,1000,1012
9962,0,11.500000,13.437500,13.312500,5.29,-2.00,-0.997204,0.143000,-0.576287,-1.059049,0.000000,0.000000,0.039999,0.000000,0.059014,0.015556,0.010070,0.109612,0.058360,0.207501,0.196528,1000,1000,1000,1012
9972,0,12.062500,13.125000,13.187500,2.84,-0.97,-1.039516,0.143000,-0.607397,-1.041479,0.000000,0.000000,0.039999,0.000000,0.034805,-0.001617,0.010499,0.117078,0.099313,0.165689,0.189920,1000,1000,1000,1007
9982,0,12.062500,13.125000,13.187500,0.06,0.67,-1.123499,0.143000,-0.610710,-1.045126,0.000000,0.000000,0.039999,0.000000,0.006961,-0.029587,0.011346,0.117798,0.154279,0.109029,0.190894,1000,1000,1000,1008
9992,0,12.625000,12.750000,13.000000,2.91,-1.10,-1.210601,0.143000,-0.636542,-1.025699,0.000000,0.000000,0.039999,0.000000,0.035775,0.000895,0.012225,0.120345,0.094105,0.167445,0.190104,1000,1000,1000,1007
10002,0,13.250000,12.312500,12.812500,3.22,-1.41,-1.214956,0.143000,-0.668060,-1.000175,0.000000,0.000000,0.039999,0.000000,0.039244,0.006653,0.012275,0.122683,0.084828,0.176623,0.187866,1000,1000,1000,1005
10012,0,14.312500,11.375000,12.187500,5.72,-3.73,-0.997553,0.142000,-0.719315,-0.941146,0.000000,0.000000,0.039999,0.000000,0.064829,0.047123,0.010101,0.134396,0.019947,0.243851,0.169807,1000,1000,1018,1000
10022,0,14.687500,10.812500,11.687500,2.38,-1.67,-0.890308,0.142000,-0.742047,-0.903664,0.000000,0.000000,0.039999,0.000000,0.031617,0.012611,0.009031,0.132025,0.088741,0.177197,0.170037,1000,1000,1000,1000
10032,0,15.062500,10.187500,11.250000,2.43,-1.86,-0.817587,0.142000,-0.761402,-0.863722,0.000000,0.000000,0.039999,0.000000,0.032328,0.016643,0.008306,0.134622,0.084723,0.182664,0.165991,1000,1000,1000,1000
10048,0,15.250000,9.562500,10.750000,1.19,-0.66,-0.626383,0.142000,-0.772670,-0.822043,0.000000,0.000000,0.039999,0.000000,0.020085,-0.003030,0.006394,0.125278,0.118551,0.152661,0.171509,1000,1000,1000,1000
10058,0,15.375000,8.937500,10.187500,1.29,-1.80,-0.475887,0.142000,-0.779486,-0.782356,0.000000,0.000000,0.039999,0.000000,0.021106,0.017000,0.004888,0.142781,0.099006,0.175218,0.150995,1000,1000,1000,1000
10070,0,15.562500,8.375000,9.687500,1.43,-1.03,-0.505669,0.142000,-0.789379,-0.744828,0.000000,0.000000,0.039999,0.000000,0.022669,0.004488,0.005189,0.129008,0.109654,0.163968,0.165370,1000,1000,1000,1000
10081,0,15.750000,7.687500,9.187500,1.48,-1.79,-0.503013,0.142000,-0.799373,-0.699717,0.000000,0.000000,0.039999,0.000000,0.023265,0.018245,0.005165,0.142145,0.095325,0.178345,0.152185,1000,1000,1000,1000
