t,is_crashed,roll,pitch,yaw,p,q,r,throttle,p_cmd,q_cmd,r_cmd,roll_cmd,pitch_cmd,yaw_cmd,roll_pid_out,pitch_pid_out,yaw_pid_out,motor_fl,motor_bl,motor_fr,motor_br,pwm_fl,pwm_bl,pwm_fr,pwm_br
6966,0,0.005236,0.006545,1.256419,0.00,-0.00,-0.000014,0.006000,0.000000,0.000000,0.000000,0.000000,0.000000,0.000000,0.000000,0.000000,0.000000,0.000000,0.000000,0.000000,0.000000,0,0,0,0
6978,0,0.008378,0.010472,2.261554,0.00,0.00,-0.000024,0.006000,0.000000,0.000000,0.000000,0.000000,0.000000,0.000000,0.000135,-0.000000,0.000000,0.000000,0.000000,0.000000,0.000000,819,819,819,819
6987,0,0.010891,0.013614,3.065662,0.00,0.00,-0.000022,0.007000,0.000000,0.000000,0.000000,0.000000,0.000000,0.000000,0.000266,-0.000000,0.000000,0.000000,0.000000,0.000000,0.000000,819,819,819,819
6997,0,0.012901,0.016127,-2.574237,0.00,0.00,-0.000014,0.007000,0.000000,0.000000,0.000000,0.000000,0.000000,0.000000,0.000343,-0.000000,0.000000,0.000000,0.000000,0.000000,0.000000,819,819,819,819
7007,0,0.014510,0.018137,-2.059607,0.00,0.00,-0.000002,0.007000,0.000000,0.000000,0.000000,0.000000,0.000000,0.000000,0.000392,-0.000000,0.000000,0.000000,0.000000,0.000000,0.000000,819,819,819,819
7017,0,0.015797,0.019746,-1.647904,0.00,0.00,0.000009,0.006000,0.000000,0.000000,0.000000,0.000000,0.000000,0.000000,0.000419,-0.000000,0.000000,0.000000,0.000000,0.000000,0.000000,819,819,819,819
7027,0,0.016826,0.021033,-1.318541,0.00,0.00,0.000012,0.006000,0.000000,0.000000,0.000000,0.000000,0.000000,0.000000,0.000431,-0.000000,0.000000,0.000000,0.000000,0.000000,0.000000,819,819,819,819
7037,0,0.017650,0.022062,-1.055051,0.00,0.00,0.000009,0.006000,0.000000,0.000000,0.000000,0.000000,0.000000,0.000000,0.000430,-0.000000,0.000000,0.000000,0.000000,0.000000,0.000000,819,819,819,819
7047,0,0.018309,0.022886,-0.844259,0.00,0.00,-0.000001,0.006000,0.000000,0.000000,0.000000,0.000000,0.000000,0.000000,0.000421,-0.000000,0.000000,0.000000,0.000000,0.000000,0.000000,819,819,819,819
7057,0,0.018836,0.023545,-0.675626,0.00,0.00,-0.000014,0.007000,0.000000,0.000000,0.000000,0.000000,0.000000,0.000000,0.000406,-0.000000,0.000000,0.000000,0.000000,0.000000,0.000000,819,819,819,819
7067,0,0.019257,0.024072,-0.540719,0.00,0.00,-0.000025,0.007000,0.000000,0.000000,0.000000,0.000000,0.000000,0.000000,0.000387,-0.000000,0.000000,0.000000,0.000000,0.000000,0.000000,819,819,819,819
7077,0,0.019595,0.024493,-0.432793,0.00,0.00,-0.000032,0.007000,0.000000,0.000000,0.000000,0.000000,0.000000,0.000000,0.000366,-0.000000,0.000000,0.000000,0.000000,0.000000,0.000000,819,819,819,819
7087,0,0.019865,0.024831,-0.346453,0.00,0.00,-0.000047,0.006000,0.000000,0.000000,0.000000,0.000000,0.000000,0.000000,0.000344,-0.000000,0.000000,0.000000,0.000000,0.000000,0.000000,819,819,819,819
7097,0,0.020080,0.025101,-0.277381,0.00,0.00,-0.000066,0.006000,0.000000,0.000000,0.000000,0.000000,0.000000,0.000000,0.000321,-0.000000,0.000000,0.000000,0.000000,0.000000,0.000000,819,819,819,819
7107,0,0.020253,0.025316,-0.222123,0.00,0.00,-0.000079,0.006000,0.000000,0.000000,0.000000,0.000000,0.000000,0.000000,0.000297,-0.000000,0.000000,0.000000,0.000000,0.000000,0.000000,819,819,819,819
7116,0,0.020391,0.025489,-0.177917,0.00,0.00,-0.000088,0.006000,0.000000,0.000000,0.000000,0.000000,0.000000,0.000000,0.000276,-0.000000,0.000000,0.000000,0.000000,0.000000,0.000000,819,819,819,819
7126,0,0.020502,0.025627,-0.142552,0.00,0.00,-0.000091,0.006000,0.000000,0.000000,0.000000,0.000000,0.000000,0.000000,0.000254,-0.000000,0.000000,0.000000,0.000000,0.000000,0.000000,819,819,819,819
7136,0,0.020590,0.025738,-0.114260,0.00,0.00,-0.000086,0.006000,0.000000,0.000000,0.000000,0.000000,0.000000,0.000000,0.000233,-0.000000,0.000000,0.000000,0.000000,0.000000,0.000000,819,819,819,819
7146,0,0.020661,0.025826,-0.091626,0.00,0.00,-0.000074,0.006000,0.000000,0.000000,0.000000,0.000000,0.000000,0.000000,0.000214,-0.000000,0.000000,0.000000,0.000000,0.000000,0.000000,819,819,819,819
7155,0,0.020718,0.025897,-0.073519,0.00,0.00,-0.000061,0.006000,0.000000,0.000000,0.000000,0.000000,0.000000,0.000000,0.000196,-0.000000,0.000000,0.000000,0.000000,0.000000,0.000000,819,819,819,819
7166,0,0.020763,0.025954,-0.059034,0.00,0.00,-0.000047,0.006000,0.000000,0.000000,0.000000,0.000000,0.000000,0.000000,0.000179,-0.000000,0.000000,0.000000,0.000000,0.000000,0.000000,819,819,819,819
7176,0,0.020799,0.025999,-0.047445,0.00,0.00,-0.000024,0.006000,0.000000,0.000000,0.000000,0.000000,0.000000,0.000000,0.000163,-0.000000,0.000000,0.000000,0.000000,0.000000,0.000000,819,819,819,819
7186,0,0.020828,0.026035,-0.038174,0.00,0.00,-0.000004,0.006000,0.000000,0.000000,0.000000,0.000000,0.000000,0.000000,0.000148,-0.000000,0.000000,0.000000,0.000000,0.000000,0.000000,819,819,819,819
7196,0,0.020851,0.026064,-0.030758,0.00,0.00,0.000017,0.006000,0.000000,0.000000,0.000000,0.000000,0.000000,0.000000,0.000134,-0.000000,0.000000,0.000000,0.000000,0.000000,0.000000,819,819,819,819
7206,0,0.020870,0.026087,-0.024824,0.00,0.00,0.000026,0.006000,0.000000,0.000000,0.000000,0.000000,0.000000,0.000000,0.000122,-0.000000,0.000000,0.000000,0.000000,0.000000,0.000000,819,819,819,819
7216,0,0.020885,0.026106,-0.020078,0.00,0.00,0.000025,0.006000,0.000000,0.000000,0.000000,0.000000,0.000000,0.000000,0.000111,-0.000000,0.000000,0.000000,0.000000,0.000000,0.000000,819,819,819,819
7226,0,0.020896,0.026121,-0.016280,0.00,0.00,0.000014,0.007000,0.000000,0.000000,0.000000,0.000000,0.000000,0.000000,0.000100,-0.000000,0.000000,0.000000,0.000000,0.000000,0.000000,819,819,819,819
7236,0,0.020906,0.026132,-0.013243,0.00,0.00,-0.000000,0.006000,0.000000,0.000000,0.000000,0.000000,0.000000,0.000000,0.000091,-0.000000,0.000000,0.000000,0.000000,0.000000,0.000000,819,819,819,819
7253,0,0.020914,0.026142,-0.010812,0.00,0.00,-0.000015,0.006000,0.000000,0.000000,0.000000,0.000000,0.000000,0.000000,0.000082,-0.000000,0.000000,0.000000,0.000000,0.000000,0.000000,819,819,819,819
7265,0,0.020920,0.026150,-0.008868,0.00,0.00,-0.000031,0.006000,0.000000,0.000000,0.000000,0.000000,0.000000,0.000000,0.000074,-0.000000,0.000000,0.000000,0.000000,0.000000,0.000000,819,819,819,819
7275,0,0.020925,0.026156,-0.007313,0.00,0.00,-0.000034,0.006000,0.000000,0.000000,0.000000,0.000000,0.000000,0.000000,0.000067,-0.000000,0.000000,0.000000,0.000000,0.000000,0.000000,819,819,819,819
7285,0,0.020928,0.026160,-0.006069,0.00,0.00,-0.000032,0.006000,0.000000,0.000000,0.000000,0.000000,0.000000,0.000000,0.000061,-0.000000,0.000000,0.000000,0.000000,0.000000,0.000000,819,819,819,819
7296,0,0.020932,0.026164,-0.005073,0.00,0.00,-0.000029,0.006000,0.000000,0.000000,0.000000,0.000000,0.000000,0.000000,0.000056,-0.000000,0.000000,0.000000,0.000000,0.000000,0.000000,819,819,819,819
7306,0,0.020934,0.026168,-0.004277,0.00,0.00,-0.000021,0.006000,0.000000,0.000000,0.000000,0.000000,0.000000,0.000000,0.000050,-0.000000,0.000000,0.000000,0.000000,0.000000,0.000000,819,819,819,819
7316,0,0.020936,0.026170,-0.003640,0.00,0.00,-0.000012,0.006000,0.000000,0.000000,0.000000,0.000000,0.000000,0.000000,0.000045,-0.000000,0.000000,0.000000,0.000000,0.000000,0.000000,819,819,819,819
7326,0,0.020938,0.026172,-0.003130,0.00,0.00,0.000006,0.006000,0.000000,0.000000,0.000000,0.000000,0.000000,0.000000,0.000041,-0.000000,0.000000,0.000000,0.000000,0.000000,0.000000,819,819,819,819
7336,0,0.020939,0.026174,-0.002722,0.00,0.00,0.000023,0.006000,0.000000,0.000000,0.000000,0.000000,0.000000,0.000000,0.000038,-0.000000,0.000000,0.000000,0.000000,0.000000,0.000000,819,819,819,819
7346,0,0.020940,0.026175,-0.002396,0.00,0.00,0.000039,0.006000,0.000000,0.000000,0.000000,0.000000,0.000000,0.000000,0.000034,-0.000000,0.000000,0.000000,0.000000,0.000000,0.000000,819,819,819,819
7356,0,0.020941,0.026176,-0.002135,0.00,0.00,0.000046,0.006000,0.000000,0.000000,0.000000,0.000000,0.000000,0.000000,0.000031,-0.000000,0.000000,0.000000,0.000000,0.000000,0.000000,819,819,819,819
7366,0,0.020941,0.026177,-0.001927,0.00,0.00,0.000042,0.006000,0.000000,0.000000,0.000000,0.000000,0.000000,0.000000,0.000028,-0.000000,0.000000,0.000000,0.000000,0.000000,0.000000,819,819,819,819
7376,0,0.020942,0.026177,-0.001759,0.00,0.00,0.000032,0.006000,0.000000,0.000000,0.000000,0.000000,0.000000,0.000000,0.000026,-0.000000,0.000000,0.000000,0.000000,0.000000,0.000000,819,819,819,819
7386,0,0.020942,0.026178,-0.001626,0.00,0.00,0.000022,0.007000,0.000000,0.000000,0.000000,0.000000,0.000000,0.000000,0.000023,-0.000000,0.000000,0.000000,0.000000,0.000000,0.000000,819,819,819,819
7396,0,0.020943,0.026178,-0.001519,0.00,0.00,0.000011,0.006000,0.000000,0.000000,0.000000,0.000000,0.000000,0.000000,0.000021,-0.000000,0.000000,0.000000,0.000000,0.000000,0.000000,819,819,819,819
7406,0,0.020943,0.026179,-0.001433,0.00,0.00,0.000000,0.006000,0.000000,0.000000,0.000000,0.000000,0.000000,0.000000,0.000019,-0.000000,0.000000,0.000000,0.000000,0.000000,0.000000,819,819,819,819
7416,0,0.020943,0.026179,-0.001365,0.00,0.00,-0.000006,0.006000,0.000000,0.000000,0.000000,0.000000,0.000000,0.000000,0.000018,-0.000000,0.000000,0.000000,0.000000,0.000000,0.000000,819,819,819,819
7426,0,0.020943,0.026179,-0.001310,0.00,0.00,-0.000020,0.006000,0.000000,0.000000,0.000000,0.000000,0.000000,0.000000,0.000016,-0.000000,0.000000,0.000000,0.000000,0.000000,0.000000,819,819,819,819
7436,0,0.020943,0.026179,-0.001267,0.00,0.00,-0.000015,0.006000,0.000000,0.000000,0.000000,0.000000,0.000000,0.000000,0.000014,-0.000000,0.000000,0.000000,0.000000,0.000000,0.000000,819,819,819,819
7446,0,0.020944,0.026179,-0.001231,0.00,0.00,-0.000010,0.006000,0.000000,0.000000,0.000000,0.000000,0.000000,0.000000,0.000013,-0.000000,0.000000,0.000000,0.000000,0.000000,0.000000,819,819,819,819
7456,0,0.020944,0.026180,-0.001203,0.00,0.00,0.000000,0.006000,0.000000,0.000000,0.000000,0.000000,0.000000,0.000000,0.000012,-0.000000,0.000000,0.000000,0.000000,0.000000,0.000000,819,819,819,819
7466,0,0.020944,0.026180,-0.001181,0.00,0.00,0.000007,0.006000,0.000000,0.000000,0.000000,0.000000,0.000000,0.000000,0.000011,-0.000000,0.000000,0.000000,0.000000,0.000000,0.000000,819,819,819,819
7476,0,0.020944,0.026180,-0.001163,0.00,0.00,0.000010,0.006000,0.000000,0.000000,0.000000,0.000000,0.000000,0.000000,0.000010,-0.000000,0.000000,0.000000,0.000000,0.000000,0.000000,819,819,819,819
7487,0,0.020944,0.026180,-0.001148,0.00,0.00,0.000017,0.006000,0.000000,0.000000,0.000000,0.000000,0.000000,0.000000,0.000009,-0.000000,0.000000,0.000000,0.000000,0.000000,0.000000,819,819,819,819
7496,0,0.020944,0.026180,-0.001137,0.00,0.00,0.000020,0.006000,0.000000,0.000000,0.000000,0.000000,0.000000,0.000000,0.000008,-0.000000,0.000000,0.000000,0.000000,0.000000,0.000000,819,819,819,819
7506,0,0.020944,0.026180,-0.001128,0.00,0.00,0.000022,0.006000,0.000000,0.000000,0.000000,0.000000,0.000000,0.000000,0.000008,-0.000000,0.000000,0.000000,0.000000,0.000000,0.000000,819,819,819,819
7516,0,0.020944,0.026180,-0.001121,0.00,0.00,0.000020,0.006000,0.000000,0.000000,0.000000,0.000000,0.000000,0.000000,0.000007,-0.000000,0.000000,0.000000,0.000000,0.000000,0.000000,819,819,819,819
7526,0,0.020944,0.026180,-0.001115,0.00,0.00,0.000020,0.007000,0.000000,0.000000,0.000000,0.000000,0.000000,0.000000,0.000007,-0.000000,0.000000,0.000000,0.000000,0.000000,0.000000,819,819,819,819
7537,0,0.020944,0.026180,-0.001110,0.00,0.00,0.000016,0.006000,0.000000,0.000000,0.000000,0.000000,0.000000,0.000000,0.000006,-0.000000,0.000000,0.000000,0.000000,0.000000,0.000000,819,819,819,819
7547,0,0.020944,0.026180,-0.001106,0.00,0.00,0.000015,0.006000,0.000000,0.000000,0.000000,0.000000,0.000000,0.000000,0.000006,-0.000000,0.000000,0.000000,0.000000,0.000000,0.000000,819,819,819,819
7557,0,0.020944,0.026180,-0.001103,0.00,0.00,0.000008,0.007000,0.000000,0.000000,0.000000,0.000000,0.000000,0.000000,0.000005,-0.000000,0.000000,0.000000,0.000000,0.000000,0.000000,819,819,819,819
7573,0,0.020944,0.026180,-0.001101,0.00,0.00,0.000003,0.006000,0.000000,0.000000,0.000000,0.000000,0.000000,0.000000,0.000005,-0.000000,0.000000,0.000000,0.000000,0.000000,0.000000,819,819,819,819
7585,0,0.020944,0.026180,-0.001099,0.00,0.00,-0.000004,0.007000,0.000000,0.000000,0.000000,0.000000,0.000000,0.000000,0.000005,-0.000000,0.000000,0.000000,0.000000,0.000000,0.000000,819,819,819,819
7596,0,0.020944,0.026180,-0.001097,0.00,0.00,-0.000004,0.007000,0.000000,0.000000,0.000000,0.000000,0.000000,0.000000,0.000005,-0.000000,0.000000,0.000000,0.000000,0.000000,0.000000,819,819,819,819
7606,0,0.020944,0.026180,-0.001096,0.00,0.00,-0.000003,0.007000,0.000000,0.000000,0.000000,0.000000,0.000000,0.000000,0.000004,-0.000000,0.000000,0.000000,0.000000,0.000000,0.000000,819,819,819,819
7616,0,0.020944,0.026180,-0.001095,0.00,0.00,-0.000008,0.007000,0.000000,0.000000,0.000000,0.000000,0.000000,0.000000,0.000004,-0.000000,0.000000,0.000000,0.000000,0.000000,0.000000,819,819,819,819
7626,0,0.020944,0.026180,-0.001095,0.00,0.00,-0.000009,0.006000,0.000000,0.000000,0.000000,0.000000,0.000000,0.000000,0.000004,-0.000000,0.000000,0.000000,0.000000,0.000000,0.000000,819,819,819,819
7637,0,0.020944,0.026180,-0.001094,0.00,0.00,-0.000010,0.006000,0.000000,0.000000,0.000000,0.000000,0.000000,0.000000,0.000003,-0.000000,0.000000,0.000000,0.000000,0.000000,0.000000,819,819,819,819
7647,0,0.020944,0.026180,-0.001093,0.00,0.00,-0.000008,0.006000,0.000000,0.000000,0.000000,0.000000,0.000000,0.000000,0.000003,-0.000000,0.000000,0.000000,0.000000,0.000000,0.000000,819,819,819,819
7657,0,0.020944,0.026180,-0.001093,0.00,0.00,-0.000005,0.006000,0.000000,0.000000,0.000000,0.000000,0.000000,0.000000,0.000003,-0.000000,0.000000,0.000000,0.000000,0.000000,0.000000,819,819,819,819
7667,0,0.020944,0.026180,-0.001092,0.00,0.00,0.000000,0.007000,0.000000,0.000000,0.000000,0.000000,0.000000,0.000000,0.000003,-0.000000,0.000000,0.000000,0.000000,0.000000,0.000000,819,819,819,819
7677,0,0.020944,0.026180,-0.001092,0.00,0.00,0.000017,0.007000,0.000000,0.000000,0.000000,0.000000,0.000000,0.000000,0.000003,-0.000000,0.000000,0.000000,0.000000,0.000000,0.000000,819,819,819,819
7687,0,0.020944,0.026180,-0.001092,0.00,0.00,0.000028,0.006000,0.000000,0.000000,0.000000,0.000000,0.000000,0.000000,0.000003,-0.000000,0.000000,0.000000,0.000000,0.000000,0.000000,819,819,819,819
7697,0,0.020944,0.026180,-0.001092,0.00,0.00,0.000038,0.006000,0.000000,0.000000,0.000000,0.000000,0.000000,0.000000,0.000002,-0.000000,0.000000,0.000000,0.000000,0.000000,0.000000,819,819,819,819
7707,0,0.020944,0.026180,-0.001092,0.00,0.00,0.000040,0.006000,0.000000,0.000000,0.000000,0.000000,0.000000,0.000000,0.000002,-0.000000,0.000000,0.000000,0.000000,0.000000,0.000000,819,819,819,819
7717,0,0.020944,0.026180,-0.001092,0.00,0.00,0.000040,0.006000,0.000000,0.000000,0.000000,0.000000,0.000000,0.000000,0.000002,-0.000000,0.000000,0.000000,0.000000,0.000000,0.000000,819,819,819,819
7727,0,0.020944,0.026180,-0.001092,0.00,0.00,0.000038,0.006000,0.000000,0.000000,0.000000,0.000000,0.000000,0.000000,0.000002,-0.000000,0.000000,0.000000,0.000000,0.000000,0.000000,819,819,819,819
7737,0,0.020944,0.026180,-0.001092,0.00,0.00,0.000023,0.006000,0.000000,0.000000,0.000000,0.000000,0.000000,0.000000,0.000002,-0.000000,0.000000,0.000000,0.000000,0.000000,0.000000,819,819,819,819
7747,0,0.020944,0.026180,-0.001092,0.00,0.00,0.000012,0.006000,0.000000,0.000000,0.000000,0.000000,0.000000,0.000000,0.000002,-0.000000,0.000000,0.000000,0.000000,0.000000,0.000000,819,819,819,819
7757,0,0.020944,0.026180,-0.001092,0.00,0.00,0.000000,0.006000,0.000000,0.000000,0.000000,0.000000,0.000000,0.000000,0.000002,-0.000000,0.000000,0.000000,0.000000,0.000000,0.000000,819,819,819,819
7767,0,0.020944,0.026180,-0.001092,0.00,0.00,-0.000009,0.006000,0.000000,0.000000,0.000000,0.000000,0.000000,0.000000,0.000002,-0.000000,0.000000,0.000000,0.000000,0.000000,0.000000,819,819,819,819
7777,0,0.020944,0.026180,-0.001092,0.00,0.00,-0.000015,0.006000,0.000000,0.000000,0.000000,0.000000,0.000000,0.000000,0.000002,-0.000000,0.000000,0.000000,0.000000,0.000000,0.000000,819,819,819,819
7787,0,0.020944,0.026180,-0.001092,0.00,0.00,-0.000012,0.006000,0.000000,0.000000,0.000000,0.000000,0.000000,0.000000,0.000002,-0.000000,0.000000,0.000000,0.000000,0.000000,0.000000,819,819,819,819
7797,0,0.020944,0.026180,-0.001092,0.00,0.00,-0.000000,0.006000,0.000000,0.000000,0.000000,0.000000,0.000000,0.000000,0.000002,-0.000000,0.000000,0.000000,0.000000,0.000000,0.000000,819,819,819,819
7809,0,0.020944,0.026180,-0.001092,0.00,0.00,0.000009,0.006000,0.000000,0.000000,0.000000,0.000000,0.000000,0.000000,0.000002,-0.000000,0.000000,0.000000,0.000000,0.000000,0.000000,819,819,819,819
7819,0,0.020944,0.026180,-0.001092,0.00,-0.00,0.000012,0.007000,0.000000,0.000000,0.000000,0.000000,0.000000,0.000000,0.000002,0.000000,0.000000,0.000000,0.000000,0.000000,0.000000,819,819,819,819
7828,0,0.020944,0.026180,-0.001092,0.00,-0.00,0.000009,0.006000,0.000000,0.000000,0.000000,0.000000,0.000000,0.000000,0.000002,0.000000,0.000000,0.000000,0.000000,0.000000,0.000000,819,819,819,819
7837,0,0.020944,0.026180,-0.001092,0.00,0.00,-0.000001,0.006000,0.000000,0.000000,0.000000,0.000000,0.000000,0.000000,0.000002,-0.000000,0.000000,0.000000,0.000000,0.000000,0.000000,819,819,819,819
7847,0,0.020944,0.026180,-0.001092,0.00,0.00,-0.000014,0.006000,0.000000,0.000000,0.000000,0.000000,0.000000,0.000000,0.000002,-0.000000,0.000000,0.000000,0.000000,0.000000,0.000000,819,819,819,819
7857,0,0.020944,0.026180,-0.001092,0.00,0.00,-0.000020,0.006000,0.000000,0.000000,0.000000,0.000000,0.000000,0.000000,0.000002,-0.000000,0.000000,0.000000,0.000000,0.000000,0.000000,819,819,819,819
7867,0,0.020944,0.026180,-0.001092,0.00,0.00,-0.000021,0.007000,0.000000,0.000000,0.000000,0.000000,0.000000,0.000000,0.000002,-0.000000,0.000000,0.000000,0.000000,0.000000,0.000000,819,819,819,819
7884,0,0.020944,0.026180,-0.001092,0.00,0.00,-0.000014,0.007000,0.000000,0.000000,0.000000,0.000000,0.000000,0.000000,0.000002,-0.000000,0.000000,0.000000,0.000000,0.000000,0.000000,819,819,819,819
7895,0,0.020944,0.026180,-0.001092,0.00,0.00,0.000002,0.007000,0.000000,0.000000,0.000000,0.000000,0.000000,0.000000,0.000002,-0.000000,0.000000,0.000000,0.000000,0.000000,0.000000,819,819,819,819
7906,0,0.020944,0.026180,-0.001092,0.00,-0.00,0.000014,0.006000,0.000000,0.000000,0.000000,0.000000,0.000000,0.000000,0.000002,0.000000,0.000000,0.000000,0.000000,0.000000,0.000000,819,819,819,819
7917,0,0.020944,0.026180,-0.001092,0.00,0.00,0.000011,0.006000,0.000000,0.000000,0.000000,0.000000,0.000000,0.000000,0.000002,-0.000000,0.000000,0.000000,0.000000,0.000000,0.000000,819,819,819,819
7927,0,0.020944,0.026180,-0.001092,0.00,0.00,0.000001,0.006000,0.000000,0.000000,0.000000,0.000000,0.000000,0.000000,0.000002,-0.000000,0.000000,0.000000,0.000000,0.000000,0.000000,819,819,819,819
7939,0,0.020944,0.026180,-0.001092,0.00,-0.00,-0.000006,0.006000,0.000000,0.000000,0.000000,0.000000,0.000000,0.000000,0.000002,0.000000,0.000000,0.000000,0.000000,0.000000,0.000000,819,819,819,819
7948,0,0.020944,0.026180,-0.001092,0.00,-0.00,-0.000024,0.006000,0.000000,0.000000,0.000000,0.000000,0.000000,0.000000,0.000002,0.000000,0.000000,0.000000,0.000000,0.000000,0.000000,819,819,819,819
7958,0,0.020944,0.026180,-0.001092,0.00,-0.00,-0.000031,0.006000,0.000000,0.000000,0.000000,0.000000,0.000000,0.000000,0.000002,0.000000,0.000000,0.000000,0.000000,0.000000,0.000000,819,819,819,819
7968,0,0.020944,0.026180,-0.001092,0.00,-0.00,-0.000024,0.006000,0.000000,0.000000,0.000000,0.000000,0.000000,0.000000,0.000001,0.000000,0.000000,0.000000,0.000000,0.000000,0.000000,819,819,819,819
7978,0,0.020944,0.026180,-0.001092,0.00,-0.00,-0.000016,0.006000,0.000000,0.000000,0.000000,0.000000,0.000000,0.000000,0.000001,0.000000,0.000000,0.000000,0.000000,0.000000,0.000000,819,819,819,819
7988,0,0.020944,0.026180,-0.001092,0.00,-0.00,-0.000002,0.007000,0.000000,0.000000,0.000000,0.000000,0.000000,0.000000,0.000001,0.000000,0.000000,0.000000,0.000000,0.000000,0.000000,819,819,819,819
7998,0,0.020944,0.026180,-0.001092,0.00,-0.00,0.000013,0.006000,0.000000,0.000000,0.000000,0.000000,0.000000,0.000000,0.000001,0.000000,0.000000,0.000000,0.000000,0.000000,0.000000,819,819,819,819
8007,0,0.020944,0.026180,-0.001092,0.00,-0.00,0.000020,0.006000,0.000000,0.000000,0.000000,0.000000,0.000000,0.000000,0.000001,0.000000,0.000000,0.000000,0.000000,0.000000,0.000000,819,819,819,819
8017,0,0.020944,0.026180,-0.001092,0.00,-0.00,0.000024,0.006000,0.000000,0.000000,0.000000,0.000000,0.000000,0.000000,0.000001,0.000000,0.000000,0.000000,0.000000,0.000000,0.000000,819,819,819,819
8028,0,0.020944,0.026180,-0.001092,0.00,-0.00,0.000025,0.007000,0.000000,0.000000,0.000000,0.000000,0.000000,0.000000,0.000001,0.000000,0.000000,0.000000,0.000000,0.000000,0.000000,819,819,819,819
8038,0,0.020944,0.026180,-0.001092,0.00,-0.00,0.000017,0.007000,0.000000,0.000000,0.000000,0.000000,0.000000,0.000000,0.000001,0.000000,0.000000,0.000000,0.000000,0.000000,0.000000,819,819,819,819
8048,0,0.020944,0.026180,-0.001092,0.00,-0.00,0.000001,0.007000,0.000000,0.000000,0.000000,0.000000,0.000000,0.000000,0.000000,0.000000,0.000000,0.000000,0.000000,0.000000,0.000000,819,819,819,819
8058,0,0.020944,0.026180,-0.001092,0.00,-0.00,-0.000015,0.007000,0.000000,0.000000,0.000000,0.000000,0.000000,0.000000,0.000000,0.000000,0.000000,0.000000,0.000000,0.000000,0.000000,819,819,819,819
8068,0,0.020944,0.026180,-0.001092,0.00,-0.00,-0.000026,0.007000,0.000000,0.000000,0.000000,0.000000,0.000000,0.000000,0.000000,0.000000,0.000000,0.000000,0.000000,0.000000,0.000000,819,819,819,819
8078,0,0.020944,0.026180,-0.001092,0.00,-0.00,-0.000026,0.007000,0.000000,0.000000,0.000000,0.000000,0.000000,0.000000,0.000000,0.000000,0.000000,0.000000,0.000000,0.000000,0.000000,819,819,819,819
8088,0,0.020944,0.026180,-0.001092,-0.00,-0.00,-0.000016,0.007000,0.000000,0.000000,0.000000,0.000000,0.000000,0.000000,0.000000,0.000000,0.000000,0.000000,0.000000,0.000000,0.000000,819,819,819,819
8098,0,0.020944,0.026180,-0.001092,0.00,-0.00,-0.000007,0.007000,0.000000,0.000000,0.000000,0.000000,0.000000,0.000000,0.000000,0.000000,0.000000,0.000000,0.000000,0.000000,0.000000,819,819,819,819
8108,0,0.020944,0.026180,-0.001092,-0.00,-0.00,0.000004,0.007000,0.000000,0.000000,0.000000,0.000000,0.000000,0.000000,0.000000,0.000000,0.000000,0.000000,0.000000,0.000000,0.000000,819,819,819,819
8118,0,0.020944,0.026180,-0.001092,-0.00,-0.00,0.000013,0.006000,0.000000,0.000000,0.000000,0.000000,0.000000,0.000000,0.000000,0.000000,0.000000,0.000000,0.000000,0.000000,0.000000,819,819,819,819
8128,0,0.020944,0.026180,-0.001092,-0.00,-0.00,0.000015,0.007000,0.000000,0.000000,0.000000,0.000000,0.000000,0.000000,-0.000000,0.000000,0.000000,0.000000,0.000000,0.000000,0.000000,819,819,819,819
8138,0,0.020944,0.026180,-0.001092,-0.00,-0.00,0.000008,0.007000,0.000000,0.000000,0.000000,0.000000,0.000000,0.000000,-0.000000,0.000000,0.000000,0.000000,0.000000,0.000000,0.000000,819,819,819,819
8148,0,0.020944,0.026180,-0.001092,-0.00,-0.00,-0.000003,0.007000,0.000000,0.000000,0.000000,0.000000,0.000000,0.000000,-0.000000,0.000000,0.000000,0.000000,0.000000,0.000000,0.000000,819,819,819,819
8158,0,0.020944,0.026180,-0.001092,-0.00,-0.00,-0.000014,0.007000,0.000000,0.000000,0.000000,0.000000,0.000000,0.000000,-0.000000,0.000000,0.000000,0.000000,0.000000,0.000000,0.000000,819,819,819,819
8168,0,0.020944,0.026180,-0.001092,-0.00,-0.00,-0.000020,0.007000,0.000000,0.000000,0.000000,0.000000,0.000000,0.000000,-0.000000,0.000000,0.000000,0.000000,0.000000,0.000000,0.000000,819,819,819,819
8178,0,0.020944,0.026180,-0.001092,-0.00,-0.00,-0.000020,0.007000,0.000000,0.000000,0.000000,0.000000,0.000000,0.000000,-0.000000,0.000000,0.000000,0.000000,0.000000,0.000000,0.000000,819,819,819,819
8188,0,0.020944,0.026180,-0.001092,-0.00,-0.00,-0.000012,0.007000,0.000000,0.000000,0.000000,0.000000,0.000000,0.000000,-0.000000,0.000000,0.000000,0.000000,0.000000,0.000000,0.000000,819,819,819,819
8206,0,0.020944,0.026180,-0.001092,-0.00,-0.00,-0.000009,0.007000,0.000000,0.000000,0.000000,0.000000,0.000000,0.000000,-0.000000,0.000000,0.000000,0.000000,0.000000,0.000000,0.000000,819,819,819,819
8217,0,0.020944,0.026180,-0.001092,-0.00,-0.00,-0.000008,0.006000,0.000000,0.000000,0.000000,0.000000,0.000000,0.000000,-0.000000,0.000000,0.000000,0.000000,0.000000,0.000000,0.000000,819,819,819,819
8229,0,0.020944,0.026180,-0.001092,-0.00,0.00,-0.000015,0.007000,0.000000,0.000000,0.000000,0.000000,0.000000,0.000000,-0.000000,-0.000000,0.000000,0.000000,0.000000,0.000000,0.000000,819,819,819,819
8239,0,0.020944,0.026180,-0.001092,-0.00,0.00,-0.000019,0.007000,0.000000,0.000000,0.000000,0.000000,0.000000,0.000000,-0.000000,-0.000000,0.000000,0.000000,0.000000,0.000000,0.000000,819,819,819,819
8248,0,0.020944,0.026180,-0.001092,-0.00,0.00,-0.000021,0.007000,0.000000,0.000000,0.000000,0.000000,0.000000,0.000000,-0.000000,-0.000000,0.000000,0.000000,0.000000,0.000000,0.000000,819,819,819,819
8258,0,0.020944,0.026180,-0.001092,-0.00,0.00,-0.000022,0.007000,0.000000,0.000000,0.000000,0.000000,0.000000,0.000000,-0.000000,-0.000000,0.000000,0.000000,0.000000,0.000000,0.000000,819,819,819,819
8268,0,0.020944,0.026180,-0.001092,-0.00,0.00,-0.000026,0.007000,0.000000,0.000000,0.000000,0.000000,0.000000,0.000000,-0.000000,-0.000000,0.000000,0.000000,0.000000,0.000000,0.000000,819,819,819,819
8278,0,0.020944,0.026180,-0.001092,-0.00,0.00,-0.000029,0.007000,0.000000,0.000000,0.000000,0.000000,0.000000,0.000000,-0.000000,-0.000000,0.000000,0.000000,0.000000,0.000000,0.000000,819,819,819,819
8289,0,0.020944,0.026180,-0.001092,-0.00,0.00,-0.000024,0.007000,0.000000,0.000000,0.000000,0.000000,0.000000,0.000000,-0.000000,-0.000000,0.000000,0.000000,0.000000,0.000000,0.000000,819,819,819,819
8299,0,0.020944,0.026180,-0.001092,-0.00,0.00,-0.000020,0.007000,0.000000,0.000000,0.000000,0.000000,0.000000,0.000000,-0.000000,-0.000000,0.000000,0.000000,0.000000,0.000000,0.000000,819,819,819,819
8309,0,0.020944,0.026180,-0.001092,-0.00,-0.00,-0.000015,0.007000,0.000000,0.000000,0.000000,0.000000,0.000000,0.000000,-0.000000,0.000000,0.000000,0.000000,0.000000,0.000000,0.000000,819,819,819,819
8319,0,0.020944,0.026180,-0.001092,-0.00,-0.00,-0.000011,0.007000,0.000000,0.000000,0.000000,0.000000,0.000000,0.000000,-0.000000,0.000000,0.000000,0.000000,0.000000,0.000000,0.000000,819,819,819,819
8329,0,0.020944,0.026180,-0.001092,-0.00,-0.00,-0.000005,0.007000,0.000000,0.000000,0.000000,0.000000,0.000000,0.000000,-0.000000,0.000000,0.000000,0.000000,0.000000,0.000000,0.000000,819,819,819,819
8339,0,0.020944,0.026180,-0.001092,-0.00,-0.00,0.000003,0.007000,0.000000,0.000000,0.000000,0.000000,0.000000,0.000000,-0.000000,0.000000,0.000000,0.000000,0.000000,0.000000,0.000000,819,819,819,819
8349,0,0.020944,0.026180,-0.001092,-0.00,-0.00,0.000003,0.007000,0.000000,0.000000,0.000000,0.000000,0.000000,0.000000,-0.000000,0.000000,0.000000,0.000000,0.000000,0.000000,0.000000,819,819,819,819
8359,0,0.020944,0.026180,-0.001092,-0.00,-0.00,-0.000003,0.007000,0.000000,0.000000,0.000000,0.000000,0.000000,0.000000,-0.000001,0.000000,0.000000,0.000000,0.000000,0.000000,0.000000,819,819,819,819
8369,0,0.020944,0.026180,-0.001092,-0.00,-0.00,-0.000015,0.007000,0.000000,0.000000,0.000000,0.000000,0.000000,0.000000,-0.000001,0.000000,0.000000,0.000000,0.000000,0.000000,0.000000,819,819,819,819
8379,0,0.020944,0.026180,-0.001092,-0.00,-0.00,-0.000028,0.007000,0.000000,0.000000,0.000000,0.000000,0.000000,0.000000,-0.000001,0.000000,0.000000,0.000000,0.000000,0.000000,0.000000,819,819,819,819
8389,0,0.020944,0.026180,-0.001092,-0.00,-0.00,-0.000038,0.007000,0.000000,0.000000,0.000000,0.000000,0.000000,0.000000,-0.000001,0.000000,0.000000,0.000000,0.000000,0.000000,0.000000,819,819,819,819
8399,0,0.020944,0.026180,-0.001092,-0.00,-0.00,-0.000042,0.007000,0.000000,0.000000,0.000000,0.000000,0.000000,0.000000,-0.000000,0.000000,0.000000,0.000000,0.000000,0.000000,0.000000,819,819,819,819
8409,0,0.020944,0.026180,-0.001092,-0.00,-0.00,-0.000038,0.007000,0.000000,0.000000,0.000000,0.000000,0.000000,0.000000,-0.000000,0.000000,0.000000,0.000000,0.000000,0.000000,0.000000,819,819,819,819
8419,0,0.020944,0.026180,-0.001092,-0.00,-0.00,-0.000029,0.009000,0.000000,0.000000,0.000000,0.000000,0.000000,0.000000,-0.000000,0.000000,0.000000,0.000000,0.000000,0.000000,0.000000,819,819,819,819
8429,0,0.020944,0.026180,-0.001092,-0.00,-0.00,-0.000021,0.008000,0.000000,0.000000,0.000000,0.000000,0.000000,0.000000,-0.000001,0.000000,0.000000,0.000000,0.000000,0.000000,0.000000,819,819,819,819
8439,0,0.020944,0.026180,-0.001092,-0.00,-0.00,-0.000015,0.008000,0.000000,0.000000,0.000000,0.000000,0.000000,0.000000,-0.000001,0.000000,0.000000,0.000000,0.000000,0.000000,0.000000,819,819,819,819
8449,0,0.020944,0.026180,-0.001092,-0.00,-0.00,-0.000017,0.009000,0.000000,0.000000,0.000000,0.000000,0.000000,0.000000,-0.000000,0.000000,0.000000,0.000000,0.000000,0.000000,0.000000,819,819,819,819
8459,0,0.020944,0.026180,-0.001092,-0.00,-0.00,-0.000023,0.009000,0.000000,0.000000,0.000000,0.000000,0.000000,0.000000,-0.000000,0.000000,0.000000,0.000000,0.000000,0.000000,0.000000,819,819,819,819
8469,0,0.020944,0.026180,-0.001092,-0.00,-0.00,-0.000032,0.009000,0.000000,0.000000,0.000000,0.000000,0.000000,0.000000,-0.000000,0.000000,0.000000,0.000000,0.000000,0.000000,0.000000,819,819,819,819
8479,0,0.020944,0.026180,-0.001092,-0.00,-0.00,-0.000036,0.009000,0.000000,0.000000,0.000000,0.000000,0.000000,0.000000,-0.000000,0.000000,0.000000,0.000000,0.000000,0.000000,0.000000,819,819,819,819
8489,0,0.020944,0.026180,-0.001092,-0.00,-0.00,-0.000032,0.009000,0.000000,0.000000,0.000000,0.000000,0.000000,0.000000,-0.000000,0.000000,0.000000,0.000000,0.000000,0.000000,0.000000,819,819,819,819
8499,0,0.020944,0.026180,-0.001092,-0.00,-0.00,-0.000035,0.009000,0.000000,0.000000,0.000000,0.000000,0.000000,0.000000,-0.000000,0.000000,0.000000,0.000000,0.000000,0.000000,0.000000,819,819,819,819
8509,0,0.020944,0.026180,-0.001092,-0.00,-0.00,-0.000035,0.009000,0.000000,0.000000,0.000000,0.000000,0.000000,0.000000,-0.000000,0.000000,0.000000,0.000000,0.000000,0.000000,0.000000,819,819,819,819
8527,0,0.020944,0.026180,-0.001092,-0.00,-0.00,-0.000035,0.009000,0.000000,0.000000,0.000000,0.000000,0.000000,0.000000,-0.000000,0.000000,0.000000,0.000000,0.000000,0.000000,0.000000,819,819,819,819
8539,0,0.020944,0.026180,-0.001092,-0.00,0.00,-0.000037,0.009000,0.000000,0.000000,0.000000,0.000000,0.000000,0.000000,-0.000000,-0.000000,0.000000,0.000000,0.000000,0.000000,0.000000,819,819,819,819
8549,0,0.020944,0.026180,-0.001092,-0.00,0.00,-0.000032,0.009000,0.000000,0.000000,0.000000,0.000000,0.000000,0.000000,-0.000000,-0.000000,0.000000,0.000000,0.000000,0.000000,0.000000,819,819,819,819
8559,0,0.020944,0.026180,-0.001092,0.00,0.00,-0.000031,0.010000,0.000000,0.000000,0.000000,0.000000,0.000000,0.000000,0.000000,-0.000000,0.000000,0.000000,0.000000,0.000000,0.000000,819,819,819,819
8569,0,0.020944,0.026180,-0.001092,0.00,0.00,-0.000030,0.010000,0.000000,0.000000,0.000000,0.000000,0.000000,0.000000,0.000000,-0.000000,0.000000,0.000000,0.000000,0.000000,0.000000,819,819,819,819
8579,0,0.020944,0.026180,-0.001092,0.00,0.00,-0.000032,0.010000,0.000000,0.000000,0.000000,0.000000,0.000000,0.000000,0.000000,-0.000000,0.000000,0.000000,0.000000,0.000000,0.000000,819,819,819,819
8589,0,0.020944,0.026180,-0.001092,0.00,0.00,-0.000038,0.010000,0.000000,0.000000,0.000000,0.000000,0.000000,0.000000,0.000000,-0.000000,0.000000,0.000000,0.000000,0.000000,0.000000,819,819,819,819
8599,0,0.020944,0.026180,-0.001092,0.00,0.00,-0.000044,0.010000,0.000000,0.000000,0.000000,0.000000,0.000000,0.000000,0.000001,-0.000000,0.000000,0.000000,0.000000,0.000000,0.000000,819,819,819,819
8609,0,0.020944,0.026180,-0.001092,0.00,0.00,-0.000049,0.010000,0.000000,0.000000,0.000000,0.000000,0.000000,0.000000,0.000001,-0.000000,0.000000,0.000000,0.000000,0.000000,0.000000,819,819,819,819
8619,0,0.020944,0.026180,-0.001092,0.00,0.00,-0.000048,0.010000,0.000000,0.000000,0.000000,0.000000,0.000000,0.000000,0.000002,-0.000000,0.000000,0.000000,0.000000,0.000000,0.000000,819,819,819,819
8629,0,0.020944,0.026180,-0.001092,0.00,0.00,-0.000045,0.018000,0.000000,0.000000,0.000000,0.000000,0.000000,0.000000,0.000001,-0.000000,0.000000,0.000000,0.000000,0.000000,0.000000,819,819,819,819
8639,0,0.020944,0.026180,-0.001092,0.00,0.00,-0.000035,0.018000,0.000000,0.000000,0.000000,0.000000,0.000000,0.000000,0.000001,-0.000000,0.000000,0.000000,0.000000,0.000000,0.000000,819,819,819,819
8649,0,0.020944,0.026180,-0.001092,0.00,0.00,-0.000025,0.018000,0.000000,0.000000,0.000000,0.000000,0.000000,0.000000,0.000001,-0.000000,0.000000,0.000000,0.000000,0.000000,0.000000,819,819,819,819
8662,0,0.020944,0.026180,-0.001092,0.00,0.00,-0.000017,0.067000,0.000000,0.000000,0.000000,0.000000,0.000000,0.000000,0.000002,-0.000000,0.000000,0.066998,0.066998,0.067002,0.067002,874,894,874,894
8671,0,0.020944,0.026180,-0.001092,0.00,0.00,-0.000008,0.067000,0.000000,0.000000,0.000000,0.000000,0.000000,0.000000,0.000002,-0.000000,0.000000,0.066998,0.066998,0.067002,0.067002,874,894,874,894
8680,0,0.020944,0.026180,-0.001092,0.00,0.00,-0.000004,0.067000,0.000000,0.000000,0.000000,0.000000,0.000000,0.000000,0.000002,-0.000000,0.000000,0.066998,0.066998,0.067002,0.067002,874,894,874,894
8690,0,0.020944,0.026180,-0.001092,0.00,0.00,0.000002,0.067000,0.000000,0.000000,0.000000,0.000000,0.000000,0.000000,0.000002,-0.000000,0.000000,0.066998,0.066998,0.067002,0.067002,874,894,874,894
8700,0,0.020944,0.026180,-0.001092,0.00,0.00,0.000011,0.067000,0.000000,0.000000,0.000000,0.000000,0.000000,0.000000,0.000001,-0.000000,0.000000,0.066999,0.066999,0.067001,0.067001,874,894,874,894
8710,0,0.020944,0.026180,-0.001092,0.00,-0.00,-0.000019,0.067000,0.000000,0.000000,0.000000,0.000000,0.000000,0.000000,0.000001,0.000000,0.000000,0.066999,0.066999,0.067001,0.067001,874,894,874,894
8720,0,0.020944,0.026180,-0.001092,0.00,0.00,-0.000010,0.101000,0.000000,0.000000,0.000000,0.000000,0.000000,0.000000,0.000001,-0.000000,0.000000,0.100999,0.100999,0.101001,0.101001,901,922,901,922
8730,0,0.020944,0.026180,-0.001092,0.00,-0.00,0.000022,0.102000,0.000000,0.000000,0.000000,0.000000,0.000000,0.000000,0.000001,0.000000,0.000000,0.101999,0.101999,0.102001,0.102001,902,923,902,923
8740,0,0.020944,0.026180,-0.001092,0.00,-0.00,0.000018,0.102000,0.000000,0.000000,0.000000,0.000000,0.000000,0.000000,0.000000,0.000000,0.000000,0.102000,0.102000,0.102000,0.102000,902,923,902,923
8750,0,0.020944,0.026180,-0.001092,-0.00,-0.00,0.000013,0.102000,0.000000,0.000000,0.000000,0.000000,0.000000,0.000000,-0.000000,0.000000,0.000000,0.102000,0.102000,0.102000,0.102000,902,923,902,923
8760,0,0.020944,0.026180,-0.001092,-0.00,0.00,0.000029,0.102000,0.000000,0.000000,0.000000,0.000000,0.000000,0.000000,-0.000000,-0.000000,0.000000,0.102000,0.102000,0.102000,0.102000,902,923,902,923
8770,0,0.020944,0.026180,-0.001092,-0.00,0.00,0.000052,0.102000,0.000000,0.000000,0.000000,0.000000,0.000000,0.000000,-0.000000,-0.000000,0.000000,0.102000,0.102000,0.102000,0.102000,902,923,902,923
8780,0,0.020726,0.026180,-0.001092,-0.00,0.00,0.000067,0.102000,0.000000,0.000000,0.000000,0.000000,0.000000,0.000000,-0.000011,-0.000000,0.000000,0.102011,0.102011,0.101989,0.101989,902,923,902,923
8790,0,0.020551,0.026180,-0.001092,-0.00,0.00,0.000041,0.102000,0.000000,0.000000,0.000000,0.000000,0.000000,0.000000,-0.000018,-0.000000,0.000000,0.102018,0.102018,0.101982,0.101982,902,923,902,923
8800,0,0.020412,0.026180,-0.001092,-0.00,0.00,0.000015,0.102000,0.000000,0.000000,0.000000,0.000000,0.000000,0.000000,-0.000023,-0.000000,0.000000,0.102023,0.102023,0.101977,0.101977,902,923,902,923
8810,0,0.020518,0.026180,-0.001092,-0.00,0.00,-0.000004,0.102000,0.000000,0.000000,0.000000,0.000000,0.000000,0.000000,-0.000015,-0.000000,0.000000,0.102015,0.102015,0.101985,0.101985,902,923,902,923
8820,0,0.020603,0.026180,-0.001092,-0.00,0.00,-0.000038,0.102000,0.000000,0.000000,0.000000,0.000000,0.000000,0.000000,-0.000009,-0.000000,0.000000,0.102009,0.102009,0.101991,0.101991,902,923,902,923
8837,0,0.020671,0.026180,-0.001092,-0.00,0.00,-0.000082,0.102000,0.000000,0.000000,0.000000,0.000000,0.000000,0.000000,-0.000006,-0.000000,0.000000,0.102006,0.102006,0.101994,0.101994,902,923,902,923
8848,0,0.020726,0.026180,-0.001092,-0.00,0.00,-0.000121,0.102000,0.000000,0.000000,0.000000,0.000000,0.000000,0.000000,-0.000002,-0.000000,0.000000,0.102002,0.102002,0.101998,0.101998,902,923,902,923
8859,0,0.020770,0.026180,-0.001092,0.00,0.00,-0.000142,0.102000,0.000000,0.000000,0.000000,0.000000,0.000000,0.000000,0.000002,-0.000000,0.000000,0.101998,0.101998,0.102002,0.102002,902,923,902,923
8869,0,0.021023,0.026180,-0.001092,0.00,0.00,-0.000141,0.102000,0.000000,0.000000,0.000000,0.000000,0.000000,0.000000,0.000016,-0.000000,0.000000,0.101984,0.101984,0.102016,0.102016,902,923,902,923
8880,0,0.021225,0.026180,-0.001092,0.00,0.00,-0.000160,0.102000,0.000000,0.000000,0.000000,0.000000,0.000000,0.000000,0.000025,-0.000000,0.000000,0.101975,0.101975,0.102025,0.102025,902,923,902,923
8890,0,0.021387,0.026180,-0.001092,0.00,0.00,-0.000176,0.102000,0.000000,0.000000,0.000000,0.000000,0.000000,0.000000,0.000032,-0.000000,0.000000,0.101968,0.101968,0.102032,0.102032,902,923,902,923
8900,0,0.021517,0.026180,-0.001092,0.00,0.00,-0.000188,0.102000,0.000000,0.000000,0.000000,0.000000,0.000000,0.000000,0.000038,-0.000000,0.000000,0.101962,0.101962,0.102038,0.102038,902,923,902,923
8910,0,0.021620,0.026180,-0.001092,0.00,0.00,-0.000187,0.102000,0.000000,0.000000,0.000000,0.000000,0.000000,0.000000,0.000043,-0.000000,0.000000,0.101957,0.101957,0.102043,0.102043,902,923,902,923
8920,0,0.021703,0.026180,-0.001092,0.00,0.00,-0.000185,0.102000,0.000000,0.000000,0.000000,0.000000,0.000000,0.000000,0.000048,-0.000000,0.000000,0.101952,0.101952,0.102048,0.102048,902,923,902,923
8930,0,0.021769,0.026180,-0.001092,0.00,0.00,-0.000171,0.102000,0.000000,0.000000,0.000000,0.000000,0.000000,0.000000,0.000051,-0.000000,0.000000,0.101949,0.101949,0.102051,0.102051,902,923,902,923
8940,0,0.021823,0.026180,-0.001092,0.00,0.00,-0.000155,0.102000,0.000000,0.000000,0.000000,0.000000,0.000000,0.000000,0.000052,-0.000000,0.000000,0.101948,0.101948,0.102052,0.102052,902,923,902,923
8950,0,0.021865,0.026180,-0.001310,0.00,0.00,-0.000149,0.102000,0.000000,0.000000,0.000000,0.000000,0.000000,0.000000,0.000051,-0.000000,0.000000,0.101949,0.101949,0.102051,0.102051,902,923,902,923
8960,0,0.021899,0.026180,-0.001484,0.00,0.00,-0.000142,0.103000,0.000000,0.000000,0.000000,0.000000,0.000000,0.000000,0.000047,-0.000000,0.000000,0.102953,0.102953,0.103047,0.103047,903,923,903,924
8970,0,0.021926,0.026180,-0.001623,0.00,0.00,-0.000141,0.103000,0.000000,0.000000,0.000000,0.000000,0.000000,0.000000,0.000042,-0.000000,0.000000,0.102958,0.102958,0.103042,0.103042,903,923,903,924
8980,0,0.021948,0.026180,-0.001735,0.00,0.00,-0.000113,0.110000,0.000000,0.000000,0.000000,0.000000,0.000000,0.000000,0.000037,-0.000000,0.000000,0.109963,0.109963,0.110037,0.110037,909,929,909,929
8990,0,0.021965,0.026180,-0.001824,0.00,0.00,-0.000086,0.110000,0.000000,0.000000,0.000000,0.000000,0.000000,0.000000,0.000032,-0.000000,0.000000,0.109968,0.109968,0.110032,0.110032,909,929,909,929
9000,0,0.021979,0.026180,-0.001677,0.00,0.00,-0.000064,0.110000,0.000000,0.000000,0.000000,0.000000,0.000000,0.000000,0.000028,-0.000000,0.000000,0.109972,0.109972,0.110028,0.110028,909,929,909,929
9010,0,0.021990,0.026180,-0.001560,0.00,0.00,-0.000045,0.119000,0.000000,0.000000,0.000000,0.000000,0.000000,0.000000,0.000023,-0.000000,0.000000,0.118977,0.118977,0.119023,0.119023,916,937,916,937
9020,0,0.021999,0.026180,-0.001466,0.00,0.00,-0.000028,0.125000,0.000000,0.000000,0.000000,0.000000,0.000000,0.000000,0.000018,-0.000000,0.000000,0.124982,0.124982,0.125018,0.125018,921,942,921,942
9031,0,0.022006,0.026180,-0.001391,0.00,0.00,0.000002,0.128000,0.000000,0.000000,0.000000,0.000000,0.000000,0.000000,0.000013,-0.000000,0.000000,0.127987,0.127987,0.128013,0.128013,923,944,924,944
9041,0,0.022012,0.026180,-0.001331,0.00,0.00,0.000029,0.128000,0.000000,0.000000,0.000000,0.000000,0.000000,0.000000,0.000007,-0.000000,0.000000,0.127993,0.127993,0.128007,0.128007,923,944,924,944
9051,0,0.022017,0.026180,-0.001283,-0.00,0.00,0.000042,0.139000,0.000000,0.000000,0.000000,0.000000,0.000000,0.000000,-0.000000,-0.000000,0.000000,0.139000,0.139000,0.139000,0.139000,933,953,933,953
9060,0,0.022020,0.026180,-1.257663,-0.00,0.00,0.000062,0.139000,0.000000,0.000000,0.000000,0.000000,0.000000,0.000000,-0.000009,-0.000000,0.000000,0.139009,0.139009,0.138991,0.138991,933,953,933,953
9070,0,0.022023,0.026180,-2.262768,-0.00,0.00,0.000099,0.139000,0.000000,0.000000,0.000000,0.000000,0.000000,0.000000,-0.000018,-0.000000,0.000000,0.139018,0.139018,0.138982,0.138982,933,953,932,953
9080,0,0.021807,0.026180,-3.066633,-0.00,0.00,0.000121,0.143000,0.000000,0.000000,0.000000,0.000000,0.000000,0.000000,-0.000039,-0.000000,0.000000,0.143039,0.143039,0.142961,0.142961,936,956,936,956
9090,0,0.021635,0.025962,2.573460,-0.00,-0.00,0.000116,0.144000,0.000000,0.000000,0.000000,0.000000,0.000000,0.000000,-0.000058,0.000000,0.000000,0.144058,0.144058,0.143942,0.143942,937,957,937,957
9100,0,0.021496,0.025787,2.059204,-0.00,-0.00,0.000091,0.144000,0.000000,0.000000,0.000000,0.000000,0.000000,0.000000,-0.000072,0.000000,0.000000,0.144072,0.144072,0.143928,0.143928,937,957,937,957
9110,0,0.021386,0.025648,1.648018,-0.00,-0.00,0.000068,0.144000,0.000000,0.000000,0.000000,0.000000,0.000000,0.000000,-0.000083,0.000000,0.000000,0.144083,0.144083,0.143917,0.143917,937,957,937,957
9120,0,0.021298,0.025754,1.319287,-0.00,-0.00,-0.000007,0.148000,0.000000,0.000000,0.000000,0.000000,0.000000,0.000000,-0.000091,0.000000,0.000000,0.148091,0.148091,0.147909,0.147909,940,960,940,960
9130,0,0.021445,0.025839,1.056302,-0.00,-0.00,-0.000095,0.149000,0.000000,0.000000,0.000000,0.000000,0.000000,0.000000,-0.000082,0.000000,0.000000,0.149082,0.149082,0.148918,0.148918,941,961,941,961
9141,0,0.021563,0.025907,0.846133,-0.00,-0.00,-0.000144,0.149000,0.000000,0.000000,0.000000,0.000000,0.000000,0.000000,-0.000073,0.000000,0.000000,0.149073,0.149073,0.148927,0.148927,941,961,941,961
9158,0,0.021876,0.025962,0.677997,-0.00,0.00,-0.000150,0.151000,0.000000,0.000000,0.000000,0.000000,0.000000,0.000000,-0.000057,-0.000000,0.000000,0.151057,0.151057,0.150943,0.150943,942,963,942,963
9170,0,0.022126,0.026006,0.543489,-0.00,0.00,-0.000104,0.152000,0.000000,0.000000,0.000000,0.000000,0.000000,0.000000,-0.000041,-0.000000,0.000000,0.152041,0.152041,0.151959,0.151959,943,964,943,964
9181,0,0.022107,0.025822,0.435882,-0.00,-0.00,-0.000007,0.152000,0.000000,0.000000,0.000000,0.000000,0.000000,0.000000,-0.000040,0.000000,0.000000,0.152040,0.152040,0.151960,0.151960,943,964,943,964
9191,0,0.021875,0.025676,0.349796,-0.00,-0.00,0.000032,0.153000,0.000000,0.000000,0.000000,0.000000,0.000000,0.000000,-0.000050,0.000000,0.000000,0.153050,0.153050,0.152950,0.152950,944,964,944,964
9201,0,0.021689,0.025558,0.280928,-0.00,-0.00,0.000049,0.153000,0.000000,0.000000,0.000000,0.000000,0.000000,0.000000,-0.000058,0.000000,0.000000,0.153058,0.153058,0.152942,0.152942,944,965,944,964
9211,0,0.021540,0.025464,0.225833,-0.00,-0.00,0.000069,0.153000,0.000000,0.000000,0.000000,0.000000,0.000000,0.000000,-0.000062,0.000000,0.000000,0.153062,0.153062,0.152938,0.152938,944,965,944,964
9221,0,0.021420,0.025389,0.181757,-0.00,-0.00,0.000079,0.153000,0.000000,0.000000,0.000000,0.000000,0.000000,0.000000,-0.000064,0.000000,0.000000,0.153064,0.153064,0.152936,0.152936,944,965,944,964
9231,0,0.021325,0.025329,0.146715,-0.00,-0.00,0.000086,0.153000,0.000000,0.000000,0.000000,0.000000,0.000000,0.000000,-0.000066,0.000000,0.000000,0.153066,0.153066,0.152934,0.152934,944,965,944,964
9241,0,0.021249,0.025281,0.118681,-0.00,-0.00,0.000112,0.153000,0.000000,0.000000,0.000000,0.000000,0.000000,0.000000,-0.000065,0.000000,0.000000,0.153065,0.153065,0.152935,0.152935,944,965,944,964
9251,0,0.021188,0.025243,0.096254,-0.00,-0.00,0.000083,0.158000,0.000000,0.000000,0.000000,0.000000,0.000000,0.000000,-0.000063,0.000000,0.000000,0.158063,0.158063,0.157937,0.157937,948,969,948,969
9261,0,0.021139,0.025212,0.078312,-0.00,-0.00,0.000135,0.158000,0.000000,0.000000,0.000000,0.000000,0.000000,0.000000,-0.000061,0.000000,0.000000,0.158061,0.158061,0.157939,0.157939,948,969,948,969
9271,0,0.021100,0.025188,0.063959,-0.00,-0.00,0.000112,0.158000,0.000000,0.000000,0.000000,0.000000,0.000000,0.000000,-0.000056,0.000000,0.000000,0.158056,0.158056,0.157944,0.157944,948,969,948,969
9281,0,0.021069,0.025168,0.052476,-0.00,-0.00,0.000150,0.166000,0.000000,0.000000,0.000000,0.000000,0.000000,0.000000,-0.000052,0.000000,0.000000,0.166052,0.166052,0.165948,0.165948,955,975,955,975
9291,0,0.020826,0.025152,0.043290,-0.00,-0.00,0.000204,0.166000,0.000000,0.000000,0.000000,0.000000,0.000000,0.000000,-0.000059,0.000000,0.000000,0.166059,0.166059,0.165941,0.165941,955,975,955,975
9301,0,0.020631,0.025139,0.035941,-0.00,-0.00,0.000192,0.166000,0.000000,0.000000,0.000000,0.000000,0.000000,0.000000,-0.000063,0.000000,0.000000,0.166063,0.166063,0.165937,0.165937,955,975,955,975
9311,0,0.020476,0.025129,0.030062,-0.00,-0.00,0.000206,0.171000,0.000000,0.000000,0.000000,0.000000,0.000000,0.000000,-0.000064,0.000000,0.000000,0.171064,0.171064,0.170936,0.170936,959,979,959,979
9321,0,0.020351,0.025121,0.025358,-0.00,-0.00,0.000172,0.172000,0.000000,0.000000,0.000000,0.000000,0.000000,0.000000,-0.000064,0.000000,0.000000,0.172064,0.172064,0.171936,0.171936,960,980,959,980
9331,0,0.020252,0.025115,0.021596,-0.00,-0.00,0.000141,0.172000,0.000000,0.000000,0.000000,0.000000,0.000000,0.000000,-0.000064,0.000000,0.000000,0.172064,0.172064,0.171936,0.171936,960,980,959,980
9341,0,0.020172,0.025110,0.018585,-0.00,-0.00,0.000137,0.172000,0.000000,0.000000,0.000000,0.000000,0.000000,0.000000,-0.000061,0.000000,0.000000,0.172062,0.172062,0.171939,0.171939,960,980,959,980
9351,0,0.020108,0.025324,0.016177,-0.00,-0.00,0.000128,0.178000,0.000000,0.000000,0.000000,0.000000,0.000000,0.000000,-0.000057,0.000000,0.000000,0.178057,0.178057,0.177943,0.177943,965,985,964,985
9361,0,0.020057,0.025495,0.014251,-0.00,0.00,0.000101,0.179000,0.000000,0.000000,0.000000,0.000000,0.000000,0.000000,-0.000052,-0.000000,0.000000,0.179052,0.179052,0.178948,0.178948,965,986,965,986
9371,0,0.020016,0.025632,0.012710,-0.00,0.00,0.000102,0.179000,0.000000,0.000000,0.000000,0.000000,0.000000,0.000000,-0.000048,-0.000000,0.000000,0.179048,0.179048,0.178952,0.178952,965,986,965,986
9381,0,0.019984,0.025742,0.011477,-0.00,0.00,0.000205,0.183000,0.000000,0.000000,0.000000,0.000000,0.000000,0.000000,-0.000046,-0.000000,0.000000,0.183046,0.183046,0.182954,0.182954,969,989,969,989
9392,0,0.019739,0.025829,0.010490,-0.00,0.00,0.000272,0.183000,0.000000,0.000000,0.000000,0.000000,0.000000,0.000000,-0.000056,-0.000000,0.000000,0.183056,0.183056,0.182944,0.182944,969,989,969,989
9401,0,0.019544,0.025899,0.009701,-0.00,0.00,0.000299,0.183000,0.000000,0.000000,0.000000,0.000000,0.000000,0.000000,-0.000062,-0.000000,0.000000,0.183062,0.183062,0.182938,0.182938,969,989,969,989
9411,0,0.019388,0.025956,0.009070,-0.00,0.00,0.000279,0.189000,0.000000,0.000000,0.000000,0.000000,0.000000,0.000000,-0.000063,-0.000000,0.000000,0.189063,0.189063,0.188937,0.188937,974,994,973,994
9422,0,0.019044,0.026000,0.008565,-0.00,0.00,0.000322,0.190000,0.000000,0.000000,0.000000,0.000000,0.000000,0.000000,-0.000071,-0.000000,-0.000000,0.190071,0.190071,0.189929,0.189929,974,995,974,995
9431,0,0.018770,0.026036,0.008161,-0.00,0.00,0.000390,0.190000,0.000000,0.000000,0.000000,0.000000,0.000000,0.000000,-0.000075,-0.000000,-0.000000,0.190075,0.190075,0.189925,0.189925,974,995,974,995
9442,0,0.018550,0.026065,0.007838,-0.00,0.00,0.000579,0.196000,0.000000,0.000000,0.000000,0.000000,0.000000,0.000000,-0.000077,-0.000000,-0.000000,0.196077,0.196077,0.195923,0.195923,979,1000,979,1000
9451,0,0.017938,0.026306,0.007579,-0.00,0.00,0.000754,0.202000,0.000000,0.000000,0.000000,0.000000,0.000000,0.000000,-0.000106,-0.000000,-0.000000,0.202106,0.202106,0.201894,0.201894,984,1005,984,1005
9461,0,0.017230,0.026499,0.007372,-0.00,0.00,0.000878,0.205000,0.000000,0.000000,0.000000,0.000000,0.000000,0.000000,-0.000134,-0.000000,-0.000000,0.205134,0.205134,0.204866,0.204866,987,1007,986,1007
9479,0,0.016228,0.026435,0.007207,-0.00,0.00,0.000997,0.205000,0.000000,0.000000,0.000000,0.000000,0.000000,0.000000,-0.000151,-0.000000,-0.000000,0.205151,0.205151,0.204849,0.204849,987,1007,986,1007
9492,0,0.015207,0.026384,0.007075,-0.00,0.00,0.001161,0.205000,0.000000,0.000000,0.000000,0.000000,0.000000,0.000000,-0.000175,-0.000000,-0.000000,0.205175,0.205175,0.204825,0.204825,987,1007,986,1007
9501,0,0.014173,0.026125,0.006969,-0.00,0.00,0.001378,0.205000,0.000000,0.000000,0.000000,0.000000,0.000000,0.000000,-0.000213,-0.000000,-0.000000,0.205213,0.205213,0.204787,0.204787,987,1007,986,1007
9514,0,0.012473,0.025918,0.006884,-0.00,0.00,0.001531,0.214000,0.000000,0.000000,0.000000,0.000000,0.000000,0.000000,-0.000256,-0.000000,-0.000000,0.214256,0.214256,0.213744,0.213744,994,1015,994,1014
9523,0,0.010676,0.025752,0.006816,-0.00,-0.00,0.001762,0.214000,0.000000,0.000000,0.000000,0.000000,0.000000,0.000000,-0.000327,0.000000,-0.000000,0.214327,0.214327,0.213673,0.213673,994,1015,994,1014
9532,0,0.008585,0.025620,0.006544,-0.00,-0.00,0.002123,0.214000,0.000000,0.000000,0.000000,0.000000,0.000000,0.000000,-0.000410,0.000000,-0.000000,0.214410,0.214410,0.213590,0.213590,994,1015,994,1014
9542,0,0.006257,0.025513,0.006326,-0.00,-0.00,0.002505,0.215000,0.000000,0.000000,0.000000,0.000000,0.000000,0.000000,-0.000485,0.000000,-0.000000,0.215485,0.215485,0.214515,0.214515,995,1016,994,1015
9552,0,0.003958,0.025429,0.006151,-0.00,-0.00,0.002857,0.215000,0.000000,0.000000,0.000000,0.000000,0.000000,0.000000,-0.000552,0.000000,-0.000000,0.215552,0.215552,0.214448,0.214448,995,1016,994,1015
9562,0,0.002120,0.025361,0.006012,-0.00,-0.00,0.003211,0.215000,0.000000,0.000000,0.000000,0.000000,0.000000,0.000000,-0.000590,0.000000,-0.000000,0.215590,0.215590,0.214410,0.214410,995,1016,994,1015
9572,0,-0.000006,0.025306,0.005900,-0.00,-0.00,0.003583,0.215000,0.000000,0.000000,0.000000,0.000000,0.000000,0.000000,-0.000638,0.000000,-0.000000,0.215638,0.215638,0.214362,0.214362,995,1016,994,1015
9582,0,-0.002579,0.025263,0.005811,-0.00,-0.00,0.003902,0.215000,0.000000,0.000000,0.000000,0.000000,0.000000,0.000000,-0.000704,0.000000,-0.000000,0.215704,0.215704,0.214296,0.214296,995,1016,994,1015
9592,0,-0.005292,0.025228,0.005740,-0.00,-0.00,0.004185,0.215000,0.000000,0.000000,0.000000,0.000000,0.000000,0.000000,-0.000774,0.000000,-0.000000,0.215774,0.215774,0.214226,0.214226,995,1016,994,1015
9602,0,-0.008335,0.024982,0.005901,-0.00,0.00,0.004351,0.215000,0.000000,0.000000,0.000000,0.000000,0.000000,0.000000,-0.000857,-0.000000,-0.000000,0.215857,0.215857,0.214143,0.214143,995,1016,994,1015
9612,0,-0.012079,0.024349,0.006030,-0.00,-0.00,0.004459,0.215000,0.000000,0.000000,0.000000,0.000000,0.000000,0.000000,-0.000968,0.000000,-0.000000,0.215968,0.215968,0.214032,0.214032,996,1016,994,1014
9622,0,-0.015074,0.023843,0.006133,-0.01,-0.00,0.004551,0.215000,0.000000,0.000000,0.000000,0.000000,0.000000,0.000000,-0.001032,0.000000,-0.000000,0.216032,0.216032,0.213968,0.213968,996,1016,994,1014
9632,0,-0.018560,0.023219,0.006433,-0.01,-0.00,0.004697,0.215000,0.000000,0.000000,0.000000,0.000000,0.000000,0.000000,-0.001117,0.000000,-0.000000,0.216117,0.216117,0.213883,0.213883,996,1016,994,1014
9642,0,-0.022004,0.022284,0.006892,-0.01,-0.00,0.004808,0.215000,0.000000,0.000000,0.000000,0.000000,0.000000,0.000000,-0.001190,0.000000,-0.000000,0.216190,0.216190,0.213810,0.213810,996,1016,994,1014
9652,0,-0.024759,0.021536,0.007259,-0.01,-0.00,0.004894,0.215000,0.000000,0.000000,0.000000,0.000000,0.000000,0.000000,-0.001220,0.000000,-0.000000,0.216220,0.216220,0.213780,0.213780,996,1016,994,1014
9662,0,-0.027618,0.020720,0.007552,-0.01,-0.00,0.004946,0.215000,0.000000,0.000000,0.000000,0.000000,0.000000,0.000000,-0.001250,0.000000,-0.000000,0.216250,0.216250,0.213750,0.213750,996,1016,994,1014
9672,0,-0.030995,0.019848,0.008005,-0.01,-0.00,0.004909,0.215000,0.000000,0.000000,0.000000,0.000000,0.000000,0.000000,-0.001305,0.000000,-0.000000,0.216305,0.216305,0.213695,0.213695,996,1016,994,1014
9682,0,-0.034352,0.019151,0.008586,-0.01,-0.00,0.004867,0.215000,0.000000,0.000000,0.000000,0.000000,0.000000,0.000000,-0.001354,0.000000,-0.000000,0.216354,0.216354,0.213646,0.213646,996,1016,994,1014
9692,0,-0.037037,0.018593,0.009050,-0.01,-0.00,0.004835,0.215000,0.000000,0.000000,0.000000,0.000000,0.000000,0.000000,-0.001362,0.000000,-0.000000,0.216362,0.216362,0.213638,0.213638,996,1016,994,1014
9701,0,-0.039622,0.018147,0.009422,-0.01,-0.00,0.004806,0.215000,0.000000,0.000000,0.000000,0.000000,0.000000,0.000000,-0.001378,0.000000,-0.000000,0.216378,0.216378,0.213622,0.213622,996,1016,994,1014
9712,0,-0.042126,0.018227,0.009719,-0.01,-0.00,0.004867,0.215000,0.000000,0.000000,0.000000,0.000000,0.000000,0.000000,-0.001359,0.000000,-0.000000,0.216359,0.216359,0.213641,0.213641,996,1016,994,1014
9722,0,-0.044783,0.018726,0.009957,-0.01,-0.00,0.004998,0.215000,0.000000,0.000000,0.000000,0.000000,0.000000,0.000000,-0.001363,0.000000,-0.000000,0.216363,0.216363,0.213637,0.213637,996,1016,994,1014
9732,0,-0.047564,0.019999,0.010147,-0.01,-0.00,0.004959,0.215000,0.000000,0.000000,0.000000,0.000000,0.000000,0.000000,-0.001371,0.000000,-0.000000,0.216371,0.216371,0.213629,0.213629,996,1016,994,1014
9742,0,-0.050443,0.021890,0.010300,-0.01,-0.00,0.004812,0.215000,0.000000,0.000000,0.000000,0.000000,0.000000,0.000000,-0.001382,0.000000,-0.000000,0.216382,0.216382,0.213618,0.213618,996,1016,994,1014
9752,0,-0.052964,0.024057,0.010421,-0.01,-0.00,0.004686,0.215000,0.000000,0.000000,0.000000,0.000000,0.000000,0.000000,-0.001373,0.000000,-0.000000,0.216373,0.216373,0.213627,0.213627,996,1016,994,1014
9762,0,-0.055418,0.026663,0.010519,-0.01,-0.00,0.004628,0.215000,0.000000,0.000000,0.000000,0.000000,0.000000,0.000000,-0.001359,0.000000,-0.000000,0.216359,0.216359,0.213641,0.213641,996,1016,994,1014
9772,0,-0.057817,0.029839,0.010597,-0.01,0.00,0.004709,0.215000,0.000000,0.000000,0.000000,0.000000,0.000000,0.000000,-0.001345,-0.000000,-0.000000,0.216345,0.216345,0.213655,0.213655,996,1016,994,1014
9789,0,-0.061045,0.034779,0.010659,-0.01,0.00,0.004809,0.215000,0.000000,0.000000,0.000000,0.000000,0.000000,0.000000,-0.001305,-0.000000,-0.000000,0.216305,0.216305,0.213695,0.213695,996,1016,994,1014
9799,0,-0.064064,0.039823,0.010709,-0.01,0.00,0.004823,0.214000,0.000000,0.000000,0.000000,0.000000,0.000000,0.000000,-0.001326,-0.000000,-0.000000,0.215326,0.215326,0.212674,0.212674,995,1016,993,1013
9809,0,-0.067134,0.044948,0.010749,-0.01,0.00,0.004822,0.214000,0.000000,0.000000,0.000000,0.000000,0.000000,0.000000,-0.001349,-0.000000,-0.000000,0.215349,0.215349,0.212651,0.212651,995,1016,993,1013
9820,0,-0.070026,0.050357,0.010562,-0.01,0.00,0.004816,0.215000,0.000000,0.000000,0.000000,0.000000,0.000000,0.000000,-0.001344,-0.000000,-0.000000,0.216344,0.216344,0.213656,0.213656,996,1016,994,1014
9831,0,-0.072994,0.055776,0.010413,-0.01,0.00,0.004796,0.214000,0.000000,0.000000,0.000000,0.000000,0.000000,0.000000,-0.001346,-0.000000,-0.000000,0.215346,0.215346,0.212654,0.212654,995,1016,993,1013
9842,0,-0.075805,0.061419,0.010294,-0.01,0.00,0.004782,0.214000,0.000000,0.000000,0.000000,0.000000,0.000000,0.000000,-0.001340,-0.000000,-0.000000,0.215340,0.215340,0.212660,0.212660,995,1016,993,1013
9852,0,-0.078490,0.067025,0.009981,-0.01,0.00,0.004729,0.215000,0.000000,0.000000,0.000000,0.000000,0.000000,0.000000,-0.001339,-0.000000,-0.000000,0.216339,0.216339,0.213661,0.213661,996,1016,994,1014
9862,0,-0.081074,0.073037,0.009730,-0.01,0.00,0.004785,0.215000,0.000000,0.000000,0.000000,0.000000,0.000000,0.000000,-0.001334,-0.000000,-0.000000,0.216334,0.216334,0.213666,0.213666,996,1016,994,1014
9872,0,-0.083796,0.079155,0.009529,-0.01,0.00,0.004797,0.215000,0.000000,0.000000,0.000000,0.000000,0.000000,0.000000,-0.001337,-0.000000,-0.000000,0.216337,0.216337,0.213663,0.213663,996,1016,994,1014
9883,0,-0.087283,0.086886,0.009151,-0.01,0.01,0.004887,0.215000,0.000000,0.000000,0.000000,0.000000,0.000000,0.000000,-0.001365,-0.000000,-0.000000,0.216365,0.216365,0.213635,0.213635,996,1016,994,1014
9893,0,-0.090072,0.093071,0.008848,-0.01,0.01,0.005013,0.215000,0.000000,0.000000,0.000000,0.000000,0.000000,0.000000,-0.001371,-0.000000,-0.000000,0.216371,0.216371,0.213629,0.213629,996,1016,994,1014
9902,0,-0.092958,0.099328,0.008605,-0.01,0.01,0.004961,0.215000,0.000000,0.000000,0.000000,0.000000,0.000000,0.000000,-0.001397,-0.000000,-0.000000,0.216397,0.216397,0.213603,0.213603,996,1016,994,1014
9913,0,-0.095703,0.105206,0.008411,-0.01,0.01,0.004671,0.215000,0.000000,0.000000,0.000000,0.000000,0.000000,0.000000,-0.001389,-0.000000,-0.000000,0.216389,0.216389,0.213611,0.213611,996,1016,994,1014
9923,0,-0.098117,0.110999,0.008256,-0.01,0.01,0.004444,0.214000,0.000000,0.000000,0.000000,0.000000,0.000000,0.000000,-0.001380,-0.000000,-0.000000,0.215380,0.215380,0.212620,0.212620,995,1016,993,1013
9933,0,-0.100703,0.116943,0.008350,-0.01,0.02,0.004268,0.214000,0.000000,0.000000,0.000000,0.000000,0.000000,0.000000,-0.001378,-0.000000,-0.000000,0.215378,0.215378,0.212622,0.212622,995,1016,993,1013
9943,0,-0.102772,0.121698,0.008426,-0.01,0.02,0.003924,0.215000,0.000000,0.000000,0.000000,0.000000,0.000000,0.000000,-0.001351,-0.000000,-0.000000,0.216351,0.216351,0.213649,0.213649,996,1016,994,1014
9952,0,-0.104427,0.126156,0.008486,-0.01,0.02,0.003215,0.215000,0.000000,0.000000,0.000000,0.000000,0.000000,0.000000,-0.001317,-0.000000,-0.000000,0.216317,0.216317,0.213683,0.213683,996,1016,994,1014
9963,0,-0.105314,0.129941,0.008534,-0.01,0.02,0.002333,0.215000,0.000000,0.000000,0.000000,0.000000,0.000000,0.000000,-0.001236,-0.000000,-0.000000,0.216236,0.216236,0.213764,0.213764,996,1016,994,1014
9973,0,-0.105370,0.132969,0.008573,-0.01,0.02,0.001518,0.215000,0.000000,0.000000,0.000000,0.000000,0.000000,0.000000,-0.001124,-0.000000,-0.000000,0.216124,0.216124,0.213876,0.213876,996,1016,994,1014
9983,0,-0.104760,0.135173,0.008603,-0.01,0.02,0.000847,0.215000,0.000000,0.000000,0.000000,0.000000,0.000000,0.000000,-0.000988,-0.000000,-0.000000,0.215988,0.215988,0.214012,0.214012,996,1016,994,1014
9993,0,-0.103617,0.136282,0.008846,-0.00,0.02,0.000173,0.215000,0.000000,0.000000,0.000000,0.000000,0.000000,0.000000,-0.000836,-0.000000,-0.000000,0.215836,0.215836,0.214164,0.214164,995,1016,994,1015
10003,0,-0.102049,0.136296,0.009040,-0.00,0.02,-0.000581,0.215000,0.000000,0.000000,0.000000,0.000000,0.000000,0.000000,-0.000682,-0.000000,0.000000,0.215682,0.215682,0.214318,0.214318,995,1016,994,1015
10012,0,-0.099922,0.135217,0.009196,-0.00,0.01,-0.001428,0.215000,0.000000,0.000000,0.000000,0.000000,0.000000,0.000000,-0.000505,-0.000000,0.000000,0.215505,0.215505,0.214495,0.214495,995,1016,994,1015
10023,0,-0.097129,0.133263,0.009538,-0.00,0.01,-0.002291,0.215000,0.000000,0.000000,0.000000,0.000000,0.000000,0.000000,-0.000339,-0.000000,0.000000,0.215339,0.215339,0.214661,0.214661,995,1016,994,1015
10033,0,-0.093585,0.130172,0.010030,-0.00,0.01,-0.002849,0.215000,0.000000,0.000000,0.000000,0.000000,0.000000,0.000000,-0.000140,-0.000000,0.000000,0.215140,0.215140,0.214860,0.214860,995,1015,995,1015
10043,0,-0.089878,0.125954,0.010424,0.00,0.01,-0.003197,0.215000,0.000000,0.000000,0.000000,0.000000,0.000000,0.000000,0.000047,-0.000000,0.000000,0.214953,0.214953,0.215047,0.215047,995,1015,995,1015
