t,is_crashed,roll,pitch,yaw,p,q,r,throttle,p_cmd,q_cmd,r_cmd,roll_cmd,pitch_cmd,yaw_cmd,roll_pid_out,pitch_pid_out,yaw_pid_out,motor_fl,motor_bl,motor_fr,motor_br,pwm_fl,pwm_bl,pwm_fr,pwm_br
6988,0,0.537500,0.350000,0.000000,-0.00,-0.00,-0.000104,0.005000,0.000000,0.000000,0.000000,0.000000,0.000000,0.000000,-0.000001,0.000002,0.000001,0.000000,0.000000,0.000000,0.000000,0,0,0,0
7002,0,0.860000,0.560000,0.000000,0.12,0.08,0.000113,0.005000,0.000000,0.000000,0.000000,0.000000,0.000000,0.000000,0.000535,-0.000833,-0.000001,0.000000,0.000000,0.000000,0.000000,819,819,819,819
7013,0,1.118000,0.728000,0.000000,0.22,0.14,0.000310,0.005000,0.000000,0.000000,0.000000,0.000000,0.000000,0.000000,0.000989,-0.001503,-0.000003,0.000000,0.000000,0.000000,0.000000,819,819,819,819
7025,0,1.324400,0.862400,0.000000,0.28,0.18,0.000281,0.005000,0.000000,0.000000,0.000000,0.000000,0.000000,0.000000,0.001343,-0.001988,-0.000003,0.000000,0.000000,0.000000,0.000000,819,819,819,819
7034,0,1.489520,0.969920,0.000000,0.35,0.23,0.000150,0.005000,0.000000,0.000000,0.000000,0.000000,0.000000,0.000000,0.001718,-0.002483,-0.000002,0.000000,0.000000,0.000000,0.000000,819,819,819,819
7044,0,1.621616,1.055936,0.000000,0.38,0.25,0.000032,0.005000,0.000000,0.000000,0.000000,0.000000,0.000000,0.000000,0.001975,-0.002776,-0.000000,0.000000,0.000000,0.000000,0.000000,819,819,819,819
7054,0,1.727293,1.124749,0.000000,0.39,0.26,-0.000074,0.005000,0.000000,0.000000,0.000000,0.000000,0.000000,0.000000,0.002173,-0.002964,0.000000,0.000000,0.000000,0.000000,0.000000,819,819,819,819
7064,0,1.811835,1.179799,0.000000,0.40,0.26,-0.000171,0.005000,0.000000,0.000000,0.000000,0.000000,0.000000,0.000000,0.002325,-0.003074,0.000002,0.000000,0.000000,0.000000,0.000000,819,819,819,819
7074,0,1.879468,1.223839,0.000000,0.39,0.25,0.000053,0.005000,0.000000,0.000000,0.000000,0.000000,0.000000,0.000000,0.002440,-0.003126,-0.000000,0.000000,0.000000,0.000000,0.000000,819,819,819,819
7084,0,1.933574,1.259071,0.000000,0.38,0.25,-0.000056,0.005000,0.000000,0.000000,0.000000,0.000000,0.000000,0.000000,0.002527,-0.003132,0.000000,0.000000,0.000000,0.000000,0.000000,819,819,819,819
7094,0,1.976860,1.287257,0.000000,0.36,0.23,-0.000051,0.005000,0.000000,0.000000,0.000000,0.000000,0.000000,0.000000,0.002591,-0.003106,0.000000,0.000000,0.000000,0.000000,0.000000,819,819,819,819
7104,0,2.011488,1.309806,0.000000,0.34,0.22,-0.000357,0.005000,0.000000,0.000000,0.000000,0.000000,0.000000,0.000000,0.002639,-0.003061,0.000004,0.000000,0.000000,0.000000,0.000000,819,819,819,819
7114,0,2.039190,1.327845,0.000000,0.32,0.21,-0.000323,0.005000,0.000000,0.000000,0.000000,0.000000,0.000000,0.000000,0.002672,-0.003004,0.000003,0.000000,0.000000,0.000000,0.000000,819,819,819,819
7124,0,2.061352,1.342276,0.000000,0.30,0.20,-0.000189,0.005000,0.000000,0.000000,0.000000,0.000000,0.000000,0.000000,0.002695,-0.002937,0.000002,0.000000,0.000000,0.000000,0.000000,819,819,819,819
7134,0,2.079082,1.353821,0.000000,0.28,0.18,-0.000274,0.005000,0.000000,0.000000,0.000000,0.000000,0.000000,0.000000,0.002710,-0.002867,0.000003,0.000000,0.000000,0.000000,0.000000,819,819,819,819
7144,0,2.093266,1.363056,0.000000,0.26,0.17,-0.000145,0.005000,0.000000,0.000000,0.000000,0.000000,0.000000,0.000000,0.002720,-0.002792,0.000002,0.000000,0.000000,0.000000,0.000000,819,819,819,819
7154,0,2.104612,1.370445,0.000000,0.24,0.16,-0.000131,0.005000,0.000000,0.000000,0.000000,0.000000,0.000000,0.000000,0.002724,-0.002717,0.000002,0.000000,0.000000,0.000000,0.000000,819,819,819,819
7164,0,2.113690,1.376356,0.000000,0.22,0.14,-0.000118,0.005000,0.000000,0.000000,0.000000,0.000000,0.000000,0.000000,0.002726,-0.002640,0.000002,0.000000,0.000000,0.000000,0.000000,819,819,819,819
7174,0,2.120952,1.381085,0.000000,0.20,0.13,-0.000211,0.005000,0.000000,0.000000,0.000000,0.000000,0.000000,0.000000,0.002726,-0.002564,0.000003,0.000000,0.000000,0.000000,0.000000,819,819,819,819
7184,0,2.126761,1.384868,0.000000,0.18,0.12,-0.000191,0.005000,0.000000,0.000000,0.000000,0.000000,0.000000,0.000000,0.002722,-0.002491,0.000002,0.000000,0.000000,0.000000,0.000000,819,819,819,819
7194,0,2.131409,1.387894,0.000000,0.17,0.11,-0.000069,0.005000,0.000000,0.000000,0.000000,0.000000,0.000000,0.000000,0.002719,-0.002422,0.000001,0.000000,0.000000,0.000000,0.000000,819,819,819,819
7204,0,2.135127,1.390315,0.000000,0.15,0.10,-0.000270,0.005000,0.000000,0.000000,0.000000,0.000000,0.000000,0.000000,0.002715,-0.002364,0.000003,0.000000,0.000000,0.000000,0.000000,819,819,819,819
7214,0,2.138102,1.392252,0.000000,0.14,0.09,-0.000348,0.005000,0.000000,0.000000,0.000000,0.000000,0.000000,0.000000,0.002710,-0.002310,0.000004,0.000000,0.000000,0.000000,0.000000,819,819,819,819
7224,0,2.140481,1.393802,0.000000,0.13,0.08,-0.000418,0.005000,0.000000,0.000000,0.000000,0.000000,0.000000,0.000000,0.002705,-0.002261,0.000005,0.000000,0.000000,0.000000,0.000000,819,819,819,819
7234,0,2.142385,1.395041,0.000000,0.11,0.07,-0.000379,0.005000,0.000000,0.000000,0.000000,0.000000,0.000000,0.000000,0.002701,-0.002211,0.000005,0.000000,0.000000,0.000000,0.000000,819,819,819,819
7250,0,2.143908,1.396033,0.000000,0.10,0.07,-0.000239,0.005000,0.000000,0.000000,0.000000,0.000000,0.000000,0.000000,0.002694,-0.002161,0.000004,0.000000,0.000000,0.000000,0.000000,819,819,819,819
7263,0,2.145127,1.396827,0.000000,0.09,0.06,-0.000009,0.005000,0.000000,0.000000,0.000000,0.000000,0.000000,0.000000,0.002689,-0.002120,0.000001,0.000000,0.000000,0.000000,0.000000,819,819,819,819
7274,0,2.146101,1.397461,0.000000,0.08,0.05,0.000303,0.005000,0.000000,0.000000,0.000000,0.000000,0.000000,0.000000,0.002684,-0.002077,-0.000002,0.000000,0.000000,0.000000,0.000000,819,819,819,819
7284,0,2.146881,1.397969,0.000000,0.08,0.05,-0.000037,0.005000,0.000000,0.000000,0.000000,0.000000,0.000000,0.000000,0.002679,-0.002045,0.000001,0.000000,0.000000,0.000000,0.000000,819,819,819,819
7294,0,2.147505,1.398375,0.000000,0.07,0.05,-0.000655,0.005000,0.000000,0.000000,0.000000,0.000000,0.000000,0.000000,0.002675,-0.002013,0.000008,0.000000,0.000000,0.000000,0.000000,819,819,819,819
7304,0,2.148004,1.398700,0.000000,0.06,0.04,-0.000800,0.005000,0.000000,0.000000,0.000000,0.000000,0.000000,0.000000,0.002672,-0.001987,0.000010,0.000000,0.000000,0.000000,0.000000,819,819,819,819
7314,0,2.148403,1.398960,0.000000,0.06,0.04,-0.001035,0.005000,0.000000,0.000000,0.000000,0.000000,0.000000,0.000000,0.002667,-0.001959,0.000012,0.000000,0.000000,0.000000,0.000000,819,819,819,819
7324,0,2.148723,1.399168,0.000000,0.05,0.03,-0.000937,0.005000,0.000000,0.000000,0.000000,0.000000,0.000000,0.000000,0.002665,-0.001933,0.000012,0.000000,0.000000,0.000000,0.000000,819,819,819,819
7335,0,2.148978,1.399335,0.000000,0.05,0.03,-0.001159,0.005000,0.000000,0.000000,0.000000,0.000000,0.000000,0.000000,0.002660,-0.001910,0.000014,0.000000,0.000000,0.000000,0.000000,819,819,819,819
7344,0,2.149183,1.399468,0.000000,0.04,0.03,-0.000634,0.005000,0.000000,0.000000,0.000000,0.000000,0.000000,0.000000,0.002657,-0.001890,0.000009,0.000000,0.000000,0.000000,0.000000,819,819,819,819
7354,0,2.149346,1.399574,0.000000,0.04,0.02,-0.000367,0.005000,0.000000,0.000000,0.000000,0.000000,0.000000,0.000000,0.002654,-0.001872,0.000007,0.000000,0.000000,0.000000,0.000000,819,819,819,819
7364,0,2.149477,1.399659,0.000000,0.03,0.02,-0.000124,0.005000,0.000000,0.000000,0.000000,0.000000,0.000000,0.000000,0.002652,-0.001858,0.000004,0.000000,0.000000,0.000000,0.000000,819,819,819,819
7374,0,2.149582,1.399727,0.000000,0.03,0.02,-0.000216,0.005000,0.000000,0.000000,0.000000,0.000000,0.000000,0.000000,0.002649,-0.001844,0.000005,0.000000,0.000000,0.000000,0.000000,819,819,819,819
7384,0,2.149665,1.399782,0.000000,0.03,0.02,-0.000714,0.005000,0.000000,0.000000,0.000000,0.000000,0.000000,0.000000,0.002647,-0.001832,0.000011,0.000000,0.000000,0.000000,0.000000,819,819,819,819
7394,0,2.149732,1.399826,0.000000,0.02,0.02,-0.000853,0.005000,0.000000,0.000000,0.000000,0.000000,0.000000,0.000000,0.002645,-0.001820,0.000012,0.000000,0.000000,0.000000,0.000000,819,819,819,819
7404,0,2.149786,1.399861,0.000000,0.02,0.01,-0.000980,0.005000,0.000000,0.000000,0.000000,0.000000,0.000000,0.000000,0.002644,-0.001809,0.000014,0.000000,0.000000,0.000000,0.000000,819,819,819,819
7415,0,2.149829,1.399888,0.000000,0.02,0.01,-0.000886,0.005000,0.000000,0.000000,0.000000,0.000000,0.000000,0.000000,0.002642,-0.001802,0.000013,0.000000,0.000000,0.000000,0.000000,819,819,819,819
7425,0,2.149863,1.399911,0.000000,0.02,0.01,-0.000906,0.005000,0.000000,0.000000,0.000000,0.000000,0.000000,0.000000,0.002641,-0.001793,0.000014,0.000000,0.000000,0.000000,0.000000,819,819,819,819
7435,0,2.149891,1.399929,0.000000,0.02,0.01,-0.000923,0.005000,0.000000,0.000000,0.000000,0.000000,0.000000,0.000000,0.002640,-0.001781,0.000014,0.000000,0.000000,0.000000,0.000000,819,819,819,819
7445,0,2.149913,1.399943,0.000000,0.01,0.00,-0.000628,0.005000,0.000000,0.000000,0.000000,0.000000,0.000000,0.000000,0.002639,-0.001772,0.000012,0.000000,0.000000,0.000000,0.000000,819,819,819,819
7455,0,2.149930,1.399954,0.000000,0.01,0.00,-0.000776,0.005000,0.000000,0.000000,0.000000,0.000000,0.000000,0.000000,0.002638,-0.001764,0.000013,0.000000,0.000000,0.000000,0.000000,819,819,819,819
7465,0,2.149944,1.399963,0.000000,0.01,0.00,-0.000806,0.006000,0.000000,0.000000,0.000000,0.000000,0.000000,0.000000,0.002637,-0.001758,0.000014,0.000000,0.000000,0.000000,0.000000,819,819,819,819
7475,0,2.149955,1.399971,0.000000,0.01,0.00,-0.000729,0.006000,0.000000,0.000000,0.000000,0.000000,0.000000,0.000000,0.002636,-0.001754,0.000014,0.000000,0.000000,0.000000,0.000000,819,819,819,819
7485,0,2.149964,1.399977,0.000000,0.00,0.00,-0.000867,0.005000,0.000000,0.000000,0.000000,0.000000,0.000000,0.000000,0.002635,-0.001745,0.000015,0.000000,0.000000,0.000000,0.000000,819,819,819,819
7495,0,2.149971,1.399981,0.000000,0.00,0.00,-0.000578,0.005000,0.000000,0.000000,0.000000,0.000000,0.000000,0.000000,0.002634,-0.001737,0.000013,0.000000,0.000000,0.000000,0.000000,819,819,819,819
7505,0,2.149977,1.399985,0.000000,0.00,0.00,-0.000523,0.005000,0.000000,0.000000,0.000000,0.000000,0.000000,0.000000,0.002634,-0.001732,0.000012,0.000000,0.000000,0.000000,0.000000,819,819,819,819
7515,0,2.149982,1.399988,0.000000,0.00,0.00,-0.000370,0.005000,0.000000,0.000000,0.000000,0.000000,0.000000,0.000000,0.002633,-0.001727,0.000011,0.000000,0.000000,0.000000,0.000000,819,819,819,819
7525,0,2.149985,1.399990,0.000000,0.00,0.00,-0.000334,0.005000,0.000000,0.000000,0.000000,0.000000,0.000000,0.000000,0.002634,-0.001725,0.000011,0.000000,0.000000,0.000000,0.000000,819,819,819,819
7535,0,2.149988,1.399992,0.000000,0.00,0.00,-0.000510,0.006000,0.000000,0.000000,0.000000,0.000000,0.000000,0.000000,0.002633,-0.001721,0.000013,0.000000,0.000000,0.000000,0.000000,819,819,819,819
7545,0,2.149991,1.399994,0.000000,0.00,0.00,-0.000461,0.006000,0.000000,0.000000,0.000000,0.000000,0.000000,0.000000,0.002632,-0.001719,0.000012,0.000000,0.000000,0.000000,0.000000,819,819,819,819
7555,0,2.149992,1.399995,0.000000,0.00,0.00,-0.000521,0.005000,0.000000,0.000000,0.000000,0.000000,0.000000,0.000000,0.002631,-0.001720,0.000013,0.000000,0.000000,0.000000,0.000000,819,819,819,819
7567,0,2.149994,1.399996,0.000000,0.00,0.00,-0.000472,0.005000,0.000000,0.000000,0.000000,0.000000,0.000000,0.000000,0.002631,-0.001721,0.000013,0.000000,0.000000,0.000000,0.000000,819,819,819,819
7576,0,2.149995,1.399997,0.000000,0.00,0.00,-0.000738,0.005000,0.000000,0.000000,0.000000,0.000000,0.000000,0.000000,0.002630,-0.001720,0.000016,0.000000,0.000000,0.000000,0.000000,819,819,819,819
7586,0,2.149996,1.399997,0.000000,0.00,0.00,-0.000668,0.005000,0.000000,0.000000,0.000000,0.000000,0.000000,0.000000,0.002630,-0.001720,0.000015,0.000000,0.000000,0.000000,0.000000,819,819,819,819
7596,0,2.149997,1.399998,0.000000,0.00,0.00,-0.000501,0.006000,0.000000,0.000000,0.000000,0.000000,0.000000,0.000000,0.002630,-0.001717,0.000014,0.000000,0.000000,0.000000,0.000000,819,819,819,819
7605,0,2.149997,1.399998,0.000000,0.00,0.00,-0.000349,0.006000,0.000000,0.000000,0.000000,0.000000,0.000000,0.000000,0.002630,-0.001713,0.000012,0.000000,0.000000,0.000000,0.000000,819,819,819,819
7615,0,2.149998,1.399999,0.000000,0.00,0.00,-0.000420,0.005000,0.000000,0.000000,0.000000,0.000000,0.000000,0.000000,0.002629,-0.001714,0.000013,0.000000,0.000000,0.000000,0.000000,819,819,819,819
7625,0,2.149998,1.399999,0.000000,0.00,0.00,-0.000691,0.005000,0.000000,0.000000,0.000000,0.000000,0.000000,0.000000,0.002628,-0.001715,0.000016,0.000000,0.000000,0.000000,0.000000,819,819,819,819
7635,0,2.149999,1.399999,0.000000,0.00,0.00,-0.000833,0.005000,0.000000,0.000000,0.000000,0.000000,0.000000,0.000000,0.002627,-0.001713,0.000018,0.000000,0.000000,0.000000,0.000000,819,819,819,819
7645,0,2.149999,1.399999,0.000000,0.00,0.00,-0.000857,0.005000,0.000000,0.000000,0.000000,0.000000,0.000000,0.000000,0.002627,-0.001715,0.000019,0.000000,0.000000,0.000000,0.000000,819,819,819,819
7655,0,2.149999,1.399999,0.000000,0.00,0.00,-0.000776,0.005000,0.000000,0.000000,0.000000,0.000000,0.000000,0.000000,0.002627,-0.001716,0.000018,0.000000,0.000000,0.000000,0.000000,819,819,819,819
7665,0,2.149999,1.399999,0.000000,0.00,0.00,-0.000598,0.005000,0.000000,0.000000,0.000000,0.000000,0.000000,0.000000,0.002627,-0.001714,0.000016,0.000000,0.000000,0.000000,0.000000,819,819,819,819
7675,0,2.150000,1.400000,0.000000,0.00,0.00,-0.000541,0.005000,0.000000,0.000000,0.000000,0.000000,0.000000,0.000000,0.002626,-0.001717,0.000016,0.000000,0.000000,0.000000,0.000000,819,819,819,819
7685,0,2.150000,1.400000,0.000000,0.00,0.00,-0.000283,0.005000,0.000000,0.000000,0.000000,0.000000,0.000000,0.000000,0.002626,-0.001713,0.000014,0.000000,0.000000,0.000000,0.000000,819,819,819,819
7695,0,2.150000,1.400000,0.000000,0.00,0.00,-0.000152,0.005000,0.000000,0.000000,0.000000,0.000000,0.000000,0.000000,0.002625,-0.001709,0.000012,0.000000,0.000000,0.000000,0.000000,819,819,819,819
7705,0,2.150000,1.400000,0.000000,0.00,0.00,0.000277,0.005000,0.000000,0.000000,0.000000,0.000000,0.000000,0.000000,0.002624,-0.001706,0.000008,0.000000,0.000000,0.000000,0.000000,819,819,819,819
7715,0,2.150000,1.400000,0.000000,0.00,-0.00,0.000147,0.005000,0.000000,0.000000,0.000000,0.000000,0.000000,0.000000,0.002624,-0.001705,0.000009,0.000000,0.000000,0.000000,0.000000,819,819,819,819
7725,0,2.150000,1.400000,0.000000,-0.00,0.00,0.000340,0.005000,0.000000,0.000000,0.000000,0.000000,0.000000,0.000000,0.002623,-0.001707,0.000007,0.000000,0.000000,0.000000,0.000000,819,819,819,819
7736,0,2.150000,1.400000,0.000000,-0.00,0.00,0.000619,0.006000,0.000000,0.000000,0.000000,0.000000,0.000000,0.000000,0.002623,-0.001708,0.000004,0.000000,0.000000,0.000000,0.000000,819,819,819,819
7745,0,2.150000,1.400000,0.000000,-0.00,0.00,0.000664,0.006000,0.000000,0.000000,0.000000,0.000000,0.000000,0.000000,0.002623,-0.001709,0.000003,0.000000,0.000000,0.000000,0.000000,819,819,819,819
7755,0,2.150000,1.400000,0.000000,-0.00,0.00,0.000497,0.006000,0.000000,0.000000,0.000000,0.000000,0.000000,0.000000,0.002623,-0.001710,0.000005,0.000000,0.000000,0.000000,0.000000,819,819,819,819
7765,0,2.150000,1.400000,0.000000,0.00,0.00,0.000761,0.005000,0.000000,0.000000,0.000000,0.000000,0.000000,0.000000,0.002624,-0.001711,0.000002,0.000000,0.000000,0.000000,0.000000,819,819,819,819
7775,0,2.150000,1.400000,0.000000,0.00,0.00,0.001206,0.005000,0.000000,0.000000,0.000000,0.000000,0.000000,0.000000,0.002624,-0.001710,-0.000003,0.000000,0.000000,0.000000,0.000000,819,819,819,819
7786,0,2.150000,1.400000,0.000000,0.00,0.00,0.001299,0.005000,0.000000,0.000000,0.000000,0.000000,0.000000,0.000000,0.002624,-0.001712,-0.000004,0.000000,0.000000,0.000000,0.000000,819,819,819,819
7796,0,2.150000,1.400000,0.000000,0.00,0.00,0.001279,0.005000,0.000000,0.000000,0.000000,0.000000,0.000000,0.000000,0.002624,-0.001710,-0.000005,0.000000,0.000000,0.000000,0.000000,819,819,819,819
7805,0,2.150000,1.400000,0.000000,0.00,0.00,0.001365,0.005000,0.000000,0.000000,0.000000,0.000000,0.000000,0.000000,0.002624,-0.001713,-0.000006,0.000000,0.000000,0.000000,0.000000,819,819,819,819
7815,0,2.150000,1.400000,0.000000,0.00,0.00,0.001132,0.005000,0.000000,0.000000,0.000000,0.000000,0.000000,0.000000,0.002624,-0.001717,-0.000004,0.000000,0.000000,0.000000,0.000000,819,819,819,819
7828,0,2.150000,1.400000,0.000000,0.00,0.00,0.001024,0.005000,0.000000,0.000000,0.000000,0.000000,0.000000,0.000000,0.002625,-0.001717,-0.000004,0.000000,0.000000,0.000000,0.000000,819,819,819,819
7837,0,2.150000,1.400000,0.000000,0.00,0.00,0.000823,0.005000,0.000000,0.000000,0.000000,0.000000,0.000000,0.000000,0.002624,-0.001719,-0.000002,0.000000,0.000000,0.000000,0.000000,819,819,819,819
7847,0,2.150000,1.400000,0.000000,0.00,0.00,0.000745,0.006000,0.000000,0.000000,0.000000,0.000000,0.000000,0.000000,0.002625,-0.001719,-0.000001,0.000000,0.000000,0.000000,0.000000,819,819,819,819
7856,0,2.150000,1.400000,0.000000,0.00,0.00,0.000467,0.005000,0.000000,0.000000,0.000000,0.000000,0.000000,0.000000,0.002625,-0.001720,0.000001,0.000000,0.000000,0.000000,0.000000,819,819,819,819
7871,0,2.150000,1.400000,0.000000,0.00,0.00,0.000423,0.005000,0.000000,0.000000,0.000000,0.000000,0.000000,0.000000,0.002625,-0.001720,0.000002,0.000000,0.000000,0.000000,0.000000,819,819,819,819
7885,0,2.150000,1.400000,0.000000,0.00,0.00,0.000383,0.006000,0.000000,0.000000,0.000000,0.000000,0.000000,0.000000,0.002625,-0.001723,0.000002,0.000000,0.000000,0.000000,0.000000,819,819,819,819
7896,0,2.150000,1.400000,0.000000,0.00,0.00,0.000346,0.005000,0.000000,0.000000,0.000000,0.000000,0.000000,0.000000,0.002625,-0.001722,0.000002,0.000000,0.000000,0.000000,0.000000,819,819,819,819
7906,0,2.150000,1.400000,0.000000,0.00,0.00,0.000624,0.005000,0.000000,0.000000,0.000000,0.000000,0.000000,0.000000,0.002626,-0.001720,-0.000001,0.000000,0.000000,0.000000,0.000000,819,819,819,819
7916,0,2.150000,1.400000,0.000000,0.00,0.00,0.000461,0.005000,0.000000,0.000000,0.000000,0.000000,0.000000,0.000000,0.002626,-0.001722,0.000000,0.000000,0.000000,0.000000,0.000000,819,819,819,819
7926,0,2.150000,1.400000,0.000000,0.00,0.00,0.000417,0.005000,0.000000,0.000000,0.000000,0.000000,0.000000,0.000000,0.002625,-0.001726,0.000000,0.000000,0.000000,0.000000,0.000000,819,819,819,819
7936,0,2.150000,1.400000,0.000000,-0.00,0.00,0.000274,0.005000,0.000000,0.000000,0.000000,0.000000,0.000000,0.000000,0.002624,-0.001727,0.000002,0.000000,0.000000,0.000000,0.000000,819,819,819,819
7946,0,2.150000,1.400000,0.000000,-0.00,0.00,0.000041,0.005000,0.000000,0.000000,0.000000,0.000000,0.000000,0.000000,0.002623,-0.001729,0.000004,0.000000,0.000000,0.000000,0.000000,819,819,819,819
7956,0,2.150000,1.400000,0.000000,-0.00,0.00,-0.000067,0.005000,0.000000,0.000000,0.000000,0.000000,0.000000,0.000000,0.002623,-0.001727,0.000005,0.000000,0.000000,0.000000,0.000000,819,819,819,819
7966,0,2.150000,1.400000,0.000000,-0.00,0.00,0.000043,0.005000,0.000000,0.000000,0.000000,0.000000,0.000000,0.000000,0.002623,-0.001725,0.000004,0.000000,0.000000,0.000000,0.000000,819,819,819,819
7976,0,2.150000,1.400000,0.000000,-0.00,0.00,0.000246,0.005000,0.000000,0.000000,0.000000,0.000000,0.000000,0.000000,0.002622,-0.001721,0.000002,0.000000,0.000000,0.000000,0.000000,819,819,819,819
7986,0,2.150000,1.400000,0.000000,-0.00,0.00,0.000223,0.005000,0.000000,0.000000,0.000000,0.000000,0.000000,0.000000,0.002623,-0.001718,0.000002,0.000000,0.000000,0.000000,0.000000,819,819,819,819
7996,0,2.150000,1.400000,0.000000,-0.00,0.00,0.000513,0.005000,0.000000,0.000000,0.000000,0.000000,0.000000,0.000000,0.002622,-0.001724,-0.000000,0.000000,0.000000,0.000000,0.000000,819,819,819,819
8006,0,2.150000,1.400000,0.000000,-0.00,0.00,0.000775,0.005000,0.000000,0.000000,0.000000,0.000000,0.000000,0.000000,0.002622,-0.001730,-0.000004,0.000000,0.000000,0.000000,0.000000,819,819,819,819
8016,0,2.150000,1.400000,0.000000,-0.00,0.00,0.000701,0.005000,0.000000,0.000000,0.000000,0.000000,0.000000,0.000000,0.002621,-0.001734,-0.000003,0.000000,0.000000,0.000000,0.000000,819,819,819,819
8026,0,2.150000,1.400000,0.000000,-0.00,0.00,0.000531,0.005000,0.000000,0.000000,0.000000,0.000000,0.000000,0.000000,0.002622,-0.001734,-0.000002,0.000000,0.000000,0.000000,0.000000,819,819,819,819
8036,0,2.150000,1.400000,0.000000,-0.00,0.00,0.000481,0.005000,0.000000,0.000000,0.000000,0.000000,0.000000,0.000000,0.002621,-0.001730,-0.000001,0.000000,0.000000,0.000000,0.000000,819,819,819,819
8046,0,2.150000,1.400000,0.000000,-0.00,0.00,0.000642,0.005000,0.000000,0.000000,0.000000,0.000000,0.000000,0.000000,0.002621,-0.001725,-0.000003,0.000000,0.000000,0.000000,0.000000,819,819,819,819
8056,0,2.150000,1.400000,0.000000,-0.00,0.00,0.000788,0.005000,0.000000,0.000000,0.000000,0.000000,0.000000,0.000000,0.002621,-0.001720,-0.000005,0.000000,0.000000,0.000000,0.000000,819,819,819,819
8066,0,2.150000,1.400000,0.000000,-0.00,0.00,0.000610,0.005000,0.000000,0.000000,0.000000,0.000000,0.000000,0.000000,0.002620,-0.001721,-0.000004,0.000000,0.000000,0.000000,0.000000,819,819,819,819
8076,0,2.150000,1.400000,0.000000,-0.00,0.00,0.000863,0.005000,0.000000,0.000000,0.000000,0.000000,0.000000,0.000000,0.002620,-0.001720,-0.000006,0.000000,0.000000,0.000000,0.000000,819,819,819,819
8086,0,2.150000,1.400000,0.000000,-0.00,0.00,0.001092,0.005000,0.000000,0.000000,0.000000,0.000000,0.000000,0.000000,0.002619,-0.001719,-0.000009,0.000000,0.000000,0.000000,0.000000,819,819,819,819
8096,0,2.150000,1.400000,0.000000,-0.00,-0.00,0.000988,0.005000,0.000000,0.000000,0.000000,0.000000,0.000000,0.000000,0.002620,-0.001718,-0.000009,0.000000,0.000000,0.000000,0.000000,819,819,819,819
8106,0,2.150000,1.400000,0.000000,-0.00,-0.00,0.000894,0.005000,0.000000,0.000000,0.000000,0.000000,0.000000,0.000000,0.002619,-0.001715,-0.000008,0.000000,0.000000,0.000000,0.000000,819,819,819,819
8116,0,2.150000,1.400000,0.000000,-0.00,-0.00,0.000913,0.005000,0.000000,0.000000,0.000000,0.000000,0.000000,0.000000,0.002619,-0.001712,-0.000009,0.000000,0.000000,0.000000,0.000000,819,819,819,819
8126,0,2.150000,1.400000,0.000000,-0.00,-0.00,0.001137,0.006000,0.000000,0.000000,0.000000,0.000000,0.000000,0.000000,0.002617,-0.001709,-0.000011,0.000000,0.000000,0.000000,0.000000,819,819,819,819
8137,0,2.150000,1.400000,0.000000,-0.00,-0.00,0.001236,0.006000,0.000000,0.000000,0.000000,0.000000,0.000000,0.000000,0.002617,-0.001709,-0.000013,0.000000,0.000000,0.000000,0.000000,819,819,819,819
8146,0,2.150000,1.400000,0.000000,-0.00,-0.00,0.001015,0.006000,0.000000,0.000000,0.000000,0.000000,0.000000,0.000000,0.002616,-0.001714,-0.000011,0.000000,0.000000,0.000000,0.000000,819,819,819,819
8156,0,2.150000,1.400000,0.000000,-0.00,0.00,0.000815,0.005000,0.000000,0.000000,0.000000,0.000000,0.000000,0.000000,0.002617,-0.001719,-0.000009,0.000000,0.000000,0.000000,0.000000,819,819,819,819
8166,0,2.150000,1.400000,0.000000,-0.00,0.00,0.000323,0.005000,0.000000,0.000000,0.000000,0.000000,0.000000,0.000000,0.002617,-0.001719,-0.000004,0.000000,0.000000,0.000000,0.000000,819,819,819,819
8176,0,2.150000,1.400000,0.000000,-0.00,0.00,0.000085,0.005000,0.000000,0.000000,0.000000,0.000000,0.000000,0.000000,0.002617,-0.001718,-0.000002,0.000000,0.000000,0.000000,0.000000,819,819,819,819
8190,0,2.150000,1.400000,0.000000,-0.00,-0.00,0.000181,0.005000,0.000000,0.000000,0.000000,0.000000,0.000000,0.000000,0.002617,-0.001716,-0.000003,0.000000,0.000000,0.000000,0.000000,819,819,819,819
8204,0,2.150000,1.400000,0.000000,-0.00,0.00,0.000164,0.005000,0.000000,0.000000,0.000000,0.000000,0.000000,0.000000,0.002618,-0.001718,-0.000003,0.000000,0.000000,0.000000,0.000000,819,819,819,819
8215,0,2.150000,1.400000,0.000000,-0.00,0.00,0.000148,0.006000,0.000000,0.000000,0.000000,0.000000,0.000000,0.000000,0.002618,-0.001721,-0.000003,0.000000,0.000000,0.000000,0.000000,819,819,819,819
8226,0,2.150000,1.400000,0.000000,-0.00,0.00,0.000238,0.006000,0.000000,0.000000,0.000000,0.000000,0.000000,0.000000,0.002618,-0.001723,-0.000004,0.000000,0.000000,0.000000,0.000000,819,819,819,819
8236,0,2.150000,1.400000,0.000000,0.00,0.00,0.000111,0.005000,0.000000,0.000000,0.000000,0.000000,0.000000,0.000000,0.002620,-0.001722,-0.000003,0.000000,0.000000,0.000000,0.000000,819,819,819,819
8246,0,2.150000,1.400000,0.000000,-0.00,0.00,-0.000003,0.005000,0.000000,0.000000,0.000000,0.000000,0.000000,0.000000,0.002619,-0.001722,-0.000002,0.000000,0.000000,0.000000,0.000000,819,819,819,819
8256,0,2.150000,1.400000,0.000000,-0.00,0.00,-0.000210,0.005000,0.000000,0.000000,0.000000,0.000000,0.000000,0.000000,0.002618,-0.001725,0.000000,0.000000,0.000000,0.000000,0.000000,819,819,819,819
8267,0,2.150000,1.400000,0.000000,-0.00,0.00,-0.000397,0.005000,0.000000,0.000000,0.000000,0.000000,0.000000,0.000000,0.002618,-0.001726,0.000003,0.000000,0.000000,0.000000,0.000000,819,819,819,819
8277,0,2.150000,1.400000,0.000000,-0.00,0.00,-0.000359,0.005000,0.000000,0.000000,0.000000,0.000000,0.000000,0.000000,0.002618,-0.001728,0.000002,0.000000,0.000000,0.000000,0.000000,819,819,819,819
8287,0,2.150000,1.400000,0.000000,-0.00,0.00,-0.000325,0.006000,0.000000,0.000000,0.000000,0.000000,0.000000,0.000000,0.002618,-0.001724,0.000002,0.000000,0.000000,0.000000,0.000000,819,819,819,819
8447,0,2.150000,1.400000,0.000000,0.00,0.00,-0.000294,0.006000,0.000000,0.000000,0.000000,0.000000,0.000000,0.000000,0.002619,-0.001726,0.000002,0.000000,0.000000,0.000000,0.000000,819,819,819,819
8466,0,2.150000,1.400000,0.000000,0.00,0.00,-0.000474,0.005000,0.000000,0.000000,0.000000,0.000000,0.000000,0.000000,0.002619,-0.001725,0.000004,0.000000,0.000000,0.000000,0.000000,819,819,819,819
8477,0,2.150000,1.400000,0.000000,0.00,0.00,-0.000532,0.005000,0.000000,0.000000,0.000000,0.000000,0.000000,0.000000,0.002620,-0.001722,0.000005,0.000000,0.000000,0.000000,0.000000,819,819,819,819
8487,0,2.150000,1.400000,0.000000,0.00,-0.00,-0.000689,0.005000,0.000000,0.000000,0.000000,0.000000,0.000000,0.000000,0.002620,-0.001719,0.000007,0.000000,0.000000,0.000000,0.000000,819,819,819,819
8497,0,2.150000,1.400000,0.000000,0.00,0.00,-0.000934,0.005000,0.000000,0.000000,0.000000,0.000000,0.000000,0.000000,0.002621,-0.001724,0.000010,0.000000,0.000000,0.000000,0.000000,819,819,819,819
8507,0,2.150000,1.400000,0.000000,0.00,0.00,-0.000846,0.005000,0.000000,0.000000,0.000000,0.000000,0.000000,0.000000,0.002621,-0.001726,0.000009,0.000000,0.000000,0.000000,0.000000,819,819,819,819
8517,0,2.150000,1.400000,0.000000,0.00,0.00,-0.000765,0.006000,0.000000,0.000000,0.000000,0.000000,0.000000,0.000000,0.002622,-0.001730,0.000009,0.000000,0.000000,0.000000,0.000000,819,819,819,819
8527,0,2.150000,1.400000,0.000000,0.00,0.00,-0.000589,0.005000,0.000000,0.000000,0.000000,0.000000,0.000000,0.000000,0.002622,-0.001730,0.000007,0.000000,0.000000,0.000000,0.000000,819,819,819,819
8538,0,2.150000,1.400000,0.000000,0.00,0.00,-0.000326,0.005000,0.000000,0.000000,0.000000,0.000000,0.000000,0.000000,0.002621,-0.001730,0.000005,0.000000,0.000000,0.000000,0.000000,819,819,819,819
8548,0,2.150000,1.400000,0.000000,0.00,0.00,-0.000295,0.005000,0.000000,0.000000,0.000000,0.000000,0.000000,0.000000,0.002621,-0.001728,0.000004,0.000000,0.000000,0.000000,0.000000,819,819,819,819
8557,0,2.150000,1.400000,0.000000,0.00,0.00,-0.000267,0.005000,0.000000,0.000000,0.000000,0.000000,0.000000,0.000000,0.002622,-0.001729,0.000004,0.000000,0.000000,0.000000,0.000000,819,819,819,819
8567,0,2.150000,1.400000,0.000000,0.00,0.00,-0.000345,0.005000,0.000000,0.000000,0.000000,0.000000,0.000000,0.000000,0.002623,-0.001730,0.000005,0.000000,0.000000,0.000000,0.000000,819,819,819,819
8578,0,2.150000,1.400000,0.000000,0.00,0.00,-0.000312,0.005000,0.000000,0.000000,0.000000,0.000000,0.000000,0.000000,0.002623,-0.001732,0.000005,0.000000,0.000000,0.000000,0.000000,819,819,819,819
8588,0,2.150000,1.400000,0.000000,0.00,0.00,-0.000386,0.005000,0.000000,0.000000,0.000000,0.000000,0.000000,0.000000,0.002624,-0.001728,0.000006,0.000000,0.000000,0.000000,0.000000,819,819,819,819
8598,0,2.150000,1.400000,0.000000,0.00,0.00,-0.000557,0.005000,0.000000,0.000000,0.000000,0.000000,0.000000,0.000000,0.002623,-0.001729,0.000008,0.000000,0.000000,0.000000,0.000000,819,819,819,819
8608,0,2.150000,1.400000,0.000000,0.00,0.00,-0.000711,0.005000,0.000000,0.000000,0.000000,0.000000,0.000000,0.000000,0.002624,-0.001731,0.000010,0.000000,0.000000,0.000000,0.000000,819,819,819,819
8617,0,2.150000,1.400000,0.000000,0.00,0.00,-0.000644,0.005000,0.000000,0.000000,0.000000,0.000000,0.000000,0.000000,0.002623,-0.001733,0.000009,0.000000,0.000000,0.000000,0.000000,819,819,819,819
8628,0,2.150000,1.400000,0.000000,0.00,0.00,-0.000479,0.005000,0.000000,0.000000,0.000000,0.000000,0.000000,0.000000,0.002623,-0.001732,0.000008,0.000000,0.000000,0.000000,0.000000,819,819,819,819
8638,0,2.150000,1.400000,0.000000,0.00,0.00,-0.000433,0.005000,0.000000,0.000000,0.000000,0.000000,0.000000,0.000000,0.002623,-0.001730,0.000007,0.000000,0.000000,0.000000,0.000000,819,819,819,819
8647,0,2.150000,1.400000,0.000000,0.00,0.00,-0.000185,0.005000,0.000000,0.000000,0.000000,0.000000,0.000000,0.000000,0.002623,-0.001730,0.000005,0.000000,0.000000,0.000000,0.000000,819,819,819,819
8658,0,2.150000,1.400000,0.000000,0.00,0.00,-0.000064,0.005000,0.000000,0.000000,0.000000,0.000000,0.000000,0.000000,0.002623,-0.001731,0.000004,0.000000,0.000000,0.000000,0.000000,819,819,819,819
8668,0,2.150000,1.400000,0.000000,0.00,0.00,0.000046,0.005000,0.000000,0.000000,0.000000,0.000000,0.000000,0.000000,0.002623,-0.001732,0.000003,0.000000,0.000000,0.000000,0.000000,819,819,819,819
8678,0,2.150000,1.400000,0.000000,0.00,0.00,-0.000166,0.005000,0.000000,0.000000,0.000000,0.000000,0.000000,0.000000,0.002623,-0.001731,0.000005,0.000000,0.000000,0.000000,0.000000,819,819,819,819
8688,0,2.150000,1.400000,0.000000,0.00,0.00,-0.000254,0.005000,0.000000,0.000000,0.000000,0.000000,0.000000,0.000000,0.002624,-0.001728,0.000006,0.000000,0.000000,0.000000,0.000000,819,819,819,819
8698,0,2.150000,1.400000,0.000000,0.00,0.00,-0.000437,0.005000,0.000000,0.000000,0.000000,0.000000,0.000000,0.000000,0.002624,-0.001727,0.000008,0.000000,0.000000,0.000000,0.000000,819,819,819,819
8708,0,2.150000,1.400000,0.000000,0.00,-0.00,-0.000603,0.005000,0.000000,0.000000,0.000000,0.000000,0.000000,0.000000,0.002624,-0.001722,0.000010,0.000000,0.000000,0.000000,0.000000,819,819,819,819
8718,0,2.150000,1.400000,0.000000,0.00,-0.00,-0.000545,0.005000,0.000000,0.000000,0.000000,0.000000,0.000000,0.000000,0.002625,-0.001719,0.000010,0.000000,0.000000,0.000000,0.000000,819,819,819,819
8728,0,2.150000,1.400000,0.000000,0.00,-0.00,-0.000286,0.005000,0.000000,0.000000,0.000000,0.000000,0.000000,0.000000,0.002625,-0.001719,0.000007,0.000000,0.000000,0.000000,0.000000,819,819,819,819
8738,0,2.150000,1.400000,0.000000,0.00,-0.00,-0.000259,0.005000,0.000000,0.000000,0.000000,0.000000,0.000000,0.000000,0.002625,-0.001721,0.000007,0.000000,0.000000,0.000000,0.000000,819,819,819,819
8748,0,2.150000,1.400000,0.000000,0.00,0.00,-0.000545,0.006000,0.000000,0.000000,0.000000,0.000000,0.000000,0.000000,0.002625,-0.001725,0.000010,0.000000,0.000000,0.000000,0.000000,819,819,819,819
8758,0,2.150000,1.400000,0.000000,0.00,-0.00,-0.000804,0.006000,0.000000,0.000000,0.000000,0.000000,0.000000,0.000000,0.002625,-0.001722,0.000013,0.000000,0.000000,0.000000,0.000000,819,819,819,819
8775,0,2.150000,1.400000,0.000000,0.00,-0.00,-0.000624,0.006000,0.000000,0.000000,0.000000,0.000000,0.000000,0.000000,0.002624,-0.001720,0.000011,0.000000,0.000000,0.000000,0.000000,819,819,819,819
8788,0,2.150000,1.400000,0.000000,0.00,-0.00,-0.000565,0.006000,0.000000,0.000000,0.000000,0.000000,0.000000,0.000000,0.002625,-0.001718,0.000011,0.000000,0.000000,0.000000,0.000000,819,819,819,819
8798,0,2.150000,1.400000,0.000000,0.00,-0.00,-0.000719,0.006000,0.000000,0.000000,0.000000,0.000000,0.000000,0.000000,0.002624,-0.001716,0.000013,0.000000,0.000000,0.000000,0.000000,819,819,819,819
8808,0,2.150000,1.400000,0.000000,-0.00,-0.00,-0.000858,0.006000,0.000000,0.000000,0.000000,0.000000,0.000000,0.000000,0.002624,-0.001716,0.000015,0.000000,0.000000,0.000000,0.000000,819,819,819,819
8818,0,2.150000,1.400000,0.000000,-0.00,-0.00,-0.001087,0.005000,0.000000,0.000000,0.000000,0.000000,0.000000,0.000000,0.002623,-0.001718,0.000018,0.000000,0.000000,0.000000,0.000000,819,819,819,819
8828,0,2.150000,1.400000,0.000000,-0.00,-0.00,-0.001295,0.006000,0.000000,0.000000,0.000000,0.000000,0.000000,0.000000,0.002624,-0.001720,0.000020,0.000000,0.000000,0.000000,0.000000,819,819,819,819
8838,0,2.150000,1.400000,0.000000,-0.00,-0.00,-0.001172,0.006000,0.000000,0.000000,0.000000,0.000000,0.000000,0.000000,0.002623,-0.001720,0.000019,0.000000,0.000000,0.000000,0.000000,819,819,819,819
8851,0,2.150000,1.400000,0.000000,0.00,-0.00,-0.001060,0.005000,0.000000,0.000000,0.000000,0.000000,0.000000,0.000000,0.002624,-0.001716,0.000019,0.000000,0.000000,0.000000,0.000000,819,819,819,819
8860,0,2.150000,1.400000,0.000000,0.00,-0.00,-0.000960,0.005000,0.000000,0.000000,0.000000,0.000000,0.000000,0.000000,0.002625,-0.001716,0.000018,0.000000,0.000000,0.000000,0.000000,819,819,819,819
8870,0,2.150000,1.400000,0.000000,0.00,-0.00,-0.000868,0.005000,0.000000,0.000000,0.000000,0.000000,0.000000,0.000000,0.002627,-0.001716,0.000018,0.000000,0.000000,0.000000,0.000000,819,819,819,819
8880,0,2.150000,1.400000,0.000000,0.00,-0.00,-0.000786,0.005000,0.000000,0.000000,0.000000,0.000000,0.000000,0.000000,0.002627,-0.001718,0.000017,0.000000,0.000000,0.000000,0.000000,819,819,819,819
8889,0,2.150000,1.400000,0.000000,0.00,-0.00,-0.000711,0.005000,0.000000,0.000000,0.000000,0.000000,0.000000,0.000000,0.002628,-0.001720,0.000017,0.000000,0.000000,0.000000,0.000000,819,819,819,819
8899,0,2.150000,1.400000,0.000000,0.00,0.00,-0.000851,0.005000,0.000000,0.000000,0.000000,0.000000,0.000000,0.000000,0.002628,-0.001722,0.000019,0.000000,0.000000,0.000000,0.000000,819,819,819,819
8909,0,2.150000,1.400000,0.000000,0.00,0.00,-0.000666,0.005000,0.000000,0.000000,0.000000,0.000000,0.000000,0.000000,0.002630,-0.001726,0.000017,0.000000,0.000000,0.000000,0.000000,819,819,819,819
8918,0,2.150000,1.400000,0.000000,0.00,0.00,-0.000603,0.005000,0.000000,0.000000,0.000000,0.000000,0.000000,0.000000,0.002630,-0.001722,0.000017,0.000000,0.000000,0.000000,0.000000,819,819,819,819
8928,0,2.150000,1.400000,0.000000,0.00,0.00,-0.000546,0.006000,0.000000,0.000000,0.000000,0.000000,0.000000,0.000000,0.002630,-0.001724,0.000016,0.000000,0.000000,0.000000,0.000000,819,819,819,819
8939,0,2.150000,1.400000,0.000000,0.00,-0.00,-0.000598,0.006000,0.000000,0.000000,0.000000,0.000000,0.000000,0.000000,0.002629,-0.001722,0.000017,0.000000,0.000000,0.000000,0.000000,819,819,819,819
8948,0,2.150000,1.400000,0.000000,0.00,-0.00,-0.000748,0.005000,0.000000,0.000000,0.000000,0.000000,0.000000,0.000000,0.002629,-0.001722,0.000019,0.000000,0.000000,0.000000,0.000000,819,819,819,819
8958,0,2.150000,1.400000,0.000000,0.00,0.00,-0.000470,0.005000,0.000000,0.000000,0.000000,0.000000,0.000000,0.000000,0.002629,-0.001723,0.000016,0.000000,0.000000,0.000000,0.000000,819,819,819,819
8968,0,2.150000,1.400000,0.000000,0.00,0.00,-0.000322,0.005000,0.000000,0.000000,0.000000,0.000000,0.000000,0.000000,0.002629,-0.001723,0.000015,0.000000,0.000000,0.000000,0.000000,819,819,819,819
8978,0,2.150000,1.400000,0.000000,0.00,0.00,-0.000291,0.005000,0.000000,0.000000,0.000000,0.000000,0.000000,0.000000,0.002628,-0.001723,0.000015,0.000000,0.000000,0.000000,0.000000,819,819,819,819
8989,0,2.150000,1.400000,0.000000,0.00,-0.00,-0.000160,0.005000,0.000000,0.000000,0.000000,0.000000,0.000000,0.000000,0.002628,-0.001722,0.000014,0.000000,0.000000,0.000000,0.000000,819,819,819,819
8999,0,2.150000,1.400000,0.000000,0.00,-0.00,-0.000145,0.005000,0.000000,0.000000,0.000000,0.000000,0.000000,0.000000,0.002629,-0.001720,0.000014,0.000000,0.000000,0.000000,0.000000,819,819,819,819
9009,0,2.150000,1.400000,0.000000,0.00,-0.00,-0.000234,0.005000,0.000000,0.000000,0.000000,0.000000,0.000000,0.000000,0.002630,-0.001715,0.000015,0.000000,0.000000,0.000000,0.000000,819,819,819,819
9019,0,2.150000,1.400000,0.000000,0.00,-0.00,-0.000316,0.005000,0.000000,0.000000,0.000000,0.000000,0.000000,0.000000,0.002630,-0.001715,0.000015,0.000000,0.000000,0.000000,0.000000,819,819,819,819
9029,0,2.150000,1.400000,0.000000,0.00,-0.00,-0.000493,0.005000,0.000000,0.000000,0.000000,0.000000,0.000000,0.000000,0.002630,-0.001716,0.000017,0.000000,0.000000,0.000000,0.000000,819,819,819,819
9039,0,2.150000,1.400000,0.000000,0.00,-0.00,-0.000550,0.005000,0.000000,0.000000,0.000000,0.000000,0.000000,0.000000,0.002630,-0.001719,0.000018,0.000000,0.000000,0.000000,0.000000,819,819,819,819
9049,0,2.150000,1.400000,0.000000,0.00,-0.00,-0.000394,0.005000,0.000000,0.000000,0.000000,0.000000,0.000000,0.000000,0.002630,-0.001720,0.000017,0.000000,0.000000,0.000000,0.000000,819,819,819,819
9059,0,2.150000,1.400000,0.000000,0.00,-0.00,-0.000149,0.006000,0.000000,0.000000,0.000000,0.000000,0.000000,0.000000,0.002630,-0.001718,0.000015,0.000000,0.000000,0.000000,0.000000,819,819,819,819
9069,0,2.150000,1.400000,0.000000,0.00,-0.00,-0.000239,0.006000,0.000000,0.000000,0.000000,0.000000,0.000000,0.000000,0.002631,-0.001716,0.000016,0.000000,0.000000,0.000000,0.000000,819,819,819,819
9085,0,2.150000,1.400000,0.000000,0.00,-0.00,-0.000216,0.006000,0.000000,0.000000,0.000000,0.000000,0.000000,0.000000,0.002631,-0.001713,0.000015,0.000000,0.000000,0.000000,0.000000,819,819,819,819
9098,0,2.150000,1.400000,0.000000,0.00,-0.00,-0.000506,0.006000,0.000000,0.000000,0.000000,0.000000,0.000000,0.000000,0.002631,-0.001708,0.000019,0.000000,0.000000,0.000000,0.000000,819,819,819,819
9108,0,2.150000,1.400000,0.000000,0.00,-0.00,-0.000769,0.006000,0.000000,0.000000,0.000000,0.000000,0.000000,0.000000,0.002632,-0.001710,0.000022,0.000000,0.000000,0.000000,0.000000,819,819,819,819
9119,0,2.150000,1.400000,0.000000,0.00,-0.00,-0.000903,0.006000,0.000000,0.000000,0.000000,0.000000,0.000000,0.000000,0.002631,-0.001709,0.000023,0.000000,0.000000,0.000000,0.000000,819,819,819,819
9129,0,2.150000,1.400000,0.000000,0.00,-0.00,-0.001336,0.006000,0.000000,0.000000,0.000000,0.000000,0.000000,0.000000,0.002632,-0.001711,0.000028,0.000000,0.000000,0.000000,0.000000,819,819,819,819
9139,0,2.150000,1.400000,0.000000,0.00,-0.00,-0.001520,0.006000,0.000000,0.000000,0.000000,0.000000,0.000000,0.000000,0.002632,-0.001709,0.000031,0.000000,0.000000,0.000000,0.000000,819,819,819,819
9149,0,2.150000,1.400000,0.000000,0.00,-0.00,-0.001583,0.006000,0.000000,0.000000,0.000000,0.000000,0.000000,0.000000,0.002632,-0.001709,0.000032,0.000000,0.000000,0.000000,0.000000,819,819,819,819
9159,0,2.150000,1.400000,0.000000,0.00,-0.00,-0.001432,0.005000,0.000000,0.000000,0.000000,0.000000,0.000000,0.000000,0.002632,-0.001708,0.000031,0.000000,0.000000,0.000000,0.000000,819,819,819,819
9169,0,2.150000,1.400000,0.000000,0.00,-0.00,-0.000985,0.005000,0.000000,0.000000,0.000000,0.000000,0.000000,0.000000,0.002631,-0.001710,0.000027,0.000000,0.000000,0.000000,0.000000,819,819,819,819
9179,0,2.150000,1.400000,0.000000,0.00,-0.00,-0.000684,0.005000,0.000000,0.000000,0.000000,0.000000,0.000000,0.000000,0.002633,-0.001713,0.000025,0.000000,0.000000,0.000000,0.000000,819,819,819,819
9189,0,2.150000,1.400000,0.000000,0.00,-0.00,-0.000412,0.005000,0.000000,0.000000,0.000000,0.000000,0.000000,0.000000,0.002633,-0.001715,0.000022,0.000000,0.000000,0.000000,0.000000,819,819,819,819
9199,0,2.150000,1.400000,0.000000,0.00,-0.00,-0.000373,0.005000,0.000000,0.000000,0.000000,0.000000,0.000000,0.000000,0.002633,-0.001715,0.000022,0.000000,0.000000,0.000000,0.000000,819,819,819,819
9209,0,2.150000,1.400000,0.000000,0.00,0.00,-0.000545,0.005000,0.000000,0.000000,0.000000,0.000000,0.000000,0.000000,0.002633,-0.001717,0.000024,0.000000,0.000000,0.000000,0.000000,819,819,819,819
9219,0,2.150000,1.400000,0.000000,0.00,0.00,-0.000700,0.005000,0.000000,0.000000,0.000000,0.000000,0.000000,0.000000,0.002633,-0.001717,0.000026,0.000000,0.000000,0.000000,0.000000,819,819,819,819
9229,0,2.150000,1.400000,0.000000,0.00,0.00,-0.000737,0.005000,0.000000,0.000000,0.000000,0.000000,0.000000,0.000000,0.002632,-0.001717,0.000026,0.000000,0.000000,0.000000,0.000000,819,819,819,819
9239,0,2.150000,1.400000,0.000000,0.00,0.00,-0.000564,0.005000,0.000000,0.000000,0.000000,0.000000,0.000000,0.000000,0.002633,-0.001718,0.000025,0.000000,0.000000,0.000000,0.000000,819,819,819,819
9249,0,2.150000,1.400000,0.000000,0.00,0.00,-0.000303,0.005000,0.000000,0.000000,0.000000,0.000000,0.000000,0.000000,0.002633,-0.001718,0.000022,0.000000,0.000000,0.000000,0.000000,819,819,819,819
9259,0,2.150000,1.400000,0.000000,0.00,0.00,-0.000171,0.005000,0.000000,0.000000,0.000000,0.000000,0.000000,0.000000,0.002634,-0.001717,0.000021,0.000000,0.000000,0.000000,0.000000,819,819,819,819
9269,0,2.150000,1.400000,0.000000,0.00,-0.00,0.000053,0.005000,0.000000,0.000000,0.000000,0.000000,0.000000,0.000000,0.002635,-0.001716,0.000019,0.000000,0.000000,0.000000,0.000000,819,819,819,819
9281,0,2.150000,1.400000,0.000000,0.00,0.00,0.000048,0.005000,0.000000,0.000000,0.000000,0.000000,0.000000,0.000000,0.002635,-0.001718,0.000019,0.000000,0.000000,0.000000,0.000000,819,819,819,819
9291,0,2.150000,1.400000,0.000000,0.00,0.00,0.000043,0.005000,0.000000,0.000000,0.000000,0.000000,0.000000,0.000000,0.002635,-0.001717,0.000019,0.000000,0.000000,0.000000,0.000000,819,819,819,819
9300,0,2.150000,1.400000,0.000000,0.00,0.00,0.000039,0.005000,0.000000,0.000000,0.000000,0.000000,0.000000,0.000000,0.002634,-0.001718,0.000019,0.000000,0.000000,0.000000,0.000000,819,819,819,819
9310,0,2.150000,1.400000,0.000000,0.00,0.00,-0.000068,0.005000,0.000000,0.000000,0.000000,0.000000,0.000000,0.000000,0.002635,-0.001721,0.000020,0.000000,0.000000,0.000000,0.000000,819,819,819,819
9319,0,2.150000,1.400000,0.000000,0.00,0.00,0.000249,0.005000,0.000000,0.000000,0.000000,0.000000,0.000000,0.000000,0.002636,-0.001724,0.000017,0.000000,0.000000,0.000000,0.000000,819,819,819,819
9329,0,2.150000,1.400000,0.000000,0.00,0.00,0.000536,0.005000,0.000000,0.000000,0.000000,0.000000,0.000000,0.000000,0.002636,-0.001727,0.000014,0.000000,0.000000,0.000000,0.000000,819,819,819,819
9340,0,2.150000,1.400000,0.000000,0.00,0.00,0.000693,0.005000,0.000000,0.000000,0.000000,0.000000,0.000000,0.000000,0.002636,-0.001726,0.000012,0.000000,0.000000,0.000000,0.000000,819,819,819,819
9350,0,2.150000,1.400000,0.000000,0.00,0.00,0.000627,0.005000,0.000000,0.000000,0.000000,0.000000,0.000000,0.000000,0.002636,-0.001727,0.000012,0.000000,0.000000,0.000000,0.000000,819,819,819,819
9359,0,2.150000,1.400000,0.000000,0.00,0.00,0.000464,0.005000,0.000000,0.000000,0.000000,0.000000,0.000000,0.000000,0.002636,-0.001723,0.000014,0.000000,0.000000,0.000000,0.000000,819,819,819,819
9369,0,2.150000,1.400000,0.000000,0.00,0.00,0.000212,0.005000,0.000000,0.000000,0.000000,0.000000,0.000000,0.000000,0.002636,-0.001720,0.000016,0.000000,0.000000,0.000000,0.000000,819,819,819,819
9379,0,2.150000,1.400000,0.000000,0.00,-0.00,0.000296,0.005000,0.000000,0.000000,0.000000,0.000000,0.000000,0.000000,0.002637,-0.001718,0.000015,0.000000,0.000000,0.000000,0.000000,819,819,819,819
9390,0,2.150000,1.400000,0.000000,0.00,-0.00,0.000579,0.005000,0.000000,0.000000,0.000000,0.000000,0.000000,0.000000,0.002637,-0.001718,0.000012,0.000000,0.000000,0.000000,0.000000,819,819,819,819
9406,0,2.150000,1.400000,0.000000,0.00,0.00,0.000627,0.005000,0.000000,0.000000,0.000000,0.000000,0.000000,0.000000,0.002638,-0.001720,0.000011,0.000000,0.000000,0.000000,0.000000,819,819,819,819
9422,0,2.150000,1.400000,0.000000,0.00,0.00,0.000775,0.005000,0.000000,0.000000,0.000000,0.000000,0.000000,0.000000,0.002638,-0.001721,0.000009,0.000000,0.000000,0.000000,0.000000,819,819,819,819
9431,0,2.150000,1.400000,0.000000,0.00,0.00,0.000701,0.005000,0.000000,0.000000,0.000000,0.000000,0.000000,0.000000,0.002638,-0.001723,0.000010,0.000000,0.000000,0.000000,0.000000,819,819,819,819
9441,0,2.150000,1.400000,0.000000,0.00,0.00,0.000427,0.005000,0.000000,0.000000,0.000000,0.000000,0.000000,0.000000,0.002638,-0.001725,0.000012,0.000000,0.000000,0.000000,0.000000,819,819,819,819
9451,0,2.150000,1.400000,0.000000,0.00,0.00,0.000180,0.005000,0.000000,0.000000,0.000000,0.000000,0.000000,0.000000,0.002638,-0.001726,0.000015,0.000000,0.000000,0.000000,0.000000,819,819,819,819
9460,0,2.150000,1.400000,0.000000,0.00,0.00,0.000163,0.005000,0.000000,0.000000,0.000000,0.000000,0.000000,0.000000,0.002637,-0.001728,0.000015,0.000000,0.000000,0.000000,0.000000,819,819,819,819
9470,0,2.150000,1.400000,0.000000,0.00,0.00,0.000043,0.005000,0.000000,0.000000,0.000000,0.000000,0.000000,0.000000,0.002638,-0.001727,0.000016,0.000000,0.000000,0.000000,0.000000,819,819,819,819
9480,0,2.150000,1.400000,0.000000,0.00,0.00,0.000143,0.005000,0.000000,0.000000,0.000000,0.000000,0.000000,0.000000,0.002638,-0.001730,0.000015,0.000000,0.000000,0.000000,0.000000,819,819,819,819
9490,0,2.150000,1.400000,0.000000,0.00,0.00,0.000337,0.006000,0.000000,0.000000,0.000000,0.000000,0.000000,0.000000,0.002638,-0.001733,0.000013,0.000000,0.000000,0.000000,0.000000,819,819,819,819
9500,0,2.150000,1.400000,0.000000,0.00,0.00,0.000616,0.006000,0.000000,0.000000,0.000000,0.000000,0.000000,0.000000,0.002638,-0.001731,0.000010,0.000000,0.000000,0.000000,0.000000,819,819,819,819
9510,0,2.150000,1.400000,0.000000,0.00,0.00,0.000661,0.005000,0.000000,0.000000,0.000000,0.000000,0.000000,0.000000,0.002639,-0.001730,0.000009,0.000000,0.000000,0.000000,0.000000,819,819,819,819
9520,0,2.150000,1.400000,0.000000,0.00,0.00,0.000494,0.005000,0.000000,0.000000,0.000000,0.000000,0.000000,0.000000,0.002639,-0.001729,0.000010,0.000000,0.000000,0.000000,0.000000,819,819,819,819
9530,0,2.150000,1.400000,0.000000,0.00,0.00,0.000240,0.005000,0.000000,0.000000,0.000000,0.000000,0.000000,0.000000,0.002639,-0.001731,0.000013,0.000000,0.000000,0.000000,0.000000,819,819,819,819
9540,0,2.150000,1.400000,0.000000,0.00,0.00,-0.000094,0.005000,0.000000,0.000000,0.000000,0.000000,0.000000,0.000000,0.002640,-0.001730,0.000016,0.000000,0.000000,0.000000,0.000000,819,819,819,819
9550,0,2.150000,1.400000,0.000000,0.00,0.00,-0.000188,0.005000,0.000000,0.000000,0.000000,0.000000,0.000000,0.000000,0.002641,-0.001729,0.000017,0.000000,0.000000,0.000000,0.000000,819,819,819,819
9560,0,2.150000,1.400000,0.000000,0.00,0.00,-0.000067,0.006000,0.000000,0.000000,0.000000,0.000000,0.000000,0.000000,0.002642,-0.001734,0.000016,0.000000,0.000000,0.000000,0.000000,819,819,819,819
9570,0,2.150000,1.400000,0.000000,0.00,0.00,0.000147,0.006000,0.000000,0.000000,0.000000,0.000000,0.000000,0.000000,0.002643,-0.001735,0.000014,0.000000,0.000000,0.000000,0.000000,819,819,819,819
9580,0,2.150000,1.400000,0.000000,0.00,0.00,0.000444,0.006000,0.000000,0.000000,0.000000,0.000000,0.000000,0.000000,0.002643,-0.001736,0.000011,0.000000,0.000000,0.000000,0.000000,819,819,819,819
9590,0,2.150000,1.400000,0.000000,0.00,0.00,0.000505,0.006000,0.000000,0.000000,0.000000,0.000000,0.000000,0.000000,0.002643,-0.001733,0.000010,0.000000,0.000000,0.000000,0.000000,819,819,819,819
9600,0,2.150000,1.400000,0.000000,0.00,0.00,0.000561,0.006000,0.000000,0.000000,0.000000,0.000000,0.000000,0.000000,0.002642,-0.001735,0.000009,0.000000,0.000000,0.000000,0.000000,819,819,819,819
9610,0,2.150000,1.400000,0.000000,0.00,0.00,0.000611,0.006000,0.000000,0.000000,0.000000,0.000000,0.000000,0.000000,0.002643,-0.001735,0.000008,0.000000,0.000000,0.000000,0.000000,819,819,819,819
9620,0,2.150000,1.400000,0.000000,0.00,0.00,0.000657,0.006000,0.000000,0.000000,0.000000,0.000000,0.000000,0.000000,0.002642,-0.001735,0.000007,0.000000,0.000000,0.000000,0.000000,819,819,819,819
9630,0,2.150000,1.400000,0.000000,0.00,0.00,0.000594,0.006000,0.000000,0.000000,0.000000,0.000000,0.000000,0.000000,0.002642,-0.001737,0.000008,0.000000,0.000000,0.000000,0.000000,819,819,819,819
9640,0,2.150000,1.400000,0.000000,0.00,0.00,0.000331,0.006000,0.000000,0.000000,0.000000,0.000000,0.000000,0.000000,0.002642,-0.001734,0.000010,0.000000,0.000000,0.000000,0.000000,819,819,819,819
9650,0,2.150000,1.400000,0.000000,0.00,0.00,0.000299,0.006000,0.000000,0.000000,0.000000,0.000000,0.000000,0.000000,0.002642,-0.001739,0.000010,0.000000,0.000000,0.000000,0.000000,819,819,819,819
9660,0,2.150000,1.400000,0.000000,0.00,0.00,0.000271,0.006000,0.000000,0.000000,0.000000,0.000000,0.000000,0.000000,0.002642,-0.001738,0.000010,0.000000,0.000000,0.000000,0.000000,819,819,819,819
9670,0,2.150000,1.400000,0.000000,0.00,0.00,0.000452,0.006000,0.000000,0.000000,0.000000,0.000000,0.000000,0.000000,0.002641,-0.001740,0.000008,0.000000,0.000000,0.000000,0.000000,819,819,819,819
9680,0,2.150000,1.400000,0.000000,0.00,0.00,0.000824,0.006000,0.000000,0.000000,0.000000,0.000000,0.000000,0.000000,0.002642,-0.001743,0.000004,0.000000,0.000000,0.000000,0.000000,819,819,819,819
9690,0,2.150000,1.400000,0.000000,0.00,0.00,0.000953,0.006000,0.000000,0.000000,0.000000,0.000000,0.000000,0.000000,0.002642,-0.001739,0.000003,0.000000,0.000000,0.000000,0.000000,819,819,819,819
9703,0,2.150000,1.400000,0.000000,0.00,0.00,0.000759,0.006000,0.000000,0.000000,0.000000,0.000000,0.000000,0.000000,0.002642,-0.001737,0.000004,0.000000,0.000000,0.000000,0.000000,819,819,819,819
9717,0,2.150000,1.400000,0.000000,0.00,0.00,0.000583,0.007000,0.000000,0.000000,0.000000,0.000000,0.000000,0.000000,0.002642,-0.001737,0.000006,0.000000,0.000000,0.000000,0.000000,819,819,819,819
9730,0,2.150000,1.400000,0.000000,0.00,0.00,0.000631,0.008000,0.000000,0.000000,0.000000,0.000000,0.000000,0.000000,0.002643,-0.001737,0.000005,0.000000,0.000000,0.000000,0.000000,819,819,819,819
9741,0,2.150000,1.400000,0.000000,0.00,0.00,0.000571,0.008000,0.000000,0.000000,0.000000,0.000000,0.000000,0.000000,0.002642,-0.001735,0.000005,0.000000,0.000000,0.000000,0.000000,819,819,819,819
9751,0,2.150000,1.400000,0.000000,0.00,0.00,0.000621,0.008000,0.000000,0.000000,0.000000,0.000000,0.000000,0.000000,0.002642,-0.001736,0.000004,0.000000,0.000000,0.000000,0.000000,819,819,819,819
9760,0,2.150000,1.400000,0.000000,0.00,0.00,0.000665,0.009000,0.000000,0.000000,0.000000,0.000000,0.000000,0.000000,0.002644,-0.001737,0.000004,0.000000,0.000000,0.000000,0.000000,819,819,819,819
9771,0,2.150000,1.400000,0.000000,0.00,0.00,0.000706,0.009000,0.000000,0.000000,0.000000,0.000000,0.000000,0.000000,0.002644,-0.001737,0.000003,0.000000,0.000000,0.000000,0.000000,819,819,819,819
9781,0,2.150000,1.400000,0.000000,0.00,0.00,0.000742,0.010000,0.000000,0.000000,0.000000,0.000000,0.000000,0.000000,0.002644,-0.001734,0.000002,0.000000,0.000000,0.000000,0.000000,819,819,819,819
9791,0,2.150000,1.400000,0.000000,0.00,0.00,0.000568,0.010000,0.000000,0.000000,0.000000,0.000000,0.000000,0.000000,0.002645,-0.001735,0.000004,0.000000,0.000000,0.000000,0.000000,819,819,819,819
9801,0,2.150000,1.400000,0.000000,0.00,0.00,0.000411,0.010000,0.000000,0.000000,0.000000,0.000000,0.000000,0.000000,0.002644,-0.001732,0.000005,0.000000,0.000000,0.000000,0.000000,819,819,819,819
9811,0,2.150000,1.400000,0.000000,0.00,-0.00,0.000372,0.010000,0.000000,0.000000,0.000000,0.000000,0.000000,0.000000,0.002645,-0.001730,0.000005,0.000000,0.000000,0.000000,0.000000,819,819,819,819
9821,0,2.150000,1.400000,0.000000,0.00,-0.00,0.000233,0.010000,0.000000,0.000000,0.000000,0.000000,0.000000,0.000000,0.002645,-0.001727,0.000006,0.000000,0.000000,0.000000,0.000000,819,819,819,819
9831,0,2.150000,1.400000,0.000000,0.00,-0.00,0.000107,0.010000,0.000000,0.000000,0.000000,0.000000,0.000000,0.000000,0.002645,-0.001727,0.000008,0.000000,0.000000,0.000000,0.000000,819,819,819,819
9841,0,2.150000,1.400000,0.000000,0.00,-0.00,0.000200,0.010000,0.000000,0.000000,0.000000,0.000000,0.000000,0.000000,0.002647,-0.001729,0.000007,0.000000,0.000000,0.000000,0.000000,819,819,819,819
9851,0,2.150000,1.400000,0.000000,0.00,-0.00,0.000181,0.023000,0.000000,0.000000,0.000000,0.000000,0.000000,0.000000,0.002646,-0.001729,0.000007,0.018631,0.022076,0.023911,0.027382,1000,1000,1000,1000
9861,0,2.150000,1.400000,0.000000,0.00,-0.00,0.000371,0.031000,0.000000,0.000000,0.000000,0.000000,0.000000,0.000000,0.002646,-0.001729,0.000005,0.026630,0.030078,0.031912,0.035379,1000,1000,1000,1000
9871,0,2.150000,1.400000,0.000000,0.00,-0.00,0.000336,0.031000,0.000000,0.000000,0.000000,0.000000,0.000000,0.000000,0.002647,-0.001729,0.000005,0.026629,0.030077,0.031913,0.035381,1000,1000,1000,1000
9881,0,2.150000,1.400000,0.000000,0.00,-0.00,0.000304,0.049000,0.000000,0.000000,0.000000,0.000000,0.000000,0.000000,0.002647,-0.001728,0.000005,0.044629,0.048076,0.049914,0.053380,1000,1000,1000,1000
9891,0,2.150000,1.400000,0.000000,0.00,-0.00,0.000275,0.049000,0.000000,0.000000,0.000000,0.000000,0.000000,0.000000,0.002649,-0.001724,0.000005,0.044632,0.048070,0.049920,0.053378,1000,1000,1000,1000
9901,0,2.150000,1.400000,0.000000,0.00,-0.00,-0.000062,0.049000,0.000000,0.000000,0.000000,0.000000,0.000000,0.000000,0.002649,-0.001724,0.000009,0.044635,0.048066,0.049917,0.053382,1000,1000,1000,1000
9911,0,2.150000,1.400000,0.000000,0.00,-0.00,0.000255,0.066000,0.000000,0.000000,0.000000,0.000000,0.000000,0.000000,0.002650,-0.001727,0.000005,0.061629,0.065072,0.066918,0.070382,1000,1000,1000,1000
9921,0,2.150000,1.387500,0.000000,0.00,-0.00,0.000542,0.069000,0.000000,0.000000,0.000000,0.000000,0.000000,0.000000,0.002648,-0.001653,0.000002,0.064701,0.068002,0.069994,0.073303,1000,1000,1000,1000
9931,0,2.137500,1.377500,0.012500,-0.00,-0.01,0.007019,0.069000,0.000000,0.000000,0.000000,0.000000,0.000000,0.000000,0.002607,-0.001608,-0.000066,0.064719,0.068068,0.070065,0.073149,1000,1000,1000,1000
9941,0,2.127500,1.369500,0.022500,-0.02,-0.01,0.010186,0.074000,0.000000,0.000000,0.000000,0.000000,0.000000,0.000000,0.002568,-0.001564,-0.000103,0.069766,0.073099,0.075107,0.078028,1000,1000,1000,1000
9951,0,2.119500,1.363100,0.030500,-0.02,-0.02,0.008597,0.074000,0.000000,0.000000,0.000000,0.000000,0.000000,0.000000,0.002544,-0.001524,-0.000091,0.069841,0.073072,0.075111,0.077977,1000,1000,1000,1000
9961,0,2.113100,1.357980,0.036900,-0.02,-0.02,0.007884,0.074000,0.000000,0.000000,0.000000,0.000000,0.000000,0.000000,0.002526,-0.001491,-0.000088,0.069895,0.073054,0.075123,0.077928,1000,1000,1000,1000
9971,0,2.107980,1.353884,0.042020,-0.02,-0.02,0.006409,0.074000,0.000000,0.000000,0.000000,0.000000,0.000000,0.000000,0.002506,-0.001478,-0.000077,0.069939,0.073050,0.075104,0.077907,1000,1000,1000,1000
9981,0,2.103884,1.350607,0.046116,-0.03,-0.02,0.005282,0.077000,0.000000,0.000000,0.000000,0.000000,0.000000,0.000000,0.002489,-0.001487,-0.000068,0.072957,0.076066,0.078070,0.080907,1000,1000,1000,1000
9991,0,2.088107,1.347986,0.049393,-0.03,-0.02,0.006853,0.077000,0.000000,0.000000,0.000000,0.000000,0.000000,0.000000,0.002449,-0.001496,-0.000087,0.072968,0.076135,0.078040,0.080858,1000,1000,1000,1000
10001,0,2.075486,1.345889,0.052014,-0.04,-0.01,0.006306,0.077000,0.000000,0.000000,0.000000,0.000000,0.000000,0.000000,0.002415,-0.001509,-0.000085,0.072992,0.076179,0.077991,0.080839,1000,1000,1000,1000
10011,0,2.065389,1.344211,0.066611,-0.04,-0.01,0.005292,0.078000,0.000000,0.000000,0.000000,0.000000,0.000000,0.000000,0.002384,-0.001523,-0.000077,0.074016,0.077216,0.078939,0.081829,1000,1000,1000,1000
10021,0,2.057311,1.342869,0.078289,-0.04,-0.01,0.004997,0.078000,0.000000,0.000000,0.000000,0.000000,0.000000,0.000000,0.002359,-0.001527,-0.000077,0.074037,0.077244,0.078909,0.081810,1000,1000,1000,1000
10038,0,2.050849,1.341795,0.087631,-0.04,-0.01,0.003486,0.078000,0.000000,0.000000,0.000000,0.000000,0.000000,0.000000,0.002347,-0.001533,-0.000063,0.074056,0.077250,0.078877,0.081817,1000,1000,1000,1000
10052,0,2.058179,1.340936,0.095105,-0.03,-0.01,-0.000162,0.078000,0.000000,0.000000,0.000000,0.000000,0.000000,0.000000,0.002360,-0.001536,-0.000027,0.074077,0.077203,0.078851,0.081869,1000,1000,1000,1000
10062,0,2.064044,1.340249,0.088584,-0.02,-0.01,-0.000975,0.078000,0.000000,0.000000,0.000000,0.000000,0.000000,0.000000,0.002382,-0.001526,-0.000018,0.074073,0.077162,0.078875,0.081890,1000,1000,1000,1000
10072,0,2.068735,1.339699,0.083367,-0.02,-0.01,0.000775,0.079000,0.000000,0.000000,0.000000,0.000000,0.000000,0.000000,0.002403,-0.001499,-0.000036,0.075061,0.078132,0.079940,0.082867,1000,1000,1000,1000
10082,0,2.084988,1.351759,0.079194,-0.00,-0.01,-0.007070,0.079000,0.000000,0.000000,0.000000,0.000000,0.000000,0.000000,0.002456,-0.001522,0.000046,0.075069,0.078020,0.079888,0.083023,1000,1000,1000,1000
10092,0,2.097990,1.361408,0.063355,0.01,-0.00,-0.013549,0.079000,0.000000,0.000000,0.000000,0.000000,0.000000,0.000000,0.002514,-0.001566,0.000118,0.075038,0.077934,0.079830,0.083197,1000,1000,1000,1000
10104,0,2.108392,1.356626,72.038185,0.02,0.00,-0.008013,0.079000,0.000000,0.000000,0.000000,0.000000,0.000000,0.000000,0.002575,-0.001636,0.000066,0.074855,0.077995,0.079873,0.083277,1000,1000,1000,1000
10113,0,2.104214,1.340301,129.605545,0.03,0.00,-0.000723,0.079000,0.000000,0.000000,0.000000,0.000000,0.000000,0.000000,0.002621,-0.001664,-0.000006,0.074708,0.078049,0.079964,0.083279,1000,1000,1000,1000
10123,0,2.100871,1.327241,175.646942,0.03,0.00,0.001936,0.079000,0.000000,0.000000,0.000000,0.000000,0.000000,0.000000,0.002651,-0.001646,-0.000034,0.074669,0.078029,0.080039,0.083263,1000,1000,1000,1000
10133,0,2.098197,1.316793,-147.519943,0.03,-0.00,0.003928,0.079000,0.000000,0.000000,0.000000,0.000000,0.000000,0.000000,0.002650,-0.001563,-0.000056,0.074731,0.077968,0.080144,0.083157,1000,1000,1000,1000
10143,0,2.083558,1.308434,-118.040939,0.02,-0.01,0.011949,0.079000,0.000000,0.000000,0.000000,0.000000,0.000000,0.000000,0.002606,-0.001466,-0.000142,0.074786,0.078003,0.080282,0.082929,1000,1000,1000,1000
10152,0,2.059346,1.314247,-94.457764,-0.00,-0.02,0.017861,0.079000,0.000000,0.000000,0.000000,0.000000,0.000000,0.000000,0.002536,-0.001432,-0.000211,0.074822,0.078106,0.080315,0.082757,1000,1000,1000,1000
10162,0,2.039977,1.318898,-75.591217,-0.01,-0.02,0.017718,0.079000,0.000000,0.000000,0.000000,0.000000,0.000000,0.000000,0.002485,-0.001433,-0.000218,0.074864,0.078166,0.080271,0.082700,1000,1000,1000,1000
10172,0,2.024482,1.322618,-60.497986,-0.02,-0.01,0.018004,0.081000,0.000000,0.000000,0.000000,0.000000,0.000000,0.000000,0.002453,-0.001470,-0.000230,0.076847,0.080246,0.082214,0.084693,1000,1000,1000,1000
10182,0,2.012085,1.325595,-48.423401,-0.02,-0.00,0.019610,0.081000,0.000000,0.000000,0.000000,0.000000,0.000000,0.000000,0.002432,-0.001543,-0.000256,0.076769,0.080367,0.082145,0.084719,1000,1000,1000,1000
10192,0,1.989668,1.315476,-38.763733,-0.03,-0.00,0.025208,0.081000,0.000000,0.000000,0.000000,0.000000,0.000000,0.000000,0.002389,-0.001554,-0.000325,0.076731,0.080490,0.082160,0.084618,1000,1000,1000,1000
10202,0,1.971735,1.307381,-31.035980,-0.03,-0.00,0.024264,0.081000,0.000000,0.000000,0.000000,0.000000,0.000000,0.000000,0.002349,-0.001528,-0.000328,0.076795,0.080506,0.082150,0.084549,1000,1000,1000,1000
10212,0,1.957388,1.300905,-24.853760,-0.04,-0.00,0.022374,0.087000,0.000000,0.000000,0.000000,0.000000,0.000000,0.000000,0.002307,-0.001482,-0.000321,0.082891,0.086496,0.088145,0.090468,1000,1000,1000,1000
10222,0,1.945910,1.308224,-19.907990,-0.04,-0.00,0.016310,0.087000,0.000000,0.000000,0.000000,0.000000,0.000000,0.000000,0.002272,-0.001490,-0.000268,0.082970,0.086486,0.088050,0.090493,1000,1000,1000,1000
10232,0,1.949228,1.314079,-15.951385,-0.04,-0.00,0.010305,0.087000,0.000000,0.000000,0.000000,0.000000,0.000000,0.000000,0.002271,-0.001502,-0.000213,0.083014,0.086445,0.087982,0.090560,1000,1000,1000,1000
