t,is_crashed,roll,pitch,yaw,p,q,r,throttle,roll_cmd,pitch_cmd,yaw_cmd,roll_pid_out,pitch_pid_out,yaw_pid_out,motor_fl,motor_bl,motor_fr,motor_br,pwm_fl,pwm_bl,pwm_fr,pwm_br
6930,0,0.067632,0.027271,-0.001091,0.00,0.00,0.000046,0.004000,0.000000,0.000000,0.000000,-0.011719,-0.019647,-0.000478,0.000000,0.000000,0.000000,0.000000,0,0,0,0
6952,0,0.000000,0.000000,-0.001091,0.00,0.00,0.000040,0.004000,0.000000,0.000000,0.000000,-0.000513,-0.002514,-0.000416,0.000000,0.000000,0.000000,0.000000,819,819,819,819
6972,0,0.000000,0.000000,-0.001091,0.00,0.00,-0.000007,0.004000,0.000000,0.000000,0.000000,-0.000338,-0.002395,0.000074,0.000000,0.000000,0.000000,0.000000,819,819,819,819
6992,0,0.000000,0.000000,-0.001091,0.00,0.00,0.000014,0.004000,0.000000,0.000000,0.000000,-0.000338,-0.002395,-0.000147,0.000000,0.000000,0.000000,0.000000,819,819,819,819
7012,0,0.000000,0.000000,-0.001091,0.00,0.00,-0.000028,0.004000,0.000000,0.000000,0.000000,-0.000338,-0.002395,0.000287,0.000000,0.000000,0.000000,0.000000,819,819,819,819
7033,0,0.000000,0.000000,-0.001091,0.00,0.00,0.000025,0.004000,0.000000,0.000000,0.000000,-0.000338,-0.002395,-0.000263,0.000000,0.000000,0.000000,0.000000,819,819,819,819
7053,0,0.000000,0.000000,-0.001091,0.00,0.00,0.000020,0.004000,0.000000,0.000000,0.000000,-0.000338,-0.002395,-0.000215,0.000000,0.000000,0.000000,0.000000,819,819,819,819
7073,0,0.000000,0.000000,-0.001091,0.00,0.00,-0.000011,0.004000,0.000000,0.000000,0.000000,-0.000338,-0.002395,0.000113,0.000000,0.000000,0.000000,0.000000,819,819,819,819
7093,0,0.000000,0.000000,-0.001091,0.00,0.00,-0.000017,0.004000,0.000000,0.000000,0.000000,-0.000338,-0.002395,0.000179,0.000000,0.000000,0.000000,0.000000,819,819,819,819
7113,0,0.000000,0.000000,-0.001091,0.00,0.00,-0.000003,0.004000,0.000000,0.000000,0.000000,-0.000338,-0.002395,0.000034,0.000000,0.000000,0.000000,0.000000,819,819,819,819
7133,0,0.000000,0.000000,-0.001091,0.00,0.00,-0.000000,0.004000,0.000000,0.000000,0.000000,-0.000338,-0.002395,0.000005,0.000000,0.000000,0.000000,0.000000,819,819,819,819
7153,0,0.000000,0.000000,-0.001091,0.00,0.00,0.000030,0.004000,0.000000,0.000000,0.000000,-0.000338,-0.002395,-0.000320,0.000000,0.000000,0.000000,0.000000,819,819,819,819
7173,0,0.000000,0.000000,-0.001091,0.00,0.00,0.000021,0.004000,0.000000,0.000000,0.000000,-0.000338,-0.002395,-0.000226,0.000000,0.000000,0.000000,0.000000,819,819,819,819
7193,0,0.000000,0.000000,-0.001091,0.00,0.00,-0.000011,0.004000,0.000000,0.000000,0.000000,-0.000338,-0.002395,0.000110,0.000000,0.000000,0.000000,0.000000,819,819,819,819
7213,0,0.000000,0.000000,-0.001091,0.00,0.00,-0.000002,0.004000,0.000000,0.000000,0.000000,-0.000338,-0.002395,0.000019,0.000000,0.000000,0.000000,0.000000,819,819,819,819
7237,0,0.000000,0.000000,-0.001091,0.00,0.00,0.000015,0.004000,0.000000,0.000000,0.000000,-0.000338,-0.002395,-0.000159,0.000000,0.000000,0.000000,0.000000,819,819,819,819
7259,0,0.000000,0.000000,-0.001091,0.00,0.00,-0.000043,0.004000,0.000000,0.000000,0.000000,-0.000338,-0.002395,0.000442,0.000000,0.000000,0.000000,0.000000,819,819,819,819
7281,0,0.000000,0.000000,-0.001091,0.00,0.00,-0.000009,0.004000,0.000000,0.000000,0.000000,-0.000338,-0.002395,0.000086,0.000000,0.000000,0.000000,0.000000,819,819,819,819
7302,0,0.000000,0.000000,-0.001091,0.00,0.00,0.000135,0.004000,0.000000,0.000000,0.000000,-0.000338,-0.002395,-0.001417,0.000000,0.000000,0.000000,0.000000,819,819,819,819
7323,0,0.000000,0.000000,-0.001091,0.00,0.00,0.000012,0.004000,0.000000,0.000000,0.000000,-0.000338,-0.002395,-0.000131,0.000000,0.000000,0.000000,0.000000,819,819,819,819
7343,0,0.000000,0.000000,-0.001091,0.00,0.00,-0.000013,0.004000,0.000000,0.000000,0.000000,-0.000338,-0.002395,0.000126,0.000000,0.000000,0.000000,0.000000,819,819,819,819
7363,0,0.000000,0.000000,-0.001091,0.00,0.00,0.000013,0.004000,0.000000,0.000000,0.000000,-0.000338,-0.002395,-0.000140,0.000000,0.000000,0.000000,0.000000,819,819,819,819
7384,0,0.000000,0.000000,-0.001091,0.00,0.00,0.000018,0.004000,0.000000,0.000000,0.000000,-0.000338,-0.002395,-0.000194,0.000000,0.000000,0.000000,0.000000,819,819,819,819
7404,0,0.000000,0.000000,-0.001091,0.00,0.00,-0.000088,0.004000,0.000000,0.000000,0.000000,-0.000338,-0.002395,0.000908,0.000000,0.000000,0.000000,0.000000,819,819,819,819
7424,0,0.000000,0.000000,-0.001091,0.00,0.00,0.000089,0.004000,0.000000,0.000000,0.000000,-0.000338,-0.002395,-0.000935,0.000000,0.000000,0.000000,0.000000,819,819,819,819
7444,0,0.000000,0.000000,-0.001091,0.00,0.00,0.000064,0.004000,0.000000,0.000000,0.000000,-0.000338,-0.002395,-0.000672,0.000000,0.000000,0.000000,0.000000,819,819,819,819
7464,0,0.000000,0.000000,-0.001091,0.00,0.00,-0.000033,0.004000,0.000000,0.000000,0.000000,-0.000338,-0.002395,0.000333,0.000000,0.000000,0.000000,0.000000,819,819,819,819
7484,0,0.000000,0.000000,-0.001091,0.00,0.00,-0.000083,0.004000,0.000000,0.000000,0.000000,-0.000338,-0.002395,0.000854,0.000000,0.000000,0.000000,0.000000,819,819,819,819
7504,0,0.000000,0.000000,-0.001091,0.00,0.00,-0.000047,0.004000,0.000000,0.000000,0.000000,-0.000338,-0.002395,0.000484,0.000000,0.000000,0.000000,0.000000,819,819,819,819
7524,0,0.000000,0.000000,-0.001091,0.00,0.00,-0.000055,0.004000,0.000000,0.000000,0.000000,-0.000338,-0.002395,0.000570,0.000000,0.000000,0.000000,0.000000,819,819,819,819
7544,0,0.000000,0.000000,-0.001091,0.00,0.00,-0.000011,0.004000,0.000000,0.000000,0.000000,-0.000338,-0.002395,0.000112,0.000000,0.000000,0.000000,0.000000,819,819,819,819
7564,0,0.000000,0.000000,-0.001091,0.00,0.00,0.000028,0.004000,0.000000,0.000000,0.000000,-0.000338,-0.002395,-0.000297,0.000000,0.000000,0.000000,0.000000,819,819,819,819
7584,0,0.000000,0.000000,-0.001091,0.00,0.00,-0.000010,0.004000,0.000000,0.000000,0.000000,-0.000338,-0.002395,0.000096,0.000000,0.000000,0.000000,0.000000,819,819,819,819
7604,0,0.000000,0.000000,-0.001091,0.00,0.00,0.000029,0.004000,0.000000,0.000000,0.000000,-0.000338,-0.002395,-0.000301,0.000000,0.000000,0.000000,0.000000,819,819,819,819
7624,0,0.000000,0.000000,-0.001091,0.00,0.00,-0.000040,0.004000,0.000000,0.000000,0.000000,-0.000338,-0.002395,0.000413,0.000000,0.000000,0.000000,0.000000,819,819,819,819
7644,0,0.000000,0.000000,-0.001091,0.00,0.00,-0.000023,0.004000,0.000000,0.000000,0.000000,-0.000338,-0.002395,0.000239,0.000000,0.000000,0.000000,0.000000,819,819,819,819
7664,0,0.000000,0.000000,-0.001091,0.00,0.00,0.000011,0.004000,0.000000,0.000000,0.000000,-0.000338,-0.002395,-0.000112,0.000000,0.000000,0.000000,0.000000,819,819,819,819
7685,0,0.000000,0.000000,-0.001091,0.00,0.00,0.000017,0.004000,0.000000,0.000000,0.000000,-0.000338,-0.002395,-0.000183,0.000000,0.000000,0.000000,0.000000,819,819,819,819
7705,0,0.000000,0.000000,-0.001091,0.00,0.00,0.000003,0.004000,0.000000,0.000000,0.000000,-0.000338,-0.002395,-0.000039,0.000000,0.000000,0.000000,0.000000,819,819,819,819
7725,0,0.000000,0.000000,-0.001091,0.00,0.00,-0.000015,0.004000,0.000000,0.000000,0.000000,-0.000338,-0.002395,0.000148,0.000000,0.000000,0.000000,0.000000,819,819,819,819
7745,0,0.000000,0.000000,-0.001091,0.00,0.00,0.000028,0.004000,0.000000,0.000000,0.000000,-0.000338,-0.002395,-0.000290,0.000000,0.000000,0.000000,0.000000,819,819,819,819
7765,0,0.000000,0.000000,-0.001091,0.00,0.00,0.000021,0.004000,0.000000,0.000000,0.000000,-0.000338,-0.002395,-0.000220,0.000000,0.000000,0.000000,0.000000,819,819,819,819
7785,0,0.000000,0.000000,-0.001091,0.00,0.00,-0.000026,0.004000,0.000000,0.000000,0.000000,-0.000338,-0.002395,0.000270,0.000000,0.000000,0.000000,0.000000,819,819,819,819
7805,0,0.000000,0.000000,-0.001091,0.00,0.00,-0.000005,0.004000,0.000000,0.000000,0.000000,-0.000338,-0.002395,0.000051,0.000000,0.000000,0.000000,0.000000,819,819,819,819
7825,0,0.000000,0.000000,-0.001091,0.00,0.00,0.000014,0.004000,0.000000,0.000000,0.000000,-0.000338,-0.002395,-0.000151,0.000000,0.000000,0.000000,0.000000,819,819,819,819
7845,0,0.000000,0.000000,-0.001091,0.00,0.00,0.000064,0.004000,0.000000,0.000000,0.000000,-0.000338,-0.002395,-0.000668,0.000000,0.000000,0.000000,0.000000,819,819,819,819
7868,0,0.000000,0.000000,-0.001091,0.00,0.00,-0.000002,0.004000,0.000000,0.000000,0.000000,-0.000338,-0.002395,0.000020,0.000000,0.000000,0.000000,0.000000,819,819,819,819
7890,0,0.000000,0.000000,-0.001091,0.00,0.00,0.000015,0.004000,0.000000,0.000000,0.000000,-0.000338,-0.002395,-0.000160,0.000000,0.000000,0.000000,0.000000,819,819,819,819
7909,0,0.000000,0.000000,-0.001091,0.00,0.00,0.000033,0.004000,0.000000,0.000000,0.000000,-0.000338,-0.002395,-0.000355,0.000000,0.000000,0.000000,0.000000,819,819,819,819
7929,0,0.000000,0.000000,-0.001091,0.00,0.00,0.000007,0.004000,0.000000,0.000000,0.000000,-0.000338,-0.002395,-0.000078,0.000000,0.000000,0.000000,0.000000,819,819,819,819
7948,0,0.000000,0.000000,-0.001091,0.00,0.00,0.000001,0.004000,0.000000,0.000000,0.000000,-0.000338,-0.002395,-0.000022,0.000000,0.000000,0.000000,0.000000,819,819,819,819
7967,0,0.000000,0.000000,-0.001091,0.00,0.00,-0.000015,0.004000,0.000000,0.000000,0.000000,-0.000338,-0.002395,0.000147,0.000000,0.000000,0.000000,0.000000,819,819,819,819
7986,0,0.000000,0.000000,-0.001091,0.00,0.00,-0.000003,0.004000,0.000000,0.000000,0.000000,-0.000338,-0.002395,0.000023,0.000000,0.000000,0.000000,0.000000,819,819,819,819
8006,0,0.000000,0.000000,-0.001091,0.00,0.00,-0.000000,0.004000,0.000000,0.000000,0.000000,-0.000338,-0.002395,-0.000001,0.000000,0.000000,0.000000,0.000000,819,819,819,819
8026,0,0.000000,0.000000,-0.001091,0.00,0.00,-0.000015,0.004000,0.000000,0.000000,0.000000,-0.000338,-0.002395,0.000152,0.000000,0.000000,0.000000,0.000000,819,819,819,819
8045,0,0.000000,0.000000,-0.001091,0.00,0.00,-0.000018,0.004000,0.000000,0.000000,0.000000,-0.000338,-0.002395,0.000184,0.000000,0.000000,0.000000,0.000000,819,819,819,819
8066,0,0.000000,0.000000,-0.001091,0.00,0.00,-0.000034,0.004000,0.000000,0.000000,0.000000,-0.000338,-0.002395,0.000349,0.000000,0.000000,0.000000,0.000000,819,819,819,819
8086,0,0.000000,0.000000,-0.001091,0.00,0.00,-0.000022,0.004000,0.000000,0.000000,0.000000,-0.000338,-0.002395,0.000225,0.000000,0.000000,0.000000,0.000000,819,819,819,819
8106,0,0.000000,0.000000,-0.001091,0.00,0.00,0.000026,0.004000,0.000000,0.000000,0.000000,-0.000338,-0.002395,-0.000275,0.000000,0.000000,0.000000,0.000000,819,819,819,819
8126,0,0.000000,0.000000,-0.001091,0.00,0.00,0.000051,0.004000,0.000000,0.000000,0.000000,-0.000338,-0.002395,-0.000535,0.000000,0.000000,0.000000,0.000000,819,819,819,819
8146,0,0.000000,0.000000,-0.001091,0.00,0.00,-0.000020,0.004000,0.000000,0.000000,0.000000,-0.000338,-0.002395,0.000204,0.000000,0.000000,0.000000,0.000000,819,819,819,819
8166,0,0.000000,0.000000,-0.001091,0.00,0.00,0.000011,0.004000,0.000000,0.000000,0.000000,-0.000338,-0.002395,-0.000123,0.000000,0.000000,0.000000,0.000000,819,819,819,819
8186,0,0.000000,0.000000,-0.001091,0.00,0.00,0.000109,0.004000,0.000000,0.000000,0.000000,-0.000338,-0.002395,-0.001140,0.000000,0.000000,0.000000,0.000000,819,819,819,819
8206,0,0.000000,0.000000,-0.001091,0.00,0.00,0.000037,0.004000,0.000000,0.000000,0.000000,-0.000338,-0.002395,-0.000396,0.000000,0.000000,0.000000,0.000000,819,819,819,819
8226,0,0.000000,0.000000,-0.001091,0.00,0.00,-0.000038,0.004000,0.000000,0.000000,0.000000,-0.000338,-0.002395,0.000386,0.000000,0.000000,0.000000,0.000000,819,819,819,819
8246,0,0.000000,0.000000,-0.001091,0.00,0.00,-0.000023,0.004000,0.000000,0.000000,0.000000,-0.000338,-0.002395,0.000227,0.000000,0.000000,0.000000,0.000000,819,819,819,819
8266,0,0.000000,0.000000,-0.001091,0.00,0.00,0.000026,0.004000,0.000000,0.000000,0.000000,-0.000338,-0.002395,-0.000280,0.000000,0.000000,0.000000,0.000000,819,819,819,819
8286,0,0.000000,0.000000,-0.001091,0.00,0.00,0.000036,0.004000,0.000000,0.000000,0.000000,-0.000338,-0.002395,-0.000382,0.000000,0.000000,0.000000,0.000000,819,819,819,819
8306,0,0.000000,0.000000,-0.001091,0.00,0.00,-0.000023,0.004000,0.000000,0.000000,0.000000,-0.000338,-0.002395,0.000230,0.000000,0.000000,0.000000,0.000000,819,819,819,819
8326,0,0.000000,0.000000,-0.001091,0.00,0.00,-0.000005,0.004000,0.000000,0.000000,0.000000,-0.000338,-0.002395,0.000037,0.000000,0.000000,0.000000,0.000000,819,819,819,819
8346,0,0.000000,0.000000,-0.001091,0.00,0.00,0.000014,0.004000,0.000000,0.000000,0.000000,-0.000338,-0.002395,-0.000160,0.000000,0.000000,0.000000,0.000000,819,819,819,819
8366,0,0.000000,0.000000,-0.001091,0.00,0.00,0.000018,0.004000,0.000000,0.000000,0.000000,-0.000338,-0.002395,-0.000200,0.000000,0.000000,0.000000,0.000000,819,819,819,819
8386,0,0.000000,0.000000,-0.001091,0.00,0.00,0.000019,0.004000,0.000000,0.000000,0.000000,-0.000338,-0.002395,-0.000209,0.000000,0.000000,0.000000,0.000000,819,819,819,819
8406,0,0.000000,0.000000,-0.001091,0.00,0.00,0.000004,0.004000,0.000000,0.000000,0.000000,-0.000338,-0.002395,-0.000053,0.000000,0.000000,0.000000,0.000000,819,819,819,819
8426,0,0.000000,0.000000,-0.001091,0.00,0.00,-0.000014,0.004000,0.000000,0.000000,0.000000,-0.000338,-0.002395,0.000137,0.000000,0.000000,0.000000,0.000000,819,819,819,819
8446,0,0.000000,0.000000,-0.001091,0.00,0.00,-0.000003,0.004000,0.000000,0.000000,0.000000,-0.000338,-0.002395,0.000017,0.000000,0.000000,0.000000,0.000000,819,819,819,819
8466,0,0.000000,0.000000,-0.001091,0.00,0.00,-0.000000,0.004000,0.000000,0.000000,0.000000,-0.000338,-0.002395,-0.000007,0.000000,0.000000,0.000000,0.000000,819,819,819,819
8490,0,0.000000,0.000000,-0.001091,0.00,0.00,0.000061,0.004000,0.000000,0.000000,0.000000,-0.000338,-0.002395,-0.000645,0.000000,0.000000,0.000000,0.000000,819,819,819,819
8513,0,0.000000,0.000000,-0.001091,0.00,0.00,-0.000003,0.004000,0.000000,0.000000,0.000000,-0.000338,-0.002395,0.000016,0.000000,0.000000,0.000000,0.000000,819,819,819,819
8534,0,0.000000,0.000000,-0.001091,0.00,0.00,-0.000031,0.004000,0.000000,0.000000,0.000000,-0.000338,-0.002395,0.000307,0.000000,0.000000,0.000000,0.000000,819,819,819,819
8555,0,0.000000,0.000000,-0.001091,0.00,0.00,0.000070,0.004000,0.000000,0.000000,0.000000,-0.000338,-0.002395,-0.000741,0.000000,0.000000,0.000000,0.000000,819,819,819,819
8576,0,0.000000,0.000000,-0.001091,0.00,0.00,0.000060,0.004000,0.000000,0.000000,0.000000,-0.000338,-0.002395,-0.000638,0.000000,0.000000,0.000000,0.000000,819,819,819,819
8597,0,0.000000,0.000000,-0.001091,0.00,0.00,-0.000019,0.004000,0.000000,0.000000,0.000000,-0.000338,-0.002395,0.000173,0.000000,0.000000,0.000000,0.000000,819,819,819,819
8617,0,0.000000,0.000000,-0.001091,0.00,0.00,-0.000034,0.004000,0.000000,0.000000,0.000000,-0.000338,-0.002395,0.000336,0.000000,0.000000,0.000000,0.000000,819,819,819,819
8637,0,0.000000,0.000000,-0.001091,0.00,0.00,0.000008,0.004000,0.000000,0.000000,0.000000,-0.000338,-0.002395,-0.000105,0.000000,0.000000,0.000000,0.000000,819,819,819,819
8742,0,0.000000,0.000000,-0.001091,0.00,0.00,0.000032,0.004000,0.000000,0.000000,0.000000,-0.000338,-0.002395,-0.000352,0.000000,0.000000,0.000000,0.000000,819,819,819,819
8764,0,0.000000,0.000000,-0.001091,0.00,0.00,0.000037,0.004000,0.000000,0.000000,0.000000,-0.000338,-0.002395,-0.000402,0.000000,0.000000,0.000000,0.000000,819,819,819,819
8786,0,0.000000,0.000000,-0.001091,0.00,0.00,0.000023,0.004000,0.000000,0.000000,0.000000,-0.000338,-0.002395,-0.000256,0.000000,0.000000,0.000000,0.000000,819,819,819,819
8807,0,0.000000,0.000000,-0.001091,0.00,0.00,-0.000056,0.004000,0.000000,0.000000,0.000000,-0.000338,-0.002395,0.000564,0.000000,0.000000,0.000000,0.000000,819,819,819,819
8827,0,0.000000,0.000000,-0.001091,0.00,0.00,0.000004,0.004000,0.000000,0.000000,0.000000,-0.000338,-0.002395,-0.000060,0.000000,0.000000,0.000000,0.000000,819,819,819,819
8847,0,0.000000,0.000000,-0.001091,0.00,0.00,0.000031,0.004000,0.000000,0.000000,0.000000,-0.000338,-0.002395,-0.000344,0.000000,0.000000,0.000000,0.000000,819,819,819,819
8867,0,0.000000,0.000000,-0.001091,0.00,0.00,-0.000024,0.004000,0.000000,0.000000,0.000000,-0.000338,-0.002395,0.000230,0.000000,0.000000,0.000000,0.000000,819,819,819,819
8887,0,0.000000,0.000000,-0.001091,0.00,0.00,-0.000035,0.004000,0.000000,0.000000,0.000000,-0.000338,-0.002395,0.000347,0.000000,0.000000,0.000000,0.000000,819,819,819,819
8907,0,0.000000,0.000000,-0.001091,0.00,0.00,-0.000038,0.004000,0.000000,0.000000,0.000000,-0.000338,-0.002395,0.000371,0.000000,0.000000,0.000000,0.000000,819,819,819,819
8929,0,0.000000,0.000000,-0.001091,0.00,0.00,0.000023,0.004000,0.000000,0.000000,0.000000,-0.000338,-0.002395,-0.000255,0.000000,0.000000,0.000000,0.000000,819,819,819,819
8948,0,0.000000,0.000000,-0.001091,0.00,0.00,0.000020,0.004000,0.000000,0.000000,0.000000,-0.000338,-0.002395,-0.000223,0.000000,0.000000,0.000000,0.000000,819,819,819,819
8968,0,0.000000,0.000000,-0.001091,0.00,0.00,-0.000026,0.005000,0.000000,0.000000,0.000000,-0.000338,-0.002395,0.000256,0.000000,0.000000,0.000000,0.000000,819,819,819,819
8988,0,0.000000,0.000000,-0.001091,0.00,0.00,-0.000081,0.005000,0.000000,0.000000,0.000000,-0.000338,-0.002395,0.000828,0.000000,0.000000,0.000000,0.000000,819,819,819,819
9008,0,0.000000,0.000000,-0.001091,0.00,0.00,-0.000016,0.004000,0.000000,0.000000,0.000000,-0.000338,-0.002395,0.000155,0.000000,0.000000,0.000000,0.000000,819,819,819,819
9028,0,0.000000,0.000000,-0.001091,0.00,0.00,0.000042,0.004000,0.000000,0.000000,0.000000,-0.000338,-0.002395,-0.000453,0.000000,0.000000,0.000000,0.000000,819,819,819,819
9048,0,0.000000,0.000000,-0.001091,0.00,0.00,-0.000007,0.004000,0.000000,0.000000,0.000000,-0.000338,-0.002395,0.000055,0.000000,0.000000,0.000000,0.000000,819,819,819,819
9068,0,0.000000,0.000000,-0.001091,0.00,0.00,-0.000032,0.004000,0.000000,0.000000,0.000000,-0.000338,-0.002395,0.000315,0.000000,0.000000,0.000000,0.000000,819,819,819,819
9088,0,0.000000,0.000000,-0.001091,0.00,0.00,-0.000052,0.004000,0.000000,0.000000,0.000000,-0.000338,-0.002395,0.000527,0.000000,0.000000,0.000000,0.000000,819,819,819,819
9108,0,0.000000,0.000000,-0.001091,0.00,0.00,-0.000041,0.004000,0.000000,0.000000,0.000000,-0.000338,-0.002395,0.000413,0.000000,0.000000,0.000000,0.000000,819,819,819,819
9128,0,0.000000,0.000000,-0.001091,0.00,0.00,-0.000008,0.004000,0.000000,0.000000,0.000000,-0.000338,-0.002395,0.000076,0.000000,0.000000,0.000000,0.000000,819,819,819,819
9148,0,0.000000,0.000000,-0.001091,0.00,0.00,0.000044,0.004000,0.000000,0.000000,0.000000,-0.000338,-0.002395,-0.000466,0.000000,0.000000,0.000000,0.000000,819,819,819,819
9168,0,0.000000,0.000000,-0.001091,0.00,0.00,0.000024,0.005000,0.000000,0.000000,0.000000,-0.000338,-0.002395,-0.000260,0.000000,0.000000,0.000000,0.000000,819,819,819,819
9188,0,0.000000,0.000000,-0.001091,0.00,0.00,-0.000026,0.005000,0.000000,0.000000,0.000000,-0.000338,-0.002395,0.000254,0.000000,0.000000,0.000000,0.000000,819,819,819,819
9208,0,0.000000,0.000000,-0.001091,0.00,0.00,-0.000036,0.005000,0.000000,0.000000,0.000000,-0.000338,-0.002395,0.000359,0.000000,0.000000,0.000000,0.000000,819,819,819,819
9228,0,0.000000,0.000000,-0.001091,0.00,0.00,0.000023,0.005000,0.000000,0.000000,0.000000,-0.000338,-0.002395,-0.000251,0.000000,0.000000,0.000000,0.000000,819,819,819,819
9248,0,0.000000,0.000000,-0.001091,0.00,0.00,0.000066,0.005000,0.000000,0.000000,0.000000,-0.000338,-0.002395,-0.000690,0.000000,0.000000,0.000000,0.000000,819,819,819,819
9268,0,0.000000,0.000000,-0.001091,0.00,0.00,0.000028,0.005000,0.000000,0.000000,0.000000,-0.000338,-0.002395,-0.000307,0.000000,0.000000,0.000000,0.000000,819,819,819,819
9289,0,0.000000,0.000000,-0.001091,0.00,0.00,-0.000025,0.005000,0.000000,0.000000,0.000000,-0.000338,-0.002395,0.000243,0.000000,0.000000,0.000000,0.000000,819,819,819,819
9308,0,0.000000,0.000000,-0.001091,0.00,0.00,-0.000066,0.005000,0.000000,0.000000,0.000000,-0.000338,-0.002395,0.000670,0.000000,0.000000,0.000000,0.000000,819,819,819,819
9328,0,0.000000,0.000000,-0.001091,0.00,0.00,0.000033,0.031000,0.000000,0.000000,0.000000,-0.000338,-0.002395,-0.000347,0.028596,0.034081,0.028613,0.032710,842,888,858,886
9354,0,0.000000,0.000000,-0.001091,0.00,0.00,0.000052,0.031000,0.000000,0.000000,0.000000,-0.000338,-0.002395,-0.000553,0.028390,0.034287,0.028819,0.032504,842,888,859,886
9376,0,0.000000,0.000000,-0.001091,0.00,0.00,-0.000020,0.031000,0.000000,0.000000,0.000000,-0.000338,-0.002395,0.000193,0.029136,0.033540,0.028073,0.033251,843,887,858,887
9396,0,0.000000,0.000000,-0.001091,0.00,0.00,0.000042,0.031000,0.000000,0.000000,0.000000,-0.000338,-0.002395,-0.000445,0.028498,0.034179,0.028711,0.032612,842,888,859,886
9417,0,0.000000,0.000000,-0.001091,0.00,0.00,-0.000037,0.155000,0.000000,0.000000,0.000000,-0.000338,-0.002395,0.000372,0.153315,0.157362,0.151894,0.157429,944,989,959,989
9438,0,0.000000,0.000000,-0.001091,0.00,0.00,-0.000084,0.155000,0.000000,0.000000,0.000000,-0.000338,-0.002395,0.000853,0.153796,0.156880,0.151413,0.157910,945,988,959,989
9458,0,0.000000,0.000000,-0.001091,0.00,0.00,0.000120,0.155000,0.000000,0.000000,0.000000,-0.000338,-0.002395,-0.001257,0.151686,0.158991,0.153523,0.155800,943,990,961,987
9479,0,-0.001091,0.000000,-0.001091,-0.00,0.00,0.000451,0.155000,0.000000,0.000000,0.000000,-0.000148,-0.002395,-0.004684,0.148068,0.162228,0.157141,0.152563,940,992,964,985
9499,0,-0.001091,0.000000,0.000000,-0.00,0.00,-0.000032,0.155000,0.000000,0.000000,0.000000,-0.000137,-0.002395,0.000292,0.153034,0.157240,0.152175,0.157551,944,988,960,989
9519,0,-0.001091,0.000000,0.000000,-0.00,0.00,-0.000037,0.155000,0.000000,0.000000,0.000000,-0.000125,-0.002395,0.000347,0.153076,0.157174,0.152133,0.157617,944,988,960,989
9539,0,-0.001091,0.000000,-0.001091,-0.00,0.00,-0.000434,0.155000,0.000000,0.000000,0.000000,-0.000113,-0.002395,0.004462,0.157180,0.153047,0.148029,0.161744,947,985,956,992
9559,0,0.000000,0.000000,-0.001091,0.00,0.00,-0.000894,0.155000,0.000000,0.000000,0.000000,-0.000292,-0.002395,0.009251,0.162147,0.148436,0.143062,0.166354,951,981,952,996
9579,0,0.001091,0.000000,-0.001091,0.00,0.00,-0.000011,0.155000,0.000000,0.000000,0.000000,-0.000482,-0.002395,0.000147,0.153233,0.157730,0.151976,0.157061,944,989,960,988
9599,0,0.001091,0.000000,0.001091,0.00,0.00,-0.000124,0.155000,0.000000,0.000000,0.000000,-0.000492,-0.002395,0.001317,0.154414,0.156571,0.150796,0.158219,945,988,959,989
9619,0,0.000000,-0.001091,0.003272,0.00,-0.00,-0.000436,0.155000,0.000000,0.000000,0.000000,-0.000313,-0.001579,0.004554,0.158288,0.152338,0.148553,0.160820,948,984,957,991
9639,0,0.001091,0.000000,0.005454,0.00,0.00,-0.001077,0.155000,0.000000,0.000000,0.000000,-0.000503,-0.002255,0.011217,0.164465,0.146541,0.141024,0.167969,953,980,951,997
9659,0,0.002182,0.000000,0.005454,0.00,0.00,0.000302,0.155000,0.000000,0.000000,0.000000,-0.000705,-0.002254,-0.003023,0.150428,0.160982,0.155064,0.153526,942,991,962,985
9679,0,0.000000,-0.001091,0.004363,0.00,-0.00,0.002741,0.155000,0.000000,0.000000,0.000000,-0.000347,-0.001436,-0.028298,0.125613,0.185081,0.181515,0.127790,922,1011,984,964
9699,0,-0.003272,0.000000,0.004363,-0.00,0.00,0.002726,0.155000,0.000000,0.000000,0.000000,0.000224,-0.002110,-0.028275,0.124390,0.185162,0.181389,0.129059,921,1011,984,965
9719,0,-0.006545,0.000000,0.004363,-0.00,0.00,0.003850,0.155000,0.000000,0.000000,0.000000,0.000831,-0.002108,-0.040049,0.112013,0.196326,0.193772,0.117890,910,1020,994,956
9740,0,-0.011999,-0.003272,0.005454,-0.00,-0.00,0.005202,0.155000,0.000000,0.000000,0.000000,0.001854,0.000348,-0.054235,0.099259,0.207034,0.211436,0.102271,900,1029,1008,943
9760,0,-0.017453,-0.005454,0.007636,-0.00,-0.00,0.005229,0.155000,0.000000,0.000000,0.000000,0.002936,0.002413,-0.054762,0.099714,0.204413,0.215111,0.100762,900,1027,1011,942
9780,0,-0.023998,-0.007636,0.010908,-0.00,-0.00,0.005646,0.155000,0.000000,0.000000,0.000000,0.004271,0.004768,-0.059328,0.096169,0.205290,0.223367,0.095174,897,1028,1018,938
9799,0,-0.029452,-0.013090,0.017453,-0.00,-0.00,0.004952,0.155000,0.000000,0.000000,0.000000,0.005488,0.009872,-0.052421,0.106964,0.192061,0.222781,0.098195,906,1017,1018,940
9820,0,-0.034907,-0.020726,0.026180,-0.00,-0.00,0.004768,0.155000,0.000000,0.000000,0.000000,0.006768,0.017342,-0.050751,0.114823,0.181642,0.229861,0.093674,913,1008,1023,936
9840,0,-0.039270,-0.029452,0.039270,-0.00,-0.00,0.002675,0.154000,0.000000,0.000000,0.000000,0.007922,0.026656,-0.029312,0.143422,0.148734,0.217889,0.105955,936,981,1014,946
9860,0,-0.041452,-0.041452,0.054542,-0.00,-0.00,-0.000562,0.154000,0.000000,0.000000,0.000000,0.008748,0.039609,0.004066,0.188927,0.101577,0.198292,0.127204,973,943,997,964
9880,0,-0.039270,-0.056723,0.073086,-0.00,-0.00,-0.002062,0.154000,0.000000,0.000000,0.000000,0.008842,0.056652,0.019625,0.221434,0.068882,0.199869,0.125815,1000,916,999,963
9899,0,-0.038179,-0.071995,0.094902,-0.00,-0.00,-0.001326,0.153000,0.000000,0.000000,0.000000,0.009111,0.075780,0.012109,0.231779,0.056000,0.225781,0.098440,1009,905,1020,940
9920,0,-0.038179,-0.083994,0.116719,-0.00,-0.00,0.001639,0.153000,0.000000,0.000000,0.000000,0.009565,0.094562,-0.018518,0.219479,0.067391,0.275644,0.049486,998,915,1061,900
9940,0,-0.043633,-0.093811,0.138536,-0.00,-0.00,0.005643,0.142000,0.000000,0.000000,0.000000,0.010979,0.113409,-0.060053,0.184377,0.077664,0.326441,-0.020482,970,923,1102,843
9960,0,-0.053451,-0.094902,0.160352,-0.00,-0.00,0.009658,0.142000,0.000000,0.000000,0.000000,0.013223,0.127130,-0.101886,0.154021,0.103532,0.384239,-0.073793,945,944,1150,835
9986,0,-0.078540,-0.082903,0.193077,-0.00,-0.00,0.016416,0.142000,0.000000,0.000000,0.000000,0.018253,0.131300,-0.172310,0.082737,0.164757,0.463863,-0.143357,886,995,1215,835
10007,0,-0.106901,-0.058905,0.219257,-0.00,-0.00,0.024576,0.142000,0.000000,0.000000,0.000000,0.024142,0.124979,-0.257574,-0.014737,0.250453,0.548695,-0.216411,835,1065,1284,835
10028,0,-0.147262,-0.019635,0.248709,-0.00,-0.00,0.036717,0.142000,0.000000,0.000000,0.000000,0.032456,0.104068,-0.300000,-0.086388,0.305476,0.578524,-0.229612,835,1110,1309,835
10048,0,-0.188714,0.037088,0.281434,-0.00,0.00,0.034241,0.005000,0.000000,0.000000,0.000000,0.041428,0.064823,-0.300000,0.000000,0.000000,0.000000,0.000000,819,819,819,819
10069,0,-0.214894,0.064359,0.305433,-0.00,0.00,0.026755,0.005000,0.000000,0.000000,0.000000,0.044609,0.035346,-0.284876,0.000000,0.000000,0.000000,0.000000,819,819,819,819
10090,0,-0.233438,0.077449,0.323977,-0.00,0.00,0.017688,0.005000,0.000000,0.000000,0.000000,0.049404,0.017286,-0.192387,0.000000,0.000000,0.000000,0.000000,819,819,819,819
10110,0,-0.251982,0.102538,0.342521,-0.00,0.00,0.019972,0.005000,0.000000,0.000000,0.000000,0.054338,-0.011508,-0.216901,0.000000,0.000000,0.000000,0.000000,819,819,819,819
10130,0,-0.275980,0.140717,0.355611,-0.00,0.00,0.017717,0.005000,0.000000,0.000000,0.000000,0.060363,-0.053406,-0.194575,0.000000,0.000000,0.000000,0.000000,819,819,819,819
10150,0,-0.294524,0.182169,0.366519,-0.00,0.00,0.018454,0.005000,0.000000,0.000000,0.000000,0.065613,-0.102698,-0.203091,0.000000,0.000000,0.000000,0.000000,819,819,819,819
10170,0,-0.318523,0.219257,0.375246,-0.00,0.00,0.016683,0.005000,0.000000,0.000000,0.000000,0.071957,-0.154067,-0.185689,0.000000,0.000000,0.000000,0.000000,819,819,819,819
10190,0,-0.332703,0.251982,0.382882,-0.00,0.00,0.007144,0.005000,0.000000,0.000000,0.000000,0.076762,-0.206972,-0.087850,0.000000,0.000000,0.000000,0.000000,819,819,819,819
10210,0,-0.333794,0.286889,0.388336,-0.00,0.00,-0.006552,0.005000,0.000000,0.000000,0.000000,0.079386,-0.265804,0.053477,0.000000,0.000000,0.000000,0.000000,819,819,819,819
10230,0,-0.318523,0.316341,0.395972,-0.00,0.00,-0.014759,0.005000,0.000000,0.000000,0.000000,0.079158,-0.300000,0.138706,0.000000,0.000000,0.000000,0.000000,819,819,819,819
10250,0,-0.294524,0.340339,0.403607,-0.00,0.00,-0.018624,0.005000,0.000000,0.000000,0.000000,0.077296,-0.300000,0.179435,0.000000,0.000000,0.000000,0.000000,819,819,819,819
10270,0,-0.257436,0.359974,0.414516,-0.00,0.00,-0.033882,0.005000,0.000000,0.000000,0.000000,0.072971,-0.300000,0.300000,0.000000,0.000000,0.000000,0.000000,819,819,819,819
10291,0,-0.202895,0.374155,0.426515,-0.00,0.00,-0.050778,0.005000,0.000000,0.000000,0.000000,0.065320,-0.300000,0.300000,0.000000,0.000000,0.000000,0.000000,819,819,819,819
10310,0,-0.128718,0.373064,0.438514,-0.00,0.00,-0.057844,0.005000,0.000000,0.000000,0.000000,0.053833,-0.300000,0.300000,0.000000,0.000000,0.000000,0.000000,819,819,819,819
10330,0,-0.065450,0.364338,0.442877,-0.00,0.00,-0.039502,0.017000,0.000000,0.000000,0.000000,0.043708,-0.300000,0.300000,0.000000,0.000000,0.000000,0.000000,819,819,819,819
10349,0,-0.030543,0.346884,0.451604,-0.00,0.00,-0.022811,0.017000,0.000000,0.000000,0.000000,0.038081,-0.300000,0.233023,0.000000,0.000000,0.000000,0.000000,819,819,819,819
10370,0,-0.004363,0.310887,0.460331,-0.00,0.00,-0.016960,0.110000,0.000000,0.000000,0.000000,0.033724,-0.300000,0.173684,-0.050040,0.202592,-0.329960,0.617408,835,1026,835,1365
10391,0,0.009817,0.266163,0.467966,0.00,0.00,-0.012180,0.110000,0.000000,0.000000,0.000000,0.031290,-0.300000,0.125127,-0.096163,0.253582,-0.283837,0.566418,835,1067,835,1324
10410,0,0.025089,0.212712,0.470148,0.00,0.00,-0.015992,0.120000,0.000000,0.000000,0.000000,0.028504,-0.300000,0.165164,-0.043340,0.226332,-0.316660,0.613668,835,1045,835,1362
10431,0,0.037088,0.143990,0.473421,0.00,0.00,-0.001630,0.120000,0.000000,0.000000,0.000000,0.026113,-0.300000,0.017490,-0.188624,0.376397,-0.171376,0.463603,835,1168,835,1239
10450,0,0.035997,0.056723,0.469057,0.00,0.00,-0.000905,0.120000,0.000000,0.000000,0.000000,0.025873,-0.300000,0.010080,-0.195793,0.384048,-0.164207,0.455952,835,1174,835,1233
10471,0,0.029452,-0.041452,0.465785,0.00,-0.00,0.019558,0.120000,0.000000,0.000000,0.000000,0.026593,-0.300000,-0.201437,-0.408030,0.594844,0.048030,0.245156,835,1347,874,1060
10491,0,-0.005454,-0.051269,0.454876,-0.00,-0.00,0.045065,0.120000,0.000000,0.000000,0.000000,0.032350,-0.300000,-0.300000,-0.512350,0.687650,0.152350,0.152350,835,1423,960,984
10511,0,-0.059996,-0.061087,0.438514,-0.00,-0.00,0.046588,0.120000,0.000000,0.000000,0.000000,0.041947,-0.300000,-0.300000,-0.521947,0.678053,0.161947,0.161947,835,1415,968,992
10531,0,-0.106901,-0.091630,0.430878,-0.00,-0.00,0.043663,0.120000,0.000000,0.000000,0.000000,0.050839,-0.300000,-0.300000,-0.530839,0.669161,0.170839,0.170839,835,1408,975,1000
10551,0,-0.149444,-0.160352,0.429787,-0.00,-0.00,0.017079,0.120000,0.000000,0.000000,0.000000,0.059525,-0.300000,-0.183911,-0.423436,0.544387,0.063436,0.295613,835,1306,887,1102
10571,0,-0.151625,-0.269435,0.447241,-0.00,-0.00,-0.028767,0.120000,0.000000,0.000000,0.000000,0.061654,-0.293649,0.289090,0.053787,0.062905,-0.401086,0.764393,863,911,835,1486
10592,0,-0.102538,-0.424333,0.486511,-0.00,-0.00,-0.078831,0.120000,0.000000,0.000000,0.000000,0.054852,-0.138658,0.300000,0.226490,-0.096194,-0.263806,0.613510,1004,835,835,1362
10618,0,0.057814,-0.742856,0.585776,0.00,-0.00,-0.118636,0.120000,0.000000,0.000000,0.000000,0.028003,0.122609,0.300000,0.514607,-0.330612,-0.029388,0.325393,1240,835,835,1126
10640,0,0.238892,-1.014473,0.670861,0.00,-0.00,-0.134973,0.120000,0.000000,0.000000,0.000000,-0.004340,0.215440,0.300000,0.639781,-0.391100,0.031100,0.200219,1343,835,861,1024
10660,0,0.593412,-1.307906,0.772308,0.00,-0.00,-0.127686,0.120000,0.000000,0.000000,0.000000,-0.069232,0.300000,0.300000,0.789232,-0.410768,0.050768,0.050768,1465,835,877,901
10681,1,2.301653,-1.415898,0.896663,0.00,-0.00,-0.116298,0.120000,0.000000,0.000000,0.000000,-0.269132,0.300000,0.300000,0.000000,0.000000,0.000000,0.000000,819,819,819,819
10700,1,2.987786,-1.094103,1.078832,0.00,-0.00,-0.119839,0.120000,0.000000,0.000000,0.000000,-0.282194,0.300000,0.300000,0.000000,0.000000,0.000000,0.000000,819,819,819,819
10721,1,-3.102323,-0.718858,1.204277,-0.00,-0.00,-0.131970,0.120000,0.000000,0.000000,0.000000,0.300000,0.300000,0.300000,0.000000,0.000000,0.000000,0.000000,819,819,819,819
10742,1,-2.958333,-0.335976,1.241365,-0.00,-0.00,-0.155552,0.120000,0.000000,0.000000,0.000000,0.300000,0.300000,0.300000,0.000000,0.000000,0.000000,0.000000,819,819,819,819
10762,1,-2.781619,0.039270,1.281726,-0.00,0.00,-0.177418,0.120000,0.000000,0.000000,0.000000,0.300000,0.172331,0.300000,0.000000,0.000000,0.000000,0.000000,819,819,819,819
10782,1,-2.524182,0.381791,1.327541,-0.00,0.00,-0.082501,0.120000,0.000000,0.000000,0.000000,0.300000,-0.093830,0.300000,0.000000,0.000000,0.000000,0.000000,819,819,819,819
10801,1,-2.486003,0.591230,-0.116719,-0.00,0.00,0.076103,0.085000,0.000000,0.000000,0.000000,0.300000,-0.300000,-0.300000,0.000000,0.000000,0.000000,0.000000,819,819,819,819
10821,1,-2.701988,0.721039,0.368701,-0.00,0.00,0.202560,0.085000,0.000000,0.000000,0.000000,0.300000,-0.300000,-0.300000,0.000000,0.000000,0.000000,0.000000,819,819,819,819
10843,1,2.917972,0.856302,1.550071,0.00,0.00,0.256821,0.000000,0.000000,0.000000,0.000000,-0.216394,-0.300000,-0.300000,0.000000,0.000000,0.000000,0.000000,819,819,819,819
10863,1,2.526364,0.855211,2.078033,0.00,0.00,0.195342,0.000000,0.000000,0.000000,0.000000,-0.229654,-0.300000,-0.300000,0.000000,0.000000,0.000000,0.000000,819,819,819,819
10882,1,2.393283,0.808306,2.290745,0.00,0.00,0.072546,0.000000,0.000000,0.000000,0.000000,-0.242938,-0.300000,-0.300000,0.000000,0.000000,0.000000,0.000000,819,819,819,819
10901,1,2.352922,0.641409,2.620176,0.00,0.00,0.061039,0.000000,0.000000,0.000000,0.000000,-0.256246,-0.300000,-0.300000,0.000000,0.000000,0.000000,0.000000,819,819,819,819
10922,1,2.410736,0.494146,2.928881,0.00,0.00,-0.030606,0.000000,0.000000,0.000000,0.000000,-0.269578,-0.300000,0.300000,0.000000,0.000000,0.000000,0.000000,819,819,819,819
10942,1,2.529637,0.350157,1.352630,0.00,0.00,-0.028160,0.000000,0.000000,0.000000,0.000000,-0.282935,-0.300000,0.300000,0.000000,0.000000,0.000000,0.000000,819,819,819,819
10962,1,2.593996,0.173442,1.426807,0.00,0.00,-0.032149,0.004000,0.000000,0.000000,0.000000,-0.296317,-0.300000,0.300000,0.000000,0.000000,0.000000,0.000000,819,819,819,819
10982,1,2.646356,-0.021817,1.473712,0.00,-0.00,-0.032734,0.004000,0.000000,0.000000,0.000000,-0.300000,-0.300000,0.300000,0.000000,0.000000,0.000000,0.000000,819,819,819,819
11002,1,2.668172,-0.208349,1.508619,0.00,-0.00,-0.022493,0.004000,0.000000,0.000000,0.000000,-0.300000,-0.300000,0.251961,0.000000,0.000000,0.000000,0.000000,819,819,819,819
11022,1,2.682353,-0.383972,1.552252,0.00,-0.00,-0.030620,0.004000,0.000000,0.000000,0.000000,-0.300000,-0.218210,0.300000,0.000000,0.000000,0.000000,0.000000,819,819,819,819
11043,1,2.752166,-0.405789,1.575160,0.00,-0.00,-0.071007,0.004000,0.000000,0.000000,0.000000,-0.300000,-0.147951,0.300000,0.000000,0.000000,0.000000,0.000000,819,819,819,819
11062,1,2.813253,-0.311978,1.629701,0.00,-0.00,-0.056604,0.004000,0.000000,0.000000,0.000000,-0.300000,-0.162964,0.300000,0.000000,0.000000,0.000000,0.000000,819,819,819,819
11083,1,2.860158,-0.225802,1.689697,0.00,-0.00,-0.053145,0.004000,0.000000,0.000000,0.000000,-0.300000,-0.185192,0.300000,0.000000,0.000000,0.000000,0.000000,819,819,819,819
11102,1,2.915791,-0.152716,1.750783,0.00,-0.00,-0.060480,0.004000,0.000000,0.000000,0.000000,-0.300000,-0.209437,0.300000,0.000000,0.000000,0.000000,0.000000,819,819,819,819
11122,1,2.980150,-0.077449,1.818415,0.00,-0.00,-0.062845,0.004000,0.000000,0.000000,0.000000,-0.300000,-0.245583,0.300000,0.000000,0.000000,0.000000,0.000000,819,819,819,819
11143,1,3.041236,-0.011999,1.872957,0.00,-0.00,-0.072518,0.004000,0.000000,0.000000,0.000000,-0.300000,-0.284790,0.300000,0.000000,0.000000,0.000000,0.000000,819,819,819,819
11163,1,-3.152501,0.014181,1.935134,-0.00,0.00,-0.070980,0.004000,0.000000,0.000000,0.000000,0.166808,-0.300000,0.300000,0.000000,0.000000,0.000000,0.000000,819,819,819,819
11183,1,-3.079415,-0.001091,2.001675,-0.00,-0.00,-0.039418,0.004000,0.000000,0.000000,0.000000,0.180459,-0.293453,0.300000,0.000000,0.000000,0.000000,0.000000,819,819,819,819
11202,1,-3.036873,0.018544,2.039854,-0.00,0.00,-0.041757,0.004000,0.000000,0.000000,0.000000,0.194135,-0.300000,0.300000,0.000000,0.000000,0.000000,0.000000,819,819,819,819
11227,1,-2.983422,0.018544,2.100940,-0.00,0.00,-0.028365,0.004000,0.000000,0.000000,0.000000,0.207839,-0.300000,0.300000,0.000000,0.000000,0.000000,0.000000,819,819,819,819
11247,1,-2.964878,0.015272,2.143482,-0.00,0.00,-0.014096,0.004000,0.000000,0.000000,0.000000,0.221569,-0.300000,0.199077,0.000000,0.000000,0.000000,0.000000,819,819,819,819
11267,1,-2.929971,0.009817,2.180571,-0.00,0.00,-0.024173,0.004000,0.000000,0.000000,0.000000,0.235325,-0.300000,0.300000,0.000000,0.000000,0.000000,0.000000,819,819,819,819
11287,1,-2.881975,-0.023998,2.227477,-0.00,-0.00,-0.039896,0.004000,0.000000,0.000000,0.000000,0.249104,-0.284546,0.300000,0.000000,0.000000,0.000000,0.000000,819,819,819,819
11306,1,-2.832888,-0.047997,2.279836,-0.00,-0.00,-0.039568,0.004000,0.000000,0.000000,0.000000,0.262907,-0.262695,0.300000,0.000000,0.000000,0.000000,0.000000,819,819,819,819
11325,1,-2.792527,-0.027271,2.303835,-0.00,-0.00,-0.041026,0.004000,0.000000,0.000000,0.000000,0.276733,-0.271738,0.300000,0.000000,0.000000,0.000000,0.000000,819,819,819,819
11344,1,-2.759802,-0.013090,2.331105,-0.00,-0.00,-0.030336,0.004000,0.000000,0.000000,0.000000,0.290583,-0.278719,0.300000,0.000000,0.000000,0.000000,0.000000,819,819,819,819
11364,1,-2.742349,-0.008727,2.350740,-0.00,-0.00,-0.025106,0.004000,0.000000,0.000000,0.000000,0.300000,-0.280191,0.300000,0.000000,0.000000,0.000000,0.000000,819,819,819,819
11383,1,-2.719441,-0.004363,2.385647,-0.00,-0.00,-0.010580,0.004000,0.000000,0.000000,0.000000,0.300000,-0.282289,0.174876,0.000000,0.000000,0.000000,0.000000,819,819,819,819
11403,1,-2.716169,-0.009817,2.415099,-0.00,-0.00,-0.000243,0.004000,0.000000,0.000000,0.000000,0.300000,-0.277467,0.068788,0.000000,0.000000,0.000000,0.000000,819,819,819,819
11423,1,-2.717259,-0.017453,2.431462,-0.00,-0.00,0.004795,0.004000,0.000000,0.000000,0.000000,0.300000,-0.270177,0.016816,0.000000,0.000000,0.000000,0.000000,819,819,819,819
11444,1,-2.728168,-0.023998,2.443461,-0.00,-0.00,0.011651,0.004000,0.000000,0.000000,0.000000,0.300000,-0.262618,-0.054208,0.000000,0.000000,0.000000,0.000000,819,819,819,819
11463,1,-2.742349,-0.028362,2.448915,-0.00,-0.00,0.013555,0.004000,0.000000,0.000000,0.000000,0.300000,-0.255783,-0.074521,0.000000,0.000000,0.000000,0.000000,819,819,819,819
11484,1,-2.759802,-0.029452,2.451097,-0.00,-0.00,0.016145,0.004000,0.000000,0.000000,0.000000,0.300000,-0.250825,-0.102011,0.000000,0.000000,0.000000,0.000000,819,819,819,819
11503,1,-2.778346,-0.025089,2.452188,-0.00,-0.00,0.017135,0.004000,0.000000,0.000000,0.000000,0.300000,-0.249902,-0.113148,0.000000,0.000000,0.000000,0.000000,819,819,819,819
11523,1,-2.796890,-0.016362,2.450006,-0.00,-0.00,0.016952,0.004000,0.000000,0.000000,0.000000,0.300000,-0.252967,-0.112242,0.000000,0.000000,0.000000,0.000000,819,819,819,819
11544,1,-2.815434,-0.006545,2.448915,-0.00,-0.00,0.016321,0.004000,0.000000,0.000000,0.000000,0.300000,-0.258143,-0.106707,0.000000,0.000000,0.000000,0.000000,819,819,819,819
11564,1,-2.833978,-0.001091,2.446733,-0.00,-0.00,0.016211,0.004000,0.000000,0.000000,0.000000,0.300000,-0.261389,-0.106499,0.000000,0.000000,0.000000,0.000000,819,819,819,819
11584,1,-2.851432,-0.002182,2.445643,-0.00,-0.00,0.016463,0.004000,0.000000,0.000000,0.000000,0.300000,-0.260389,-0.110031,0.000000,0.000000,0.000000,0.000000,819,819,819,819
11603,1,-2.869976,-0.006545,2.445643,-0.00,-0.00,0.016711,0.004000,0.000000,0.000000,0.000000,0.300000,-0.256704,-0.113541,0.000000,0.000000,0.000000,0.000000,819,819,819,819
11624,1,-2.888520,-0.011999,2.447824,-0.00,-0.00,0.016776,0.004000,0.000000,0.000000,0.000000,0.300000,-0.251535,-0.115174,0.000000,0.000000,0.000000,0.000000,819,819,819,819
11644,1,-2.907064,-0.016362,2.450006,-0.00,-0.00,0.017566,0.004000,0.000000,0.000000,0.000000,0.300000,-0.246401,-0.124291,0.000000,0.000000,0.000000,0.000000,819,819,819,819
11664,1,-2.927790,-0.016362,2.451097,-0.00,-0.00,0.019247,0.004000,0.000000,0.000000,0.000000,0.300000,-0.243988,-0.142648,0.000000,0.000000,0.000000,0.000000,819,819,819,819
11684,1,-2.950697,-0.014181,2.452188,-0.00,-0.00,0.021502,0.004000,0.000000,0.000000,0.000000,0.300000,-0.243255,-0.167028,0.000000,0.000000,0.000000,0.000000,819,819,819,819
11704,1,-2.975786,-0.009817,2.453279,-0.00,-0.00,0.022547,0.004000,0.000000,0.000000,0.000000,0.300000,-0.244526,-0.179057,0.000000,0.000000,0.000000,0.000000,819,819,819,819
11724,1,-3.001966,-0.005454,2.454369,-0.00,-0.00,0.024066,0.004000,0.000000,0.000000,0.000000,0.300000,-0.246442,-0.196035,0.000000,0.000000,0.000000,0.000000,819,819,819,819
11744,1,-3.029237,-0.003272,2.456551,-0.00,-0.00,0.024598,0.004000,0.000000,0.000000,0.000000,0.300000,-0.247318,-0.202927,0.000000,0.000000,0.000000,0.000000,819,819,819,819
11764,1,-3.056508,-0.004363,2.458733,-0.00,-0.00,0.024613,0.004000,0.000000,0.000000,0.000000,0.300000,-0.245987,-0.204518,0.000000,0.000000,0.000000,0.000000,819,819,819,819
11784,1,-3.083779,-0.008727,2.460914,-0.00,-0.00,0.024601,0.004000,0.000000,0.000000,0.000000,0.300000,-0.241963,-0.205832,0.000000,0.000000,0.000000,0.000000,819,819,819,819
11804,1,-3.111049,-0.015272,2.462005,-0.00,-0.00,0.024355,0.004000,0.000000,0.000000,0.000000,0.300000,-0.235598,-0.204735,0.000000,0.000000,0.000000,0.000000,819,819,819,819
11824,1,-3.137229,-0.023998,-2.911427,-0.00,-0.00,0.023833,0.004000,0.000000,0.000000,0.000000,0.300000,-0.226562,-0.200788,0.000000,0.000000,0.000000,0.000000,819,819,819,819
11848,1,-3.175408,-0.037088,-2.909246,-0.00,-0.00,0.022465,0.004000,0.000000,0.000000,0.000000,0.300000,-0.212834,-0.188075,0.000000,0.000000,0.000000,0.000000,819,819,819,819
11869,1,-3.198316,-0.043633,-2.905973,-0.00,-0.00,0.020501,0.004000,0.000000,0.000000,0.000000,0.300000,-0.202199,-0.169142,0.000000,0.000000,0.000000,0.000000,819,819,819,819
11888,1,3.063053,-0.044724,-2.907064,0.00,-0.00,0.018965,0.004000,0.000000,0.000000,0.000000,0.074461,-0.194793,-0.154522,0.000000,0.000000,0.000000,0.000000,819,819,819,819
11908,1,3.045600,-0.040361,-2.905973,0.00,-0.00,0.015704,0.004000,0.000000,0.000000,0.000000,0.059922,-0.191438,-0.122009,0.000000,0.000000,0.000000,0.000000,819,819,819,819
11927,1,3.032510,-0.032725,-2.904882,0.00,-0.00,0.011548,0.004000,0.000000,0.000000,0.000000,0.045360,-0.191267,-0.080092,0.000000,0.000000,0.000000,0.000000,819,819,819,819
11946,1,3.024874,-0.025089,-2.902701,0.00,-0.00,0.007077,0.004000,0.000000,0.000000,0.000000,0.030773,-0.192241,-0.034674,0.000000,0.000000,0.000000,0.000000,819,819,819,819
11966,1,3.020510,-0.016362,-2.901610,0.00,-0.00,0.003807,0.004000,0.000000,0.000000,0.000000,0.016163,-0.195211,-0.001377,0.000000,0.000000,0.000000,0.000000,819,819,819,819
11985,1,3.019420,-0.010908,-2.901610,0.00,-0.00,0.001645,0.004000,0.000000,0.000000,0.000000,0.001529,-0.196961,0.020687,0.000000,0.000000,0.000000,0.000000,819,819,819,819
12005,1,3.019420,-0.009817,-2.901610,0.00,-0.00,0.000481,0.004000,0.000000,0.000000,0.000000,-0.013128,-0.196151,0.032584,0.000000,0.000000,0.000000,0.000000,819,819,819,819
12025,1,3.020510,-0.010908,-2.901610,0.00,-0.00,-0.002661,0.004000,0.000000,0.000000,0.000000,-0.027810,-0.193811,0.064946,0.000000,0.000000,0.000000,0.000000,819,819,819,819
12045,1,3.025964,-0.016362,-2.902701,0.00,-0.00,-0.005208,0.004000,0.000000,0.000000,0.000000,-0.042517,-0.187914,0.091367,0.000000,0.000000,0.000000,0.000000,819,819,819,819
12065,1,3.032510,-0.022907,-2.900519,0.00,-0.00,-0.007835,0.004000,0.000000,0.000000,0.000000,-0.057248,-0.180334,0.118757,0.000000,0.000000,0.000000,0.000000,819,819,819,819
12085,1,3.042327,-0.029452,-2.901610,0.00,-0.00,-0.010325,0.004000,0.000000,0.000000,0.000000,-0.072004,-0.171747,0.144896,0.000000,0.000000,0.000000,0.000000,819,819,819,819
12104,1,3.055417,-0.033816,-2.903792,0.00,-0.00,-0.011843,0.004000,0.000000,0.000000,0.000000,-0.086783,-0.163846,0.161170,0.000000,0.000000,0.000000,0.000000,819,819,819,819
12125,1,3.070689,-0.035997,-2.904882,0.00,-0.00,-0.014660,0.004000,0.000000,0.000000,0.000000,-0.101588,-0.156963,0.190919,0.000000,0.000000,0.000000,0.000000,819,819,819,819
12145,1,-3.193953,-0.034907,-2.905973,-0.00,-0.00,-0.015635,0.004000,0.000000,0.000000,0.000000,0.300000,-0.152281,0.201849,0.000000,0.000000,0.000000,0.000000,819,819,819,819
12165,1,-3.176499,-0.032725,-2.907064,-0.00,-0.00,-0.015281,0.004000,0.000000,0.000000,0.000000,0.300000,-0.148605,0.199151,0.000000,0.000000,0.000000,0.000000,819,819,819,819
12185,1,-3.161227,-0.030543,-2.908155,-0.00,-0.00,-0.012834,0.004000,0.000000,0.000000,0.000000,0.300000,-0.145258,0.174858,0.000000,0.000000,0.000000,0.000000,819,819,819,819
12204,1,-3.148138,-0.027271,-2.909246,-0.00,-0.00,-0.011782,0.004000,0.000000,0.000000,0.000000,0.300000,-0.143089,0.164784,0.000000,0.000000,0.000000,0.000000,819,819,819,819
12225,1,-3.136139,-0.025089,-2.910337,-0.00,-0.00,-0.010033,0.004000,0.000000,0.000000,0.000000,0.300000,-0.140570,0.147474,0.000000,0.000000,0.000000,0.000000,819,819,819,819
12245,1,-3.127412,-0.022907,-2.911427,-0.00,-0.00,-0.007398,0.004000,0.000000,0.000000,0.000000,0.300000,-0.138382,0.120934,0.000000,0.000000,0.000000,0.000000,819,819,819,819
12265,1,-3.120867,-0.020726,-2.909246,-0.00,-0.00,-0.006079,0.004000,0.000000,0.000000,0.000000,0.300000,-0.136527,0.107792,0.000000,0.000000,0.000000,0.000000,819,819,819,819
12285,1,-3.119776,-0.021817,-2.909246,-0.00,-0.00,-0.003196,0.004000,0.000000,0.000000,0.000000,0.300000,-0.132455,0.078447,0.000000,0.000000,0.000000,0.000000,819,819,819,819
12304,1,-3.121958,-0.023998,-2.909246,-0.00,-0.00,-0.001766,0.004000,0.000000,0.000000,0.000000,0.300000,-0.127358,0.063910,0.000000,0.000000,0.000000,0.000000,819,819,819,819
12325,1,-3.125230,-0.026180,-2.908155,-0.00,-0.00,0.000226,0.004000,0.000000,0.000000,0.000000,0.300000,-0.121914,0.043492,0.000000,0.000000,0.000000,0.000000,819,819,819,819
12346,1,-3.131775,-0.028362,-2.908155,-0.00,-0.00,0.002969,0.004000,0.000000,0.000000,0.000000,0.300000,-0.116122,0.015203,0.000000,0.000000,0.000000,0.000000,819,819,819,819
12365,1,-3.139411,-0.032725,-2.907064,-0.00,-0.00,0.004249,0.004000,0.000000,0.000000,0.000000,0.300000,-0.108280,0.001833,0.000000,0.000000,0.000000,0.000000,819,819,819,819
12386,1,-3.149228,-0.038179,-2.905973,-0.00,-0.00,0.006287,0.004000,0.000000,0.000000,0.000000,0.300000,-0.098894,-0.019429,0.000000,0.000000,0.000000,0.000000,819,819,819,819
12405,1,-3.161227,-0.041452,-2.905973,-0.00,-0.00,0.007182,0.004000,0.000000,0.000000,0.000000,0.300000,-0.090345,-0.029038,0.000000,0.000000,0.000000,0.000000,819,819,819,819
12426,1,-3.172136,-0.043633,-2.905973,-0.00,-0.00,0.008321,0.004000,0.000000,0.000000,0.000000,0.300000,-0.082124,-0.041212,0.000000,0.000000,0.000000,0.000000,819,819,819,819
12446,1,-3.181953,-0.044724,-2.904882,-0.00,-0.00,0.008960,0.004000,0.000000,0.000000,0.000000,0.300000,-0.074399,-0.048310,0.000000,0.000000,0.000000,0.000000,819,819,819,819
12472,1,-3.197225,-0.046906,-2.904882,-0.00,-0.00,0.009148,0.004000,0.000000,0.000000,0.000000,0.300000,-0.065635,-0.050809,0.000000,0.000000,0.000000,0.000000,819,819,819,819
12494,1,-3.207042,-0.049087,-2.904882,-0.00,-0.00,0.009003,0.004000,0.000000,0.000000,0.000000,0.300000,-0.056513,-0.049882,0.000000,0.000000,0.000000,0.000000,819,819,819,819
12513,1,3.066325,-0.050178,-2.907064,0.00,-0.00,0.008167,0.004000,0.000000,0.000000,0.000000,0.154157,-0.047886,-0.041827,0.000000,0.000000,0.000000,0.000000,819,819,819,819
12535,1,3.058690,-0.051269,-2.907064,0.00,-0.00,0.006705,0.004000,0.000000,0.000000,0.000000,0.138852,-0.039072,-0.027275,0.000000,0.000000,0.000000,0.000000,819,819,819,819
12554,1,3.053236,-0.050178,-2.905973,0.00,-0.00,0.004829,0.004000,0.000000,0.000000,0.000000,0.123523,-0.031780,-0.008364,0.000000,0.000000,0.000000,0.000000,819,819,819,819
12575,1,3.049963,-0.047997,-2.905973,0.00,-0.00,0.002641,0.004000,0.000000,0.000000,0.000000,0.108168,-0.025501,0.013872,0.000000,0.000000,0.000000,0.000000,819,819,819,819
12596,1,3.049963,-0.045815,-2.905973,0.00,-0.00,-0.000477,0.004000,0.000000,0.000000,0.000000,0.092787,-0.019558,0.045827,0.000000,0.000000,0.000000,0.000000,819,819,819,819
12616,1,3.051054,-0.044724,-2.908155,0.00,-0.00,-0.001877,0.004000,0.000000,0.000000,0.000000,0.077383,-0.013097,0.060283,0.000000,0.000000,0.000000,0.000000,819,819,819,819
12636,1,3.055417,-0.044724,-2.908155,0.00,-0.00,-0.003985,0.004000,0.000000,0.000000,0.000000,0.061953,-0.005943,0.082112,0.000000,0.000000,0.000000,0.000000,819,819,819,819
12656,1,3.060871,-0.046906,-2.909246,0.00,-0.00,-0.004803,0.004000,0.000000,0.000000,0.000000,0.046499,0.002931,0.090784,0.000000,0.000000,0.000000,0.000000,819,819,819,819
12676,1,3.066325,-0.047997,-2.909246,0.00,-0.00,-0.005606,0.004000,0.000000,0.000000,0.000000,0.031020,0.011313,0.099359,0.000000,0.000000,0.000000,0.000000,819,819,819,819
12697,1,3.072870,-0.050178,-2.910337,0.00,-0.00,-0.005599,0.004000,0.000000,0.000000,0.000000,0.015517,0.020738,0.099642,0.000000,0.000000,0.000000,0.000000,819,819,819,819
12719,1,-3.200498,-0.050178,-2.910337,-0.00,-0.00,-0.005019,0.004000,0.000000,0.000000,0.000000,0.300000,0.028816,0.094021,0.000000,0.000000,0.000000,0.000000,819,819,819,819
12738,1,-3.195043,-0.050178,-2.911427,-0.00,-0.00,-0.004065,0.004000,0.000000,0.000000,0.000000,0.300000,0.036907,0.084516,0.000000,0.000000,0.000000,0.000000,819,819,819,819
12757,1,-3.193953,-0.049087,-2.911427,-0.00,-0.00,-0.002869,0.004000,0.000000,0.000000,0.000000,0.300000,0.044155,0.072456,0.000000,0.000000,0.000000,0.000000,819,819,819,819
12777,1,-3.192862,-0.049087,-2.913609,-0.00,-0.00,-0.001579,0.004000,0.000000,0.000000,0.000000,0.300000,0.052094,0.059352,0.000000,0.000000,0.000000,0.000000,819,819,819,819
12797,1,-3.195043,-0.047997,-2.913609,-0.00,-0.00,-0.000346,0.004000,0.000000,0.000000,0.000000,0.300000,0.059190,0.046757,0.000000,0.000000,0.000000,0.000000,819,819,819,819
12817,1,-3.198316,-0.047997,-2.913609,-0.00,-0.00,0.000312,0.004000,0.000000,0.000000,0.000000,0.300000,0.066978,0.040005,0.000000,0.000000,0.000000,0.000000,819,819,819,819
12837,1,-3.201588,-0.046906,-2.913609,-0.00,-0.00,0.001555,0.004000,0.000000,0.000000,0.000000,0.300000,0.073920,0.027180,0.000000,0.000000,0.000000,0.000000,819,819,819,819
12856,1,-3.205952,-0.047997,-2.913609,-0.00,-0.00,0.002139,0.004000,0.000000,0.000000,0.000000,0.300000,0.082413,0.021069,0.000000,0.000000,0.000000,0.000000,819,819,819,819
12877,1,3.070689,-0.050178,-2.916882,0.00,-0.00,0.002987,0.004000,0.000000,0.000000,0.000000,0.124847,0.091953,0.012202,0.000000,0.000000,0.000000,0.000000,819,819,819,819
12897,1,3.063053,-0.053451,-2.916882,0.00,-0.00,0.003400,0.004000,0.000000,0.000000,0.000000,0.109097,0.102721,0.007755,0.000000,0.000000,0.000000,0.000000,819,819,819,819
12917,1,3.058690,-0.054542,-2.920154,0.00,-0.00,0.003452,0.004000,0.000000,0.000000,0.000000,0.093324,0.112321,0.006999,0.000000,0.000000,0.000000,0.000000,819,819,819,819
12937,1,3.055417,-0.054542,-2.920154,0.00,-0.00,0.003051,0.004000,0.000000,0.000000,0.000000,0.077527,0.121255,0.010904,0.000000,0.000000,0.000000,0.000000,819,819,819,819
12957,1,3.047781,-0.056723,-2.919063,0.00,-0.00,0.002743,0.004000,0.000000,0.000000,0.000000,0.061705,0.131921,0.013885,0.000000,0.000000,0.000000,0.000000,819,819,819,819
12977,1,3.036873,-0.058905,-2.920154,0.00,-0.00,0.001676,0.004000,0.000000,0.000000,0.000000,0.045858,0.142959,0.024694,0.000000,0.000000,0.000000,0.000000,819,819,819,819
12998,1,3.035782,-0.056723,-2.920154,0.00,-0.00,0.000685,0.004000,0.000000,0.000000,0.000000,0.029986,0.150935,0.034780,0.000000,0.000000,0.000000,0.000000,819,819,819,819
13017,1,3.035782,-0.055632,-2.922336,0.00,-0.00,0.000137,0.004000,0.000000,0.000000,0.000000,0.014091,0.159424,0.040381,0.000000,0.000000,0.000000,0.000000,819,819,819,819
13037,1,3.036873,-0.056723,-2.922336,0.00,-0.00,-0.000978,0.004000,0.000000,0.000000,0.000000,-0.001830,0.169468,0.051851,0.000000,0.000000,0.000000,0.000000,819,819,819,819
13057,1,3.033600,-0.056723,-2.922336,0.00,-0.00,-0.001444,0.004000,0.000000,0.000000,0.000000,-0.017774,0.178847,0.056719,0.000000,0.000000,0.000000,0.000000,819,819,819,819
13082,1,3.033600,-0.058905,-2.925608,0.00,-0.00,-0.002117,0.004000,0.000000,0.000000,0.000000,-0.033748,0.189965,0.063732,0.000000,0.000000,0.000000,0.000000,819,819,819,819
13102,1,3.035782,-0.059996,-2.925608,0.00,-0.00,-0.002297,0.004000,0.000000,0.000000,0.000000,-0.049748,0.200600,0.065724,0.000000,0.000000,0.000000,0.000000,819,819,819,819
13122,1,3.036873,-0.061087,-2.928881,0.00,-0.00,-0.002135,0.004000,0.000000,0.000000,0.000000,-0.065772,0.211430,0.064206,0.000000,0.000000,0.000000,0.000000,819,819,819,819
13141,1,3.039055,-0.061087,-2.928881,0.00,-0.00,-0.001752,0.004000,0.000000,0.000000,0.000000,-0.081819,0.221596,0.060406,0.000000,0.000000,0.000000,0.000000,819,819,819,819
13160,1,3.040145,-0.059996,-2.934335,0.00,-0.00,-0.001127,0.004000,0.000000,0.000000,0.000000,-0.097890,0.230915,0.054089,0.000000,0.000000,0.000000,0.000000,819,819,819,819
13179,1,3.040145,-0.058905,-2.934335,0.00,-0.00,-0.000500,0.004000,0.000000,0.000000,0.000000,-0.113984,0.240067,0.047703,0.000000,0.000000,0.000000,0.000000,819,819,819,819
13199,1,3.040145,-0.058905,-2.934335,0.00,-0.00,0.000220,0.004000,0.000000,0.000000,0.000000,-0.130102,0.249913,0.040329,0.000000,0.000000,0.000000,0.000000,819,819,819,819
13218,1,3.040145,-0.058905,-2.937608,0.00,-0.00,0.000790,0.004000,0.000000,0.000000,0.000000,-0.146244,0.259774,0.034444,0.000000,0.000000,0.000000,0.000000,819,819,819,819
13238,1,3.039055,-0.059996,-2.937608,0.00,-0.00,0.001346,0.004000,0.000000,0.000000,0.000000,-0.162410,0.270513,0.028671,0.000000,0.000000,0.000000,0.000000,819,819,819,819
13257,1,3.036873,-0.061087,-2.937608,0.00,-0.00,0.001594,0.004000,0.000000,0.000000,0.000000,-0.178599,0.281449,0.026028,0.000000,0.000000,0.000000,0.000000,819,819,819,819
13278,1,3.034691,-0.061087,-2.943062,0.00,-0.00,0.001629,0.004000,0.000000,0.000000,0.000000,-0.194814,0.291723,0.025568,0.000000,0.000000,0.000000,0.000000,819,819,819,819
13298,1,3.032510,-0.062177,-2.943062,0.00,-0.00,0.001422,0.004000,0.000000,0.000000,0.000000,-0.211053,0.300000,0.027584,0.000000,0.000000,0.000000,0.000000,819,819,819,819
13318,1,3.030328,-0.061087,-2.944153,0.00,-0.00,0.001274,0.004000,0.000000,0.000000,0.000000,-0.227317,0.300000,0.029012,0.000000,0.000000,0.000000,0.000000,819,819,819,819
13338,1,3.029237,-0.061087,-2.944153,0.00,-0.00,0.000697,0.004000,0.000000,0.000000,0.000000,-0.243605,0.300000,0.034875,0.000000,0.000000,0.000000,0.000000,819,819,819,819
13358,1,3.028146,-0.059996,-2.944153,0.00,-0.00,0.000170,0.004000,0.000000,0.000000,0.000000,-0.259918,0.300000,0.040250,0.000000,0.000000,0.000000,0.000000,819,819,819,819
13378,1,3.028146,-0.059996,-2.945243,0.00,-0.00,-0.000377,0.004000,0.000000,0.000000,0.000000,-0.276256,0.300000,0.045869,0.000000,0.000000,0.000000,0.000000,819,819,819,819
13399,1,3.028146,-0.061087,-2.945243,0.00,-0.00,-0.000837,0.004000,0.000000,0.000000,0.000000,-0.292618,0.300000,0.050625,0.000000,0.000000,0.000000,0.000000,819,819,819,819
13418,1,3.029237,-0.061087,-2.946334,0.00,-0.00,-0.001020,0.004000,0.000000,0.000000,0.000000,-0.300000,0.300000,0.052567,0.000000,0.000000,0.000000,0.000000,819,819,819,819
13439,1,3.030328,-0.062177,-2.946334,0.00,-0.00,-0.001194,0.004000,0.000000,0.000000,0.000000,-0.300000,0.300000,0.054423,0.000000,0.000000,0.000000,0.000000,819,819,819,819
13458,1,3.031419,-0.062177,-2.946334,0.00,-0.00,-0.001198,0.004000,0.000000,0.000000,0.000000,-0.300000,0.300000,0.054547,0.000000,0.000000,0.000000,0.000000,819,819,819,819
13479,1,3.032510,-0.062177,-2.947425,0.00,-0.00,-0.000956,0.004000,0.000000,0.000000,0.000000,-0.300000,0.300000,0.052129,0.000000,0.000000,0.000000,0.000000,819,819,819,819
13499,1,3.033600,-0.062177,-2.947425,0.00,-0.00,-0.000587,0.004000,0.000000,0.000000,0.000000,-0.300000,0.300000,0.048402,0.000000,0.000000,0.000000,0.000000,819,819,819,819
13519,1,3.033600,-0.061087,-2.951788,0.00,-0.00,-0.000133,0.004000,0.000000,0.000000,0.000000,-0.300000,0.300000,0.043766,0.000000,0.000000,0.000000,0.000000,819,819,819,819
13539,1,3.033600,-0.061087,-2.951788,0.00,-0.00,0.000263,0.004000,0.000000,0.000000,0.000000,-0.300000,0.300000,0.039705,0.000000,0.000000,0.000000,0.000000,819,819,819,819
13558,1,3.032510,-0.061087,-2.951788,0.00,-0.00,0.000479,0.004000,0.000000,0.000000,0.000000,-0.300000,0.300000,0.037463,0.000000,0.000000,0.000000,0.000000,819,819,819,819
13579,1,3.032510,-0.062177,-2.952879,0.00,-0.00,0.000827,0.004000,0.000000,0.000000,0.000000,-0.300000,0.300000,0.033852,0.000000,0.000000,0.000000,0.000000,819,819,819,819
13599,1,3.030328,-0.062177,-2.952879,0.00,-0.00,0.000927,0.004000,0.000000,0.000000,0.000000,-0.300000,0.300000,0.032767,0.000000,0.000000,0.000000,0.000000,819,819,819,819
13619,1,3.029237,-0.062177,-2.953970,0.00,-0.00,0.000977,0.004000,0.000000,0.000000,0.000000,-0.300000,0.300000,0.032184,0.000000,0.000000,0.000000,0.000000,819,819,819,819
13639,1,3.028146,-0.062177,-2.953970,0.00,-0.00,0.000759,0.004000,0.000000,0.000000,0.000000,-0.300000,0.300000,0.034365,0.000000,0.000000,0.000000,0.000000,819,819,819,819
13659,1,3.027056,-0.062177,-2.953970,0.00,-0.00,0.000456,0.004000,0.000000,0.000000,0.000000,-0.300000,0.300000,0.037426,0.000000,0.000000,0.000000,0.000000,819,819,819,819
13679,1,3.027056,-0.062177,-2.958333,0.00,-0.00,0.000183,0.004000,0.000000,0.000000,0.000000,-0.300000,0.300000,0.040211,0.000000,0.000000,0.000000,0.000000,819,819,819,819
13703,1,3.027056,-0.062177,-2.958333,0.00,-0.00,-0.000192,0.004000,0.000000,0.000000,0.000000,-0.300000,0.300000,0.044053,0.000000,0.000000,0.000000,0.000000,819,819,819,819
13724,1,3.027056,-0.062177,-2.960515,0.00,-0.00,-0.000465,0.004000,0.000000,0.000000,0.000000,-0.300000,0.300000,0.046873,0.000000,0.000000,0.000000,0.000000,819,819,819,819
13743,1,3.027056,-0.062177,-2.960515,0.00,-0.00,-0.000626,0.004000,0.000000,0.000000,0.000000,-0.300000,0.300000,0.048563,0.000000,0.000000,0.000000,0.000000,819,819,819,819
13762,1,3.028146,-0.062177,-2.960515,0.00,-0.00,-0.000734,0.004000,0.000000,0.000000,0.000000,-0.300000,0.300000,0.049721,0.000000,0.000000,0.000000,0.000000,819,819,819,819
13781,1,3.029237,-0.062177,-2.960515,0.00,-0.00,-0.000726,0.004000,0.000000,0.000000,0.000000,-0.300000,0.300000,0.049681,0.000000,0.000000,0.000000,0.000000,819,819,819,819
13801,1,3.029237,-0.062177,-2.960515,0.00,-0.00,-0.000556,0.004000,0.000000,0.000000,0.000000,-0.300000,0.300000,0.047990,0.000000,0.000000,0.000000,0.000000,819,819,819,819
13820,1,3.029237,-0.062177,-2.960515,0.00,-0.00,-0.000370,0.004000,0.000000,0.000000,0.000000,-0.300000,0.300000,0.046113,0.000000,0.000000,0.000000,0.000000,819,819,819,819
13840,1,3.029237,-0.062177,-2.960515,0.00,-0.00,-0.000120,0.004000,0.000000,0.000000,0.000000,-0.300000,0.300000,0.043562,0.000000,0.000000,0.000000,0.000000,819,819,819,819
13860,1,3.029237,-0.062177,-2.960515,0.00,-0.00,0.000174,0.004000,0.000000,0.000000,0.000000,-0.300000,0.300000,0.040549,0.000000,0.000000,0.000000,0.000000,819,819,819,819
13880,1,3.029237,-0.062177,-2.962696,0.00,-0.00,0.000431,0.004000,0.000000,0.000000,0.000000,-0.300000,0.300000,0.037896,0.000000,0.000000,0.000000,0.000000,819,819,819,819
13900,1,3.028146,-0.062177,-2.962696,0.00,-0.00,0.000604,0.004000,0.000000,0.000000,0.000000,-0.300000,0.300000,0.036085,0.000000,0.000000,0.000000,0.000000,819,819,819,819
13920,1,3.028146,-0.062177,-2.967060,0.00,-0.00,0.000654,0.004000,0.000000,0.000000,0.000000,-0.300000,0.300000,0.035530,0.000000,0.000000,0.000000,0.000000,819,819,819,819
13940,1,3.027056,-0.062177,-2.967060,0.00,-0.00,0.000588,0.004000,0.000000,0.000000,0.000000,-0.300000,0.300000,0.036165,0.000000,0.000000,0.000000,0.000000,819,819,819,819
