t,is_crashed,roll,pitch,yaw,p,q,r,throttle,p_cmd,q_cmd,r_cmd,roll_cmd,pitch_cmd,yaw_cmd,roll_pid_out,pitch_pid_out,yaw_pid_out,motor_fl,motor_bl,motor_fr,motor_br,pwm_fl,pwm_bl,pwm_fr,pwm_br
6954,0,0.005672,0.006545,1.256419,0.00,-0.00,-0.000005,0.006000,-0.000283,-0.000327,0.000000,0.000000,0.000000,0.000000,0.000695,-0.000001,0.000000,0.000000,0.000000,0.000000,0.000000,0,0,0,0
6966,0,0.009076,0.010472,2.261554,0.00,0.00,-0.000010,0.006000,-0.000340,-0.000442,0.000000,0.000000,0.000000,0.000000,0.004286,-0.000006,0.000000,0.000000,0.000000,0.000000,0.000000,819,819,819,819
6975,0,0.011798,0.013614,3.065662,0.00,0.00,-0.000009,0.006000,-0.000367,-0.000520,0.000000,0.000000,0.000000,0.000000,0.007687,-0.000011,0.000000,0.000000,0.000000,0.000000,0.000000,819,819,819,819
6985,0,0.013977,0.016127,-2.574237,0.00,0.00,-0.000008,0.006000,-0.000410,-0.000599,0.000000,0.000000,0.000000,0.000000,0.009773,-0.000014,0.000000,0.000000,0.000000,0.000000,0.000000,819,819,819,819
6995,0,0.015719,0.018137,-2.059607,0.00,0.00,-0.000000,0.006000,-0.000456,-0.000670,0.000000,0.000000,0.000000,0.000000,0.011122,-0.000016,0.000000,0.000000,0.000000,0.000000,0.000000,819,819,819,819
7005,0,0.017113,0.019746,-1.647904,0.00,0.00,0.000007,0.006000,-0.000503,-0.000734,0.000000,0.000000,0.000000,0.000000,0.011922,-0.000017,-0.000000,0.000000,0.000000,0.000000,0.000000,819,819,819,819
7015,0,0.018228,0.021033,-1.318541,0.00,0.00,0.000012,0.006000,-0.000550,-0.000791,0.000000,0.000000,0.000000,0.000000,0.012304,-0.000018,-0.000000,0.000000,0.000000,0.000000,0.000000,819,819,819,819
7025,0,0.019121,0.022062,-1.055051,0.00,0.00,0.000012,0.006000,-0.000594,-0.000843,0.000000,0.000000,0.000000,0.000000,0.012396,-0.000018,-0.000000,0.000000,0.000000,0.000000,0.000000,819,819,819,819
7035,0,0.019834,0.022886,-0.844259,0.00,0.00,0.000009,0.006000,-0.000638,-0.000889,0.000000,0.000000,0.000000,0.000000,0.012264,-0.000018,-0.000000,0.000000,0.000000,0.000000,0.000000,819,819,819,819
7045,0,0.020405,0.023545,-0.675626,0.00,0.00,0.000010,0.006000,-0.000679,-0.000931,0.000000,0.000000,0.000000,0.000000,0.011973,-0.000017,-0.000000,0.000000,0.000000,0.000000,0.000000,819,819,819,819
7055,0,0.020862,0.024072,-0.540719,0.00,0.00,0.000006,0.006000,-0.000717,-0.000969,0.000000,0.000000,0.000000,0.000000,0.011576,-0.000017,-0.000000,0.000000,0.000000,0.000000,0.000000,819,819,819,819
7065,0,0.021228,0.024493,-0.432793,0.00,0.00,0.000003,0.006000,-0.000754,-0.001003,0.000000,0.000000,0.000000,0.000000,0.011112,-0.000016,-0.000000,0.000000,0.000000,0.000000,0.000000,819,819,819,819
7075,0,0.021520,0.024831,-0.346453,0.00,0.00,0.000005,0.006000,-0.000787,-0.001034,0.000000,0.000000,0.000000,0.000000,0.010604,-0.000015,-0.000000,0.000000,0.000000,0.000000,0.000000,819,819,819,819
7085,0,0.021754,0.025101,-0.277381,0.00,0.00,0.000008,0.006000,-0.000819,-0.001062,0.000000,0.000000,0.000000,0.000000,0.010083,-0.000014,-0.000000,0.000000,0.000000,0.000000,0.000000,819,819,819,819
7095,0,0.021941,0.025316,-0.222123,0.00,0.00,0.000007,0.006000,-0.000847,-0.001087,0.000000,0.000000,0.000000,0.000000,0.009567,-0.000014,-0.000000,0.000000,0.000000,0.000000,0.000000,819,819,819,819
7105,0,0.022091,0.025489,-0.177917,0.00,0.00,0.000005,0.006000,-0.000873,-0.001109,0.000000,0.000000,0.000000,0.000000,0.009055,-0.000013,-0.000000,0.000000,0.000000,0.000000,0.000000,819,819,819,819
7115,0,0.022210,0.025627,-0.142552,0.00,0.00,-0.000005,0.006000,-0.000898,-0.001129,0.000000,0.000000,0.000000,0.000000,0.008560,-0.000012,0.000000,0.000000,0.000000,0.000000,0.000000,819,819,819,819
7125,0,0.022306,0.025738,-0.114260,0.00,0.00,-0.000021,0.006000,-0.000920,-0.001147,0.000000,0.000000,0.000000,0.000000,0.008086,-0.000011,0.000000,0.000000,0.000000,0.000000,0.000000,819,819,819,819
7135,0,0.022383,0.025826,-0.091626,0.00,0.00,-0.000039,0.006000,-0.000940,-0.001163,0.000000,0.000000,0.000000,0.000000,0.007633,-0.000011,0.000000,0.000000,0.000000,0.000000,0.000000,819,819,819,819
7145,0,0.022662,0.025897,-0.073519,0.00,0.00,-0.000051,0.006000,-0.000961,-0.001177,0.000000,0.000000,0.000000,0.000000,0.007475,-0.000010,0.000000,0.000000,0.000000,0.000000,0.000000,819,819,819,819
7155,0,0.022886,0.025954,-0.059034,0.00,0.00,-0.000054,0.006000,-0.000980,-0.001190,0.000000,0.000000,0.000000,0.000000,0.007271,-0.000010,0.000000,0.000000,0.000000,0.000000,0.000000,819,819,819,819
7165,0,0.023065,0.025999,-0.047445,0.00,0.00,-0.000050,0.006000,-0.000998,-0.001202,0.000000,0.000000,0.000000,0.000000,0.007031,-0.000009,0.000000,0.000000,0.000000,0.000000,0.000000,819,819,819,819
7175,0,0.023208,0.026035,-0.038174,0.00,0.00,-0.000038,0.006000,-0.001015,-0.001213,0.000000,0.000000,0.000000,0.000000,0.006781,-0.000009,0.000000,0.000000,0.000000,0.000000,0.000000,819,819,819,819
7188,0,0.023322,0.026064,-0.030758,0.00,0.00,-0.000029,0.006000,-0.001032,-0.001222,0.000000,0.000000,0.000000,0.000000,0.006485,-0.000008,0.000000,0.000000,0.000000,0.000000,0.000000,819,819,819,819
7202,0,0.023414,0.026087,-0.024824,0.00,0.00,-0.000030,0.006000,-0.001047,-0.001231,0.000000,0.000000,0.000000,0.000000,0.006199,-0.000008,0.000000,0.000000,0.000000,0.000000,0.000000,819,819,819,819
7213,0,0.023487,0.026106,-0.020078,0.00,0.00,-0.000036,0.006000,-0.001060,-0.001238,0.000000,0.000000,0.000000,0.000000,0.005931,-0.000007,0.000000,0.000000,0.000000,0.000000,0.000000,819,819,819,819
7225,0,0.023546,0.026121,-0.016280,0.00,0.00,-0.000045,0.006000,-0.001072,-0.001245,0.000000,0.000000,0.000000,0.000000,0.005685,-0.000007,0.000000,0.000000,0.000000,0.000000,0.000000,819,819,819,819
7236,0,0.023593,0.026132,-0.013243,0.00,0.00,-0.000039,0.006000,-0.001083,-0.001251,0.000000,0.000000,0.000000,0.000000,0.005450,-0.000007,0.000000,0.000000,0.000000,0.000000,0.000000,819,819,819,819
7245,0,0.023630,0.026142,-0.010812,0.00,0.00,-0.000030,0.006000,-0.001093,-0.001257,0.000000,0.000000,0.000000,0.000000,0.005231,-0.000006,0.000000,0.000000,0.000000,0.000000,0.000000,819,819,819,819
7255,0,0.023660,0.026150,-0.008868,0.00,0.00,-0.000011,0.006000,-0.001102,-0.001262,0.000000,0.000000,0.000000,0.000000,0.005038,-0.000006,0.000000,0.000000,0.000000,0.000000,0.000000,819,819,819,819
7265,0,0.023684,0.026156,-0.007313,0.00,0.00,0.000003,0.006000,-0.001110,-0.001267,0.000000,0.000000,0.000000,0.000000,0.004848,-0.000006,-0.000000,0.000000,0.000000,0.000000,0.000000,819,819,819,819
7275,0,0.023703,0.026160,-0.006069,0.00,0.00,0.000010,0.006000,-0.001117,-0.001271,0.000000,0.000000,0.000000,0.000000,0.004665,-0.000006,-0.000000,0.000000,0.000000,0.000000,0.000000,819,819,819,819
7286,0,0.023719,0.026164,-0.005073,0.00,0.00,0.000007,0.006000,-0.001124,-0.001274,0.000000,0.000000,0.000000,0.000000,0.004497,-0.000006,-0.000000,0.000000,0.000000,0.000000,0.000000,819,819,819,819
7295,0,0.023731,0.026168,-0.004277,0.00,0.00,-0.000003,0.006000,-0.001130,-0.001278,0.000000,0.000000,0.000000,0.000000,0.004345,-0.000005,0.000000,0.000000,0.000000,0.000000,0.000000,819,819,819,819
7305,0,0.023741,0.026170,-0.003640,0.00,0.00,-0.000008,0.006000,-0.001136,-0.001281,0.000000,0.000000,0.000000,0.000000,0.004201,-0.000005,0.000000,0.000000,0.000000,0.000000,0.000000,819,819,819,819
7316,0,0.023749,0.026172,-0.003130,0.00,0.00,-0.000007,0.006000,-0.001141,-0.001284,0.000000,0.000000,0.000000,0.000000,0.004068,-0.000005,0.000000,0.000000,0.000000,0.000000,0.000000,819,819,819,819
7326,0,0.023755,0.026174,-0.002722,0.00,0.00,-0.000003,0.006000,-0.001146,-0.001287,0.000000,0.000000,0.000000,0.000000,0.003946,-0.000005,0.000000,0.000000,0.000000,0.000000,0.000000,819,819,819,819
7336,0,0.023760,0.026175,-0.002396,0.00,0.00,0.000006,0.006000,-0.001150,-0.001289,0.000000,0.000000,0.000000,0.000000,0.003843,-0.000005,-0.000000,0.000000,0.000000,0.000000,0.000000,819,819,819,819
7346,0,0.023764,0.026176,-0.002135,0.00,0.00,0.000017,0.006000,-0.001154,-0.001291,0.000000,0.000000,0.000000,0.000000,0.003742,-0.000005,-0.000000,0.000000,0.000000,0.000000,0.000000,819,819,819,819
7356,0,0.023767,0.026177,-0.001927,0.00,0.00,0.000026,0.006000,-0.001157,-0.001293,0.000000,0.000000,0.000000,0.000000,0.003645,-0.000005,-0.000000,0.000000,0.000000,0.000000,0.000000,819,819,819,819
7366,0,0.023770,0.026177,-0.001759,0.00,0.00,0.000020,0.006000,-0.001160,-0.001294,0.000000,0.000000,0.000000,0.000000,0.003569,-0.000004,-0.000000,0.000000,0.000000,0.000000,0.000000,819,819,819,819
7375,0,0.023772,0.026178,-0.001626,0.00,0.00,0.000009,0.006000,-0.001163,-0.001296,0.000000,0.000000,0.000000,0.000000,0.003500,-0.000004,-0.000000,0.000000,0.000000,0.000000,0.000000,819,819,819,819
7386,0,0.023774,0.026178,-0.001519,0.00,0.00,0.000004,0.006000,-0.001165,-0.001297,0.000000,0.000000,0.000000,0.000000,0.003433,-0.000004,-0.000000,0.000000,0.000000,0.000000,0.000000,819,819,819,819
7396,0,0.023775,0.026179,-0.001433,0.00,0.00,0.000004,0.006000,-0.001167,-0.001298,0.000000,0.000000,0.000000,0.000000,0.003373,-0.000004,-0.000000,0.000000,0.000000,0.000000,0.000000,819,819,819,819
7406,0,0.023776,0.026179,-0.001365,0.00,0.00,0.000007,0.006000,-0.001169,-0.001300,0.000000,0.000000,0.000000,0.000000,0.003318,-0.000004,-0.000000,0.000000,0.000000,0.000000,0.000000,819,819,819,819
7416,0,0.023777,0.026179,-0.001310,0.00,0.00,0.000014,0.006000,-0.001171,-0.001301,0.000000,0.000000,0.000000,0.000000,0.003264,-0.000004,-0.000000,0.000000,0.000000,0.000000,0.000000,819,819,819,819
7426,0,0.023777,0.026179,-0.001267,0.00,0.00,0.000016,0.006000,-0.001173,-0.001302,0.000000,0.000000,0.000000,0.000000,0.003219,-0.000004,-0.000000,0.000000,0.000000,0.000000,0.000000,819,819,819,819
7436,0,0.023778,0.026179,-0.001231,0.00,0.00,0.000020,0.006000,-0.001175,-0.001302,0.000000,0.000000,0.000000,0.000000,0.003174,-0.000004,-0.000000,0.000000,0.000000,0.000000,0.000000,819,819,819,819
7446,0,0.023778,0.026180,-0.001203,0.00,0.00,0.000022,0.006000,-0.001176,-0.001303,0.000000,0.000000,0.000000,0.000000,0.003134,-0.000004,-0.000000,0.000000,0.000000,0.000000,0.000000,819,819,819,819
7456,0,0.023779,0.026180,-0.001181,0.00,0.00,0.000016,0.006000,-0.001177,-0.001304,0.000000,0.000000,0.000000,0.000000,0.003097,-0.000004,-0.000000,0.000000,0.000000,0.000000,0.000000,819,819,819,819
7466,0,0.023779,0.026180,-0.001163,0.00,0.00,0.000018,0.006000,-0.001179,-0.001304,0.000000,0.000000,0.000000,0.000000,0.003056,-0.000004,-0.000000,0.000000,0.000000,0.000000,0.000000,819,819,819,819
7476,0,0.023779,0.026180,-0.001148,0.00,0.00,0.000024,0.006000,-0.001180,-0.001305,0.000000,0.000000,0.000000,0.000000,0.003022,-0.000004,-0.000000,0.000000,0.000000,0.000000,0.000000,819,819,819,819
7486,0,0.023779,0.026180,-0.001137,0.00,0.00,0.000021,0.006000,-0.001181,-0.001305,0.000000,0.000000,0.000000,0.000000,0.002996,-0.000004,-0.000000,0.000000,0.000000,0.000000,0.000000,819,819,819,819
7496,0,0.023780,0.026180,-0.001128,0.00,0.00,0.000021,0.006000,-0.001181,-0.001306,0.000000,0.000000,0.000000,0.000000,0.002980,-0.000004,-0.000000,0.000000,0.000000,0.000000,0.000000,819,819,819,819
7511,0,0.023780,0.026180,-0.001121,0.00,0.00,0.000017,0.006000,-0.001182,-0.001306,0.000000,0.000000,0.000000,0.000000,0.002964,-0.000004,-0.000000,0.000000,0.000000,0.000000,0.000000,819,819,819,819
7525,0,0.023780,0.026180,-0.001115,0.00,0.00,0.000016,0.006000,-0.001183,-0.001307,0.000000,0.000000,0.000000,0.000000,0.002938,-0.000004,-0.000000,0.000000,0.000000,0.000000,0.000000,819,819,819,819
7536,0,0.023780,0.026180,-0.001110,0.00,0.00,0.000011,0.006000,-0.001183,-0.001307,0.000000,0.000000,0.000000,0.000000,0.002922,-0.000004,-0.000000,0.000000,0.000000,0.000000,0.000000,819,819,819,819
7546,0,0.023780,0.026180,-0.001106,0.00,0.00,0.000019,0.006000,-0.001183,-0.001307,0.000000,0.000000,0.000000,0.000000,0.002912,-0.000004,-0.000000,0.000000,0.000000,0.000000,0.000000,819,819,819,819
7556,0,0.023780,0.026180,-0.001103,0.00,0.00,0.000026,0.006000,-0.001184,-0.001307,0.000000,0.000000,0.000000,0.000000,0.002903,-0.000004,-0.000000,0.000000,0.000000,0.000000,0.000000,819,819,819,819
7566,0,0.023780,0.026180,-0.001101,0.00,0.00,0.000038,0.006000,-0.001184,-0.001308,0.000000,0.000000,0.000000,0.000000,0.002891,-0.000004,-0.000000,0.000000,0.000000,0.000000,0.000000,819,819,819,819
7576,0,0.023780,0.026180,-0.001099,0.00,0.00,0.000047,0.006000,-0.001185,-0.001308,0.000000,0.000000,0.000000,0.000000,0.002876,-0.000004,-0.000000,0.000000,0.000000,0.000000,0.000000,819,819,819,819
7586,0,0.023780,0.026180,-0.001097,0.00,0.00,0.000052,0.006000,-0.001185,-0.001307,0.000000,0.000000,0.000000,0.000000,0.002866,-0.000004,-0.000000,0.000000,0.000000,0.000000,0.000000,819,819,819,819
7596,0,0.023780,0.026180,-0.001096,0.00,0.00,0.000041,0.006000,-0.001185,-0.001308,0.000000,0.000000,0.000000,0.000000,0.002860,-0.000004,-0.000000,0.000000,0.000000,0.000000,0.000000,819,819,819,819
7606,0,0.023780,0.026180,-0.001095,0.00,0.00,0.000032,0.006000,-0.001185,-0.001308,0.000000,0.000000,0.000000,0.000000,0.002855,-0.000004,-0.000000,0.000000,0.000000,0.000000,0.000000,819,819,819,819
7616,0,0.023780,0.026180,-0.001095,0.00,0.00,0.000023,0.006000,-0.001186,-0.001308,0.000000,0.000000,0.000000,0.000000,0.002839,-0.000004,-0.000000,0.000000,0.000000,0.000000,0.000000,819,819,819,819
7626,0,0.023780,0.026180,-0.001094,0.00,0.00,0.000023,0.006000,-0.001186,-0.001309,0.000000,0.000000,0.000000,0.000000,0.002832,-0.000004,-0.000000,0.000000,0.000000,0.000000,0.000000,819,819,819,819
7636,0,0.023780,0.026180,-0.001093,0.00,0.00,0.000032,0.006000,-0.001186,-0.001309,0.000000,0.000000,0.000000,0.000000,0.002821,-0.000004,-0.000000,0.000000,0.000000,0.000000,0.000000,819,819,819,819
7646,0,0.023780,0.026180,-0.001093,0.00,0.00,0.000032,0.006000,-0.001187,-0.001309,0.000000,0.000000,0.000000,0.000000,0.002808,-0.000004,-0.000000,0.000000,0.000000,0.000000,0.000000,819,819,819,819
7656,0,0.023780,0.026180,-0.001092,0.00,0.00,0.000035,0.006000,-0.001186,-0.001309,0.000000,0.000000,0.000000,0.000000,0.002815,-0.000004,-0.000000,0.000000,0.000000,0.000000,0.000000,819,819,819,819
7666,0,0.023780,0.026180,-0.001092,0.00,0.00,0.000033,0.006000,-0.001186,-0.001309,0.000000,0.000000,0.000000,0.000000,0.002809,-0.000004,-0.000000,0.000000,0.000000,0.000000,0.000000,819,819,819,819
7676,0,0.023780,0.026180,-0.001092,0.00,0.00,0.000030,0.006000,-0.001187,-0.001309,0.000000,0.000000,0.000000,0.000000,0.002804,-0.000004,-0.000000,0.000000,0.000000,0.000000,0.000000,819,819,819,819
7687,0,0.023780,0.026180,-0.001092,0.00,0.00,0.000027,0.006000,-0.001187,-0.001309,0.000000,0.000000,0.000000,0.000000,0.002791,-0.000004,-0.000000,0.000000,0.000000,0.000000,0.000000,819,819,819,819
7697,0,0.023780,0.026180,-0.001092,0.00,0.00,0.000025,0.006000,-0.001187,-0.001309,0.000000,0.000000,0.000000,0.000000,0.002788,-0.000004,-0.000000,0.000000,0.000000,0.000000,0.000000,819,819,819,819
7706,0,0.023780,0.026180,-0.001092,0.00,-0.00,0.000019,0.006000,-0.001187,-0.001309,0.000000,0.000000,0.000000,0.000000,0.002776,-0.000004,-0.000000,0.000000,0.000000,0.000000,0.000000,819,819,819,819
7717,0,0.023780,0.026180,-0.001092,0.00,-0.00,0.000020,0.006000,-0.001188,-0.001309,0.000000,0.000000,0.000000,0.000000,0.002762,-0.000004,-0.000000,0.000000,0.000000,0.000000,0.000000,819,819,819,819
7727,0,0.023780,0.026180,-0.001092,0.00,-0.00,0.000022,0.006000,-0.001187,-0.001309,0.000000,0.000000,0.000000,0.000000,0.002768,-0.000004,-0.000000,0.000000,0.000000,0.000000,0.000000,819,819,819,819
7737,0,0.023780,0.026180,-0.001092,0.00,-0.00,0.000022,0.006000,-0.001187,-0.001309,0.000000,0.000000,0.000000,0.000000,0.002766,-0.000004,-0.000000,0.000000,0.000000,0.000000,0.000000,819,819,819,819
7747,0,0.023780,0.026180,-0.001092,0.00,-0.00,0.000020,0.006000,-0.001187,-0.001309,0.000000,0.000000,0.000000,0.000000,0.002768,-0.000003,-0.000000,0.000000,0.000000,0.000000,0.000000,819,819,819,819
7757,0,0.023780,0.026180,-0.001092,0.00,-0.00,0.000018,0.006000,-0.001188,-0.001309,0.000000,0.000000,0.000000,0.000000,0.002761,-0.000004,-0.000000,0.000000,0.000000,0.000000,0.000000,819,819,819,819
7767,0,0.023780,0.026180,-0.001092,0.00,-0.00,0.000018,0.006000,-0.001188,-0.001309,0.000000,0.000000,0.000000,0.000000,0.002755,-0.000003,-0.000000,0.000000,0.000000,0.000000,0.000000,819,819,819,819
7777,0,0.023780,0.026180,-0.001092,0.00,-0.00,0.000022,0.006000,-0.001188,-0.001309,0.000000,0.000000,0.000000,0.000000,0.002754,-0.000003,-0.000000,0.000000,0.000000,0.000000,0.000000,819,819,819,819
7789,0,0.023780,0.026180,-0.001092,0.00,-0.00,0.000023,0.006000,-0.001187,-0.001309,0.000000,0.000000,0.000000,0.000000,0.002755,-0.000003,-0.000000,0.000000,0.000000,0.000000,0.000000,819,819,819,819
7798,0,0.023780,0.026180,-0.001092,0.00,0.00,0.000025,0.006000,-0.001188,-0.001309,0.000000,0.000000,0.000000,0.000000,0.002749,-0.000003,-0.000000,0.000000,0.000000,0.000000,0.000000,819,819,819,819
7807,0,0.023780,0.026180,-0.001092,0.00,-0.00,0.000026,0.006000,-0.001187,-0.001309,0.000000,0.000000,0.000000,0.000000,0.002752,-0.000003,-0.000000,0.000000,0.000000,0.000000,0.000000,819,819,819,819
7823,0,0.023780,0.026180,-0.001092,0.00,-0.00,0.000025,0.006000,-0.001188,-0.001309,0.000000,0.000000,0.000000,0.000000,0.002745,-0.000003,-0.000000,0.000000,0.000000,0.000000,0.000000,819,819,819,819
7836,0,0.023780,0.026180,-0.001092,0.00,-0.00,0.000017,0.006000,-0.001188,-0.001309,0.000000,0.000000,0.000000,0.000000,0.002742,-0.000003,-0.000000,0.000000,0.000000,0.000000,0.000000,819,819,819,819
7848,0,0.023780,0.026180,-0.001092,0.00,-0.00,0.000003,0.006000,-0.001187,-0.001309,0.000000,0.000000,0.000000,0.000000,0.002744,-0.000003,-0.000000,0.000000,0.000000,0.000000,0.000000,819,819,819,819
7857,0,0.023780,0.026180,-0.001092,0.00,-0.00,-0.000000,0.007000,-0.001187,-0.001309,0.000000,0.000000,0.000000,0.000000,0.002742,-0.000003,0.000000,0.000000,0.000000,0.000000,0.000000,819,819,819,819
7867,0,0.023780,0.026180,-0.001092,0.00,-0.00,0.000003,0.007000,-0.001187,-0.001309,0.000000,0.000000,0.000000,0.000000,0.002744,-0.000003,-0.000000,0.000000,0.000000,0.000000,0.000000,819,819,819,819
7877,0,0.023780,0.026180,-0.001092,0.00,-0.00,0.000012,0.007000,-0.001187,-0.001309,0.000000,0.000000,0.000000,0.000000,0.002741,-0.000003,-0.000000,0.000000,0.000000,0.000000,0.000000,819,819,819,819
7887,0,0.023780,0.026180,-0.001092,0.00,-0.00,0.000023,0.007000,-0.001188,-0.001309,0.000000,0.000000,0.000000,0.000000,0.002735,-0.000003,-0.000000,0.000000,0.000000,0.000000,0.000000,819,819,819,819
7897,0,0.023780,0.026180,-0.001092,0.00,-0.00,0.000026,0.007000,-0.001187,-0.001310,0.000000,0.000000,0.000000,0.000000,0.002737,-0.000003,-0.000000,0.000000,0.000000,0.000000,0.000000,819,819,819,819
7907,0,0.023780,0.026180,-0.001092,0.00,-0.00,0.000019,0.007000,-0.001187,-0.001309,0.000000,0.000000,0.000000,0.000000,0.002734,-0.000003,-0.000000,0.000000,0.000000,0.000000,0.000000,819,819,819,819
7917,0,0.023780,0.026180,-0.001092,0.00,0.00,0.000010,0.007000,-0.001188,-0.001309,0.000000,0.000000,0.000000,0.000000,0.002721,-0.000003,-0.000000,0.000000,0.000000,0.000000,0.000000,819,819,819,819
7927,0,0.023780,0.026180,-0.001092,0.00,0.00,-0.000000,0.008000,-0.001188,-0.001309,0.000000,0.000000,0.000000,0.000000,0.002723,-0.000003,0.000000,0.000000,0.000000,0.000000,0.000000,819,819,819,819
7937,0,0.023780,0.026180,-0.001092,0.00,0.00,-0.000008,0.008000,-0.001188,-0.001308,0.000000,0.000000,0.000000,0.000000,0.002725,-0.000003,0.000000,0.000000,0.000000,0.000000,0.000000,819,819,819,819
7947,0,0.023780,0.026180,-0.001092,0.00,0.00,-0.000012,0.008000,-0.001188,-0.001308,0.000000,0.000000,0.000000,0.000000,0.002712,-0.000003,0.000000,0.000000,0.000000,0.000000,0.000000,819,819,819,819
7957,0,0.023780,0.026180,-0.001092,0.00,0.00,-0.000015,0.008000,-0.001188,-0.001308,0.000000,0.000000,0.000000,0.000000,0.002711,-0.000003,0.000000,0.000000,0.000000,0.000000,0.000000,819,819,819,819
7967,0,0.023780,0.026180,-0.001092,0.00,0.00,-0.000019,0.008000,-0.001188,-0.001308,0.000000,0.000000,0.000000,0.000000,0.002699,-0.000003,0.000000,0.000000,0.000000,0.000000,0.000000,819,819,819,819
7977,0,0.023780,0.026180,-0.001092,0.00,0.00,-0.000022,0.008000,-0.001189,-0.001309,0.000000,0.000000,0.000000,0.000000,0.002688,-0.000003,0.000000,0.000000,0.000000,0.000000,0.000000,819,819,819,819
7987,0,0.023780,0.026180,-0.001092,0.00,-0.00,-0.000026,0.008000,-0.001189,-0.001309,0.000000,0.000000,0.000000,0.000000,0.002681,-0.000003,0.000000,0.000000,0.000000,0.000000,0.000000,819,819,819,819
7997,0,0.023780,0.026180,-0.001092,0.00,0.00,-0.000025,0.009000,-0.001189,-0.001309,0.000000,0.000000,0.000000,0.000000,0.002683,-0.000003,0.000000,0.000000,0.000000,0.000000,0.000000,819,819,819,819
8007,0,0.023780,0.026180,-0.001092,-0.00,0.00,-0.000025,0.009000,-0.001189,-0.001309,0.000000,0.000000,0.000000,0.000000,0.002673,-0.000003,0.000000,0.000000,0.000000,0.000000,0.000000,819,819,819,819
8017,0,0.023780,0.026180,-0.001092,-0.00,0.00,-0.000020,0.009000,-0.001189,-0.001309,0.000000,0.000000,0.000000,0.000000,0.002671,-0.000003,0.000000,0.000000,0.000000,0.000000,0.000000,819,819,819,819
8027,0,0.023780,0.026180,-0.001092,0.00,0.00,-0.000018,0.009000,-0.001189,-0.001309,0.000000,0.000000,0.000000,0.000000,0.002673,-0.000003,0.000000,0.000000,0.000000,0.000000,0.000000,819,819,819,819
8038,0,0.023780,0.026180,-0.001092,0.00,-0.00,-0.000020,0.009000,-0.001189,-0.001309,0.000000,0.000000,0.000000,0.000000,0.002675,-0.000003,0.000000,0.000000,0.000000,0.000000,0.000000,819,819,819,819
8048,0,0.023780,0.026180,-0.001092,0.00,-0.00,-0.000026,0.009000,-0.001189,-0.001309,0.000000,0.000000,0.000000,0.000000,0.002672,-0.000003,0.000000,0.000000,0.000000,0.000000,0.000000,819,819,819,819
8058,0,0.023780,0.026180,-0.001092,-0.00,-0.00,-0.000029,0.010000,-0.001189,-0.001310,0.000000,0.000000,0.000000,0.000000,0.002662,-0.000003,0.000000,0.000000,0.000000,0.000000,0.000000,819,819,819,819
8068,0,0.023780,0.026180,-0.001092,-0.00,-0.00,-0.000033,0.009000,-0.001189,-0.001310,0.000000,0.000000,0.000000,0.000000,0.002661,-0.000003,0.000000,0.000000,0.000000,0.000000,0.000000,819,819,819,819
8078,0,0.023780,0.026180,-0.001092,-0.00,-0.00,-0.000028,0.009000,-0.001189,-0.001310,0.000000,0.000000,0.000000,0.000000,0.002655,-0.000003,0.000000,0.000000,0.000000,0.000000,0.000000,819,819,819,819
8088,0,0.023780,0.026180,-0.001092,-0.00,-0.00,-0.000027,0.009000,-0.001189,-0.001310,0.000000,0.000000,0.000000,0.000000,0.002658,-0.000003,0.000000,0.000000,0.000000,0.000000,0.000000,819,819,819,819
8098,0,0.023780,0.026180,-0.001092,-0.00,-0.00,-0.000027,0.009000,-0.001189,-0.001310,0.000000,0.000000,0.000000,0.000000,0.002652,-0.000003,0.000000,0.000000,0.000000,0.000000,0.000000,819,819,819,819
8108,0,0.023780,0.026180,-0.001092,-0.00,-0.00,-0.000022,0.009000,-0.001190,-0.001310,0.000000,0.000000,0.000000,0.000000,0.002640,-0.000003,0.000000,0.000000,0.000000,0.000000,0.000000,819,819,819,819
8118,0,0.023780,0.026180,-0.001092,-0.00,-0.00,-0.000016,0.009000,-0.001190,-0.001310,0.000000,0.000000,0.000000,0.000000,0.002629,-0.000003,0.000000,0.000000,0.000000,0.000000,0.000000,819,819,819,819
8128,0,0.023780,0.026180,-0.001092,-0.00,-0.00,-0.000011,0.010000,-0.001190,-0.001310,0.000000,0.000000,0.000000,0.000000,0.002626,-0.000003,0.000000,0.000000,0.000000,0.000000,0.000000,819,819,819,819
8141,0,0.023780,0.026180,-0.001092,-0.00,-0.00,-0.000007,0.010000,-0.001190,-0.001310,0.000000,0.000000,0.000000,0.000000,0.002622,-0.000003,0.000000,0.000000,0.000000,0.000000,0.000000,819,819,819,819
8155,0,0.023780,0.026180,-0.001092,-0.00,-0.00,-0.000002,0.010000,-0.001190,-0.001310,0.000000,0.000000,0.000000,0.000000,0.002615,-0.000003,0.000000,0.000000,0.000000,0.000000,0.000000,819,819,819,819
8166,0,0.023780,0.026180,-0.001092,-0.00,-0.00,0.000005,0.010000,-0.001190,-0.001310,0.000000,0.000000,0.000000,0.000000,0.002620,-0.000003,-0.000000,0.000000,0.000000,0.000000,0.000000,819,819,819,819
8178,0,0.023780,0.026180,-0.001092,-0.00,-0.00,0.000008,0.031000,-0.001190,-0.001310,0.000000,0.000000,0.000000,0.000000,0.002624,-0.000003,-0.000000,0.028373,0.028379,0.033621,0.033627,842,883,863,887
8188,0,0.023780,0.026180,-0.001092,-0.00,-0.00,0.000009,0.053000,-0.001190,-0.001310,0.000000,0.000000,0.000000,0.000000,0.002628,-0.000003,-0.000000,0.050369,0.050376,0.055625,0.055631,860,901,881,905
8198,0,0.023780,0.026180,-0.001092,-0.00,-0.00,0.000008,0.062000,-0.001189,-0.001310,0.000000,0.000000,0.000000,0.000000,0.002627,-0.000003,-0.000000,0.059369,0.059376,0.064624,0.064631,867,908,888,913
8208,0,0.023780,0.026180,-0.001092,-0.00,-0.00,0.000002,0.071000,-0.001190,-0.001310,0.000000,0.000000,0.000000,0.000000,0.002623,-0.000003,-0.000000,0.068374,0.068380,0.073620,0.073626,875,916,895,920
8218,0,0.023780,0.026180,-0.001092,-0.00,-0.00,-0.000009,0.071000,-0.001189,-0.001310,0.000000,0.000000,0.000000,0.000000,0.002630,-0.000003,0.000000,0.068367,0.068373,0.073627,0.073634,875,916,895,920
8228,0,0.023780,0.026180,-0.001092,-0.00,-0.00,-0.000026,0.081000,-0.001189,-0.001310,0.000000,0.000000,0.000000,0.000000,0.002625,-0.000003,0.000000,0.078372,0.078378,0.083622,0.083629,883,924,904,928
8238,0,0.023780,0.026180,-0.001092,-0.00,-0.00,-0.000036,0.081000,-0.001189,-0.001309,0.000000,0.000000,0.000000,0.000000,0.002624,-0.000003,0.000000,0.078373,0.078379,0.083621,0.083628,883,924,904,928
8248,0,0.023780,0.026180,-0.001092,-0.00,-0.00,-0.000044,0.081000,-0.001189,-0.001309,0.000000,0.000000,0.000000,0.000000,0.002623,-0.000003,0.000000,0.078374,0.078379,0.083620,0.083627,883,924,904,928
8258,0,0.023780,0.026180,-0.001092,-0.00,0.00,-0.000056,0.088000,-0.001189,-0.001309,0.000000,0.000000,0.000000,0.000000,0.002622,-0.000003,0.000000,0.085375,0.085380,0.090618,0.090626,889,930,909,934
8268,0,0.023780,0.026180,-0.001092,-0.00,0.00,-0.000054,0.088000,-0.001190,-0.001309,0.000000,0.000000,0.000000,0.000000,0.002614,-0.000003,0.000000,0.085383,0.085389,0.090610,0.090618,889,930,909,934
8278,0,0.023780,0.026180,-0.001092,-0.00,0.00,-0.000060,0.088000,-0.001190,-0.001308,0.000000,0.000000,0.000000,0.000000,0.002610,-0.000003,0.000000,0.085388,0.085393,0.090606,0.090614,889,930,909,934
8288,0,0.023780,0.026180,-0.001092,-0.00,0.00,-0.000054,0.088000,-0.001190,-0.001308,0.000000,0.000000,0.000000,0.000000,0.002599,-0.000003,0.000000,0.085399,0.085404,0.090595,0.090603,889,930,909,934
8298,0,0.023780,0.026180,-0.001092,-0.00,0.00,-0.000047,0.089000,-0.001190,-0.001308,0.000000,0.000000,0.000000,0.000000,0.002599,-0.000003,0.000000,0.086398,0.086403,0.091596,0.091603,889,930,910,935
8308,0,0.023780,0.026180,-0.001092,-0.00,0.00,-0.000035,0.089000,-0.001190,-0.001309,0.000000,0.000000,0.000000,0.000000,0.002596,-0.000003,0.000000,0.086401,0.086407,0.091593,0.091600,889,930,910,935
8318,0,0.023780,0.026180,-0.001092,-0.00,0.00,-0.000036,0.089000,-0.001190,-0.001309,0.000000,0.000000,0.000000,0.000000,0.002597,-0.000003,0.000000,0.086400,0.086406,0.091593,0.091601,889,930,910,935
8328,0,0.023780,0.026180,-0.001092,-0.00,0.00,-0.000041,0.090000,-0.001190,-0.001309,0.000000,0.000000,0.000000,0.000000,0.002594,-0.000003,0.000000,0.087404,0.087409,0.092590,0.092597,890,931,911,935
8339,0,0.023780,0.026180,-0.001092,-0.00,0.00,-0.000041,0.090000,-0.001190,-0.001309,0.000000,0.000000,0.000000,0.000000,0.002594,-0.000003,0.000000,0.087403,0.087409,0.092590,0.092598,890,931,911,935
8349,0,0.023780,0.026180,-0.001092,-0.00,0.00,-0.000041,0.090000,-0.001190,-0.001309,0.000000,0.000000,0.000000,0.000000,0.002587,-0.000003,0.000000,0.087410,0.087416,0.092584,0.092591,890,931,911,935
8358,0,0.023780,0.026180,-0.001092,-0.00,0.00,-0.000037,0.090000,-0.001190,-0.001309,0.000000,0.000000,0.000000,0.000000,0.002581,-0.000003,0.000000,0.087416,0.087422,0.092577,0.092585,890,931,911,935
8368,0,0.023780,0.026180,-0.001092,-0.00,0.00,-0.000028,0.090000,-0.001190,-0.001309,0.000000,0.000000,0.000000,0.000000,0.002586,-0.000003,0.000000,0.087411,0.087417,0.092582,0.092589,890,931,911,935
8378,0,0.023780,0.026180,-0.001092,-0.00,0.00,-0.000025,0.090000,-0.001190,-0.001308,0.000000,0.000000,0.000000,0.000000,0.002587,-0.000003,0.000000,0.087410,0.087416,0.092583,0.092590,890,931,911,935
8389,0,0.023780,0.026180,-0.001092,-0.00,0.00,-0.000019,0.092000,-0.001189,-0.001308,0.000000,0.000000,0.000000,0.000000,0.002598,-0.000003,0.000000,0.089399,0.089405,0.094595,0.094601,892,933,913,937
8398,0,0.023780,0.026180,-0.001092,0.00,0.00,-0.000023,0.095000,-0.001189,-0.001308,0.000000,0.000000,0.000000,0.000000,0.002608,-0.000003,0.000000,0.092389,0.092395,0.097605,0.097612,894,935,915,940
8409,0,0.023780,0.026180,-0.001092,0.00,0.00,-0.000023,0.097000,-0.001188,-0.001308,0.000000,0.000000,0.000000,0.000000,0.002617,-0.000003,0.000000,0.094380,0.094386,0.099613,0.099621,896,937,917,941
8419,0,0.023780,0.026180,-0.001092,0.00,0.00,-0.000006,0.097000,-0.001189,-0.001307,0.000000,0.000000,0.000000,0.000000,0.002614,-0.000003,0.000000,0.094383,0.094389,0.099611,0.099617,896,937,917,941
8428,0,0.023780,0.026180,-0.001092,0.00,0.00,0.000080,0.099000,-0.001187,-0.001307,0.000000,0.000000,0.000000,0.000000,0.002658,-0.000003,-0.000000,0.096338,0.096346,0.101656,0.101661,898,939,918,943
8439,0,0.023562,0.026180,-0.001092,-0.00,0.00,0.000184,0.099000,-0.001180,-0.001307,0.000000,0.000000,0.000000,0.000000,0.002533,-0.000003,-0.000002,0.096462,0.096472,0.101532,0.101534,898,939,918,943
8448,0,0.023387,0.026180,-0.001092,-0.00,0.00,0.000237,0.099000,-0.001173,-0.001306,0.000000,0.000000,0.000000,0.000000,0.002474,-0.000003,-0.000003,0.096520,0.096532,0.101473,0.101475,898,939,918,943
8464,0,0.023030,0.026180,-0.001310,-0.00,0.00,0.000217,0.104000,-0.001157,-0.001306,0.000000,0.000000,0.000000,0.000000,0.002376,-0.000003,-0.000002,0.101618,0.101630,0.106375,0.106377,902,943,922,947
8478,0,0.022743,0.026180,-0.001484,-0.00,0.00,0.000151,0.104000,-0.001140,-0.001307,0.000000,0.000000,0.000000,0.000000,0.002398,-0.000003,-0.000002,0.101597,0.101607,0.106396,0.106400,902,943,922,947
8488,0,0.022733,0.026180,-0.001842,0.00,0.00,0.000022,0.104000,-0.001135,-0.001307,0.000000,0.000000,0.000000,0.000000,0.002516,-0.000003,-0.000000,0.101481,0.101488,0.106512,0.106519,902,943,922,947
8498,0,0.022942,0.026180,-0.002128,0.00,0.00,-0.000028,0.107000,-0.001137,-0.001307,0.000000,0.000000,0.000000,0.000000,0.002761,-0.000003,0.000000,0.104236,0.104242,0.109757,0.109764,904,945,925,950
8509,0,0.023110,0.026180,-0.002357,0.00,0.00,0.000021,0.107000,-0.001141,-0.001308,0.000000,0.000000,0.000000,0.000000,0.002867,-0.000003,-0.000000,0.104130,0.104137,0.109864,0.109870,904,945,925,950
8519,0,0.023244,0.026180,-0.002540,0.00,0.00,0.000133,0.107000,-0.001145,-0.001308,0.000000,0.000000,0.000000,0.000000,0.002949,-0.000003,-0.000001,0.104046,0.104055,0.109948,0.109951,904,945,925,950
8529,0,0.023133,0.026180,-0.002687,0.00,0.00,0.000224,0.112000,-0.001146,-0.001308,0.000000,0.000000,0.000000,0.000000,0.002786,-0.000003,-0.000002,0.109208,0.109220,0.114785,0.114787,908,949,929,954
8539,0,0.022826,0.026180,-0.002804,-0.00,0.00,0.000269,0.113000,-0.001142,-0.001308,0.000000,0.000000,0.000000,0.000000,0.002457,-0.000003,-0.000003,0.110537,0.110549,0.115457,0.115457,909,950,930,954
8549,0,0.022580,0.026180,-0.002898,-0.00,0.00,0.000238,0.113000,-0.001138,-0.001307,0.000000,0.000000,0.000000,0.000000,0.002226,-0.000003,-0.000003,0.110769,0.110780,0.115225,0.115226,909,950,929,954
8559,0,0.022384,0.026180,-0.002973,-0.00,0.00,0.000192,0.116000,-0.001134,-0.001306,0.000000,0.000000,0.000000,0.000000,0.002047,-0.000003,-0.000002,0.113947,0.113958,0.118046,0.118049,912,953,932,956
8569,0,0.022227,0.026180,-0.003033,-0.00,0.00,0.000149,0.118000,-0.001131,-0.001306,0.000000,0.000000,0.000000,0.000000,0.001914,-0.000003,-0.000002,0.116081,0.116091,0.119912,0.119916,914,955,933,958
8579,0,0.022101,0.026180,-0.003081,-0.00,0.00,0.000104,0.118000,-0.001129,-0.001305,0.000000,0.000000,0.000000,0.000000,0.001791,-0.000003,-0.000001,0.116205,0.116214,0.119789,0.119793,914,955,933,958
8589,0,0.022001,0.026180,-0.003119,-0.00,0.00,0.000076,0.121000,-0.001126,-0.001305,0.000000,0.000000,0.000000,0.000000,0.001728,-0.000003,-0.000000,0.119268,0.119276,0.122726,0.122731,916,957,936,960
8599,0,0.022138,0.026180,-0.003150,-0.00,0.00,0.000032,0.122000,-0.001126,-0.001306,0.000000,0.000000,0.000000,0.000000,0.001926,-0.000003,-0.000000,0.120070,0.120077,0.123923,0.123929,917,958,937,961
8609,0,0.022249,0.026180,-0.003174,-0.00,0.00,0.000037,0.122000,-0.001125,-0.001307,0.000000,0.000000,0.000000,0.000000,0.002093,-0.000003,-0.000000,0.119903,0.119910,0.124090,0.124096,917,958,937,961
8619,0,0.022337,0.026180,-0.003194,-0.00,0.00,0.000044,0.122000,-0.001125,-0.001308,0.000000,0.000000,0.000000,0.000000,0.002206,-0.000003,-0.000000,0.119791,0.119798,0.124203,0.124208,917,958,937,961
8636,0,0.022189,0.026180,-0.003210,-0.00,0.00,0.000090,0.124000,-0.001122,-0.001307,0.000000,0.000000,0.000000,0.000000,0.002086,-0.000003,-0.000001,0.121910,0.121918,0.126084,0.126088,919,959,938,963
8645,0,0.022071,0.026180,-0.003222,-0.00,0.00,0.000140,0.124000,-0.001122,-0.001307,0.000000,0.000000,0.000000,0.000000,0.001926,-0.000003,-0.000002,0.122069,0.122079,0.125924,0.125928,919,960,938,963
8655,0,0.021976,0.026180,-0.003233,-0.00,0.00,0.000175,0.124000,-0.001122,-0.001305,0.000000,0.000000,0.000000,0.000000,0.001795,-0.000003,-0.000002,0.122200,0.122210,0.125794,0.125796,919,960,938,963
8666,0,0.021901,0.026180,-0.003241,-0.00,0.00,0.000180,0.124000,-0.001122,-0.001305,0.000000,0.000000,0.000000,0.000000,0.001691,-0.000003,-0.000002,0.122304,0.122314,0.125689,0.125692,919,960,938,963
8678,0,0.021840,0.025962,-0.003029,-0.00,0.00,0.000212,0.125000,-0.001125,-0.001298,0.000000,0.000000,0.000000,0.000000,0.001539,-0.000003,-0.000002,0.123456,0.123467,0.126538,0.126540,920,961,939,963
8689,0,0.021574,0.025787,-0.002859,-0.00,-0.00,0.000221,0.125000,-0.001129,-0.001293,0.000000,0.000000,0.000000,0.000000,0.001075,-0.000003,-0.000002,0.123920,0.123930,0.126074,0.126075,920,961,938,963
8699,0,0.021361,0.025648,-0.002506,-0.00,-0.00,0.000229,0.125000,-0.001133,-0.001288,0.000000,0.000000,0.000000,0.000000,0.000689,-0.000003,-0.000002,0.124305,0.124316,0.125689,0.125690,920,961,938,963
8709,0,0.021190,0.025536,-1.258641,-0.00,-0.00,0.000165,0.125000,-0.001137,-0.001285,0.000000,0.000000,0.000000,0.000000,0.000373,-0.000003,-0.000002,0.124622,0.124631,0.125372,0.125374,921,962,938,962
8719,0,0.021272,0.025447,-2.263332,-0.00,-0.00,0.000072,0.125000,-0.001140,-0.001284,0.000000,0.000000,0.000000,0.000000,0.000402,-0.000003,-0.000000,0.124594,0.124601,0.125401,0.125404,921,962,938,962
8729,0,0.021337,0.025593,-3.067084,-0.00,-0.00,-0.000029,0.125000,-0.001139,-0.001287,0.000000,0.000000,0.000000,0.000000,0.000497,-0.000003,0.000000,0.124500,0.124505,0.125494,0.125501,921,962,938,962
8740,0,0.021607,0.025711,2.573317,-0.00,-0.00,-0.000108,0.125000,-0.001140,-0.001290,0.000000,0.000000,0.000000,0.000000,0.000844,-0.000003,0.000001,0.124154,0.124157,0.125840,0.125848,920,961,938,963
8749,0,0.021824,0.025586,2.059090,-0.00,-0.00,-0.000162,0.125000,-0.001140,-0.001286,0.000000,0.000000,0.000000,0.000000,0.001144,-0.000003,0.000002,0.123855,0.123857,0.126140,0.126149,920,961,938,963
8759,0,0.021997,0.025487,1.647708,-0.00,-0.00,-0.000143,0.124000,-0.001138,-0.001282,0.000000,0.000000,0.000000,0.000000,0.001409,-0.000003,0.000002,0.122590,0.122592,0.125405,0.125413,919,960,938,962
8769,0,0.022135,0.025407,1.318603,-0.00,-0.00,-0.000086,0.124000,-0.001137,-0.001278,0.000000,0.000000,0.000000,0.000000,0.001636,-0.000003,0.000000,0.122362,0.122366,0.125632,0.125640,919,960,938,963
8785,0,0.022246,0.025344,1.055319,-0.00,-0.00,-0.000009,0.124000,-0.001137,-0.001276,0.000000,0.000000,0.000000,0.000000,0.001766,-0.000003,0.000000,0.122231,0.122236,0.125764,0.125769,919,960,938,963
8798,0,0.022117,0.025293,0.844910,-0.00,-0.00,0.000044,0.124000,-0.001134,-0.001274,0.000000,0.000000,0.000000,0.000000,0.001679,-0.000003,-0.000000,0.122318,0.122324,0.125677,0.125681,919,960,938,963
8809,0,0.022231,0.025470,0.676582,-0.00,-0.00,0.000005,0.125000,-0.001134,-0.001278,0.000000,0.000000,0.000000,0.000000,0.001832,-0.000003,-0.000000,0.123165,0.123171,0.126829,0.126835,920,961,939,964
8821,0,0.022323,0.025612,0.541920,-0.00,-0.00,-0.000078,0.125000,-0.001135,-0.001282,0.000000,0.000000,0.000000,0.000000,0.001927,-0.000003,0.000000,0.123071,0.123075,0.126923,0.126931,919,960,939,964
8830,0,0.022614,0.025726,0.434191,-0.00,0.00,-0.000163,0.124000,-0.001135,-0.001285,0.000000,0.000000,0.000000,0.000000,0.002299,-0.000003,0.000002,0.121700,0.121703,0.126294,0.126304,918,959,938,963
8840,0,0.022847,0.025817,0.348007,0.00,0.00,-0.000198,0.124000,-0.001138,-0.001287,0.000000,0.000000,0.000000,0.000000,0.002548,-0.000003,0.000002,0.121451,0.121453,0.126543,0.126553,918,959,939,963
8850,0,0.023034,0.025889,0.279060,0.00,0.00,-0.000198,0.124000,-0.001141,-0.001288,0.000000,0.000000,0.000000,0.000000,0.002709,-0.000003,0.000002,0.121289,0.121292,0.126704,0.126715,918,959,939,963
8860,0,0.023183,0.025947,0.223903,0.00,0.00,-0.000115,0.125000,-0.001143,-0.001290,0.000000,0.000000,0.000000,0.000000,0.002855,-0.000003,0.000001,0.122143,0.122147,0.127850,0.127859,919,960,940,964
8870,0,0.023303,0.025994,0.179777,0.00,0.00,0.000035,0.125000,-0.001146,-0.001291,0.000000,0.000000,0.000000,0.000000,0.002940,-0.000003,-0.000000,0.122056,0.122064,0.127937,0.127943,919,960,940,964
8880,0,0.023180,0.025813,0.144476,0.00,0.00,0.000151,0.125000,-0.001147,-0.001287,0.000000,0.000000,0.000000,0.000000,0.002745,-0.000003,-0.000002,0.122250,0.122260,0.127744,0.127747,919,960,940,964
8890,0,0.022864,0.025668,0.116235,-0.00,0.00,0.000270,0.124000,-0.001145,-0.001282,0.000000,0.000000,0.000000,0.000000,0.002383,-0.000003,-0.000003,0.121611,0.121623,0.126383,0.126384,918,959,939,963
8900,0,0.022611,0.025552,0.093643,-0.00,-0.00,0.000344,0.125000,-0.001143,-0.001278,0.000000,0.000000,0.000000,0.000000,0.002105,-0.000003,-0.000004,0.122888,0.122901,0.127106,0.127105,919,960,939,964
8910,0,0.022190,0.025460,0.075569,-0.00,-0.00,0.000349,0.125000,-0.001136,-0.001276,0.000000,0.000000,0.000000,0.000000,0.001696,-0.000003,-0.000004,0.123297,0.123310,0.126697,0.126695,920,961,939,963
8920,0,0.021854,0.025386,0.061109,-0.00,-0.00,0.000305,0.125000,-0.001130,-0.001275,0.000000,0.000000,0.000000,0.000000,0.001415,-0.000003,-0.000003,0.123579,0.123591,0.126415,0.126414,920,961,939,963
8930,0,0.021584,0.025326,0.049542,-0.00,-0.00,0.000155,0.125000,-0.001124,-0.001274,0.000000,0.000000,0.000000,0.000000,0.001188,-0.000003,-0.000002,0.123807,0.123816,0.126187,0.126189,920,961,938,963
8940,0,0.021587,0.025279,0.040288,-0.00,-0.00,0.000010,0.125000,-0.001121,-0.001274,0.000000,0.000000,0.000000,0.000000,0.001272,-0.000003,-0.000000,0.123725,0.123730,0.126270,0.126275,920,961,938,963
8950,0,0.021589,0.025459,0.032885,-0.00,-0.00,-0.000107,0.125000,-0.001117,-0.001279,0.000000,0.000000,0.000000,0.000000,0.001361,-0.000003,0.000001,0.123637,0.123640,0.126357,0.126365,920,961,939,963
8960,0,0.021809,0.025603,0.026962,-0.00,-0.00,-0.000230,0.125000,-0.001116,-0.001283,0.000000,0.000000,0.000000,0.000000,0.001694,-0.000003,0.000002,0.123306,0.123307,0.126688,0.126699,920,961,939,963
8970,0,0.022204,0.025719,0.022224,-0.00,0.00,-0.000235,0.125000,-0.001118,-0.001285,0.000000,0.000000,0.000000,0.000000,0.002155,-0.000003,0.000002,0.122845,0.122846,0.127149,0.127160,919,960,939,964
8980,0,0.022519,0.025811,0.018434,0.00,0.00,-0.000193,0.125000,-0.001122,-0.001287,0.000000,0.000000,0.000000,0.000000,0.002474,-0.000003,0.000002,0.122525,0.122527,0.127469,0.127479,919,960,939,964
8990,0,0.022771,0.025885,0.015402,0.00,0.00,-0.000101,0.125000,-0.001126,-0.001287,0.000000,0.000000,0.000000,0.000000,0.002699,-0.000003,0.000001,0.122298,0.122303,0.127695,0.127704,919,960,940,964
9000,0,0.022755,0.025726,0.012976,0.00,0.00,0.000039,0.125000,-0.001128,-0.001281,0.000000,0.000000,0.000000,0.000000,0.002647,-0.000003,-0.000000,0.122349,0.122356,0.127645,0.127650,919,960,940,964
9010,0,0.022742,0.025598,0.011035,0.00,0.00,0.000162,0.125000,-0.001128,-0.001277,0.000000,0.000000,0.000000,0.000000,0.002628,-0.000003,-0.000002,0.122367,0.122377,0.127627,0.127630,919,960,940,964
9020,0,0.022513,0.025496,0.009483,0.00,0.00,0.000147,0.125000,-0.001125,-0.001274,0.000000,0.000000,0.000000,0.000000,0.002397,-0.000003,-0.000002,0.122599,0.122608,0.127395,0.127398,919,960,939,964
9030,0,0.022330,0.025415,0.008241,-0.00,-0.00,0.000167,0.125000,-0.001122,-0.001272,0.000000,0.000000,0.000000,0.000000,0.002210,-0.000003,-0.000002,0.122785,0.122794,0.127209,0.127211,919,960,939,964
9040,0,0.022184,0.025350,0.007247,-0.00,-0.00,0.000202,0.125000,-0.001122,-0.001271,0.000000,0.000000,0.000000,0.000000,0.002031,-0.000003,-0.000002,0.122964,0.122974,0.127030,0.127032,919,960,939,964
9050,0,0.021849,0.025298,0.006452,-0.00,-0.00,0.000118,0.125000,-0.001117,-0.001272,0.000000,0.000000,0.000000,0.000000,0.001693,-0.000003,-0.000001,0.123303,0.123310,0.126692,0.126695,920,961,939,963
9060,0,0.021799,0.025256,0.005816,-0.00,-0.00,-0.000008,0.125000,-0.001115,-0.001271,0.000000,0.000000,0.000000,0.000000,0.001689,-0.000003,0.000000,0.123309,0.123314,0.126686,0.126691,920,961,939,963
9070,0,0.021759,0.025223,0.005307,-0.00,-0.00,-0.000153,0.125000,-0.001113,-0.001270,0.000000,0.000000,0.000000,0.000000,0.001691,-0.000003,0.000002,0.123308,0.123310,0.126687,0.126695,920,961,939,963
9080,0,0.021945,0.025196,0.004900,-0.00,-0.00,-0.000218,0.125000,-0.001112,-0.001269,0.000000,0.000000,0.000000,0.000000,0.001960,-0.000003,0.000002,0.123040,0.123040,0.126955,0.126965,919,960,939,964
9091,0,0.022312,0.025175,0.004575,-0.00,-0.00,-0.000218,0.125000,-0.001116,-0.001266,0.000000,0.000000,0.000000,0.000000,0.002326,-0.000003,0.000002,0.122673,0.122674,0.127321,0.127331,919,960,939,964
9104,0,0.022605,0.025157,0.004314,0.00,-0.00,-0.000278,0.125000,-0.001122,-0.001264,0.000000,0.000000,0.000000,0.000000,0.002571,-0.000003,0.000003,0.122429,0.122428,0.127566,0.127577,919,960,940,964
9118,0,0.022840,0.025144,0.004106,0.00,-0.00,-0.000232,0.125000,-0.001127,-0.001262,0.000000,0.000000,0.000000,0.000000,0.002746,-0.000003,0.000002,0.122253,0.122254,0.127741,0.127751,919,960,940,964
9130,0,0.023028,0.025133,0.003939,0.00,-0.00,-0.000181,0.125000,-0.001131,-0.001260,0.000000,0.000000,0.000000,0.000000,0.002901,-0.000003,0.000002,0.122098,0.122100,0.127896,0.127905,919,960,940,964
9141,0,0.022961,0.025124,0.003806,0.00,-0.00,-0.000090,0.125000,-0.001131,-0.001258,0.000000,0.000000,0.000000,0.000000,0.002815,-0.000003,0.000000,0.122183,0.122187,0.127812,0.127819,919,960,940,964
9150,0,0.022906,0.025117,0.003699,0.00,-0.00,0.000020,0.125000,-0.001132,-0.001258,0.000000,0.000000,0.000000,0.000000,0.002705,-0.000003,-0.000000,0.122292,0.122298,0.127703,0.127708,919,960,940,964
9161,0,0.022645,0.025112,0.003614,0.00,-0.00,0.000027,0.125000,-0.001130,-0.001260,0.000000,0.000000,0.000000,0.000000,0.002424,-0.000003,-0.000000,0.122573,0.122579,0.127421,0.127426,919,960,939,964
9171,0,0.022435,0.025107,0.003546,-0.00,-0.00,0.000066,0.125000,-0.001129,-0.001260,0.000000,0.000000,0.000000,0.000000,0.002173,-0.000003,-0.000000,0.122824,0.122830,0.127171,0.127175,919,960,939,964
9181,0,0.022268,0.025103,0.003491,-0.00,-0.00,0.000096,0.125000,-0.001128,-0.001260,0.000000,0.000000,0.000000,0.000000,0.001969,-0.000003,-0.000001,0.123028,0.123035,0.126967,0.126970,919,960,939,964
9191,0,0.022134,0.025101,0.003447,-0.00,-0.00,0.000096,0.125000,-0.001126,-0.001258,0.000000,0.000000,0.000000,0.000000,0.001847,-0.000003,-0.000001,0.123149,0.123157,0.126845,0.126849,920,960,939,964
9201,0,0.022027,0.025098,0.003412,-0.00,-0.00,0.000040,0.125000,-0.001122,-0.001258,0.000000,0.000000,0.000000,0.000000,0.001806,-0.000003,-0.000000,0.123191,0.123197,0.126804,0.126808,920,961,939,963
9211,0,0.021941,0.025096,0.003384,-0.00,-0.00,-0.000027,0.125000,-0.001119,-0.001258,0.000000,0.000000,0.000000,0.000000,0.001766,-0.000003,0.000000,0.123231,0.123236,0.126763,0.126769,920,961,939,963
9221,0,0.022091,0.025095,0.003362,-0.00,-0.00,-0.000079,0.125000,-0.001118,-0.001258,0.000000,0.000000,0.000000,0.000000,0.001990,-0.000003,0.000000,0.123008,0.123011,0.126987,0.126994,919,960,939,964
9231,0,0.022211,0.025094,0.003344,-0.00,-0.00,-0.000091,0.125000,-0.001118,-0.001257,0.000000,0.000000,0.000000,0.000000,0.002127,-0.000003,0.000001,0.122871,0.122875,0.127123,0.127131,919,960,939,964
9241,0,0.022306,0.025093,0.003330,-0.00,-0.00,0.000017,0.125000,-0.001121,-0.001256,0.000000,0.000000,0.000000,0.000000,0.002187,-0.000003,-0.000000,0.122810,0.122816,0.127184,0.127190,919,960,939,964
9250,0,0.022383,0.025092,0.003318,-0.00,-0.00,0.000055,0.125000,-0.001121,-0.001258,0.000000,0.000000,0.000000,0.000000,0.002278,-0.000003,-0.000000,0.122718,0.122725,0.127276,0.127281,919,960,939,964
9261,0,0.022226,0.025092,0.003309,-0.00,-0.00,0.000091,0.125000,-0.001119,-0.001258,0.000000,0.000000,0.000000,0.000000,0.002136,-0.000003,-0.000001,0.122860,0.122867,0.127135,0.127138,919,960,939,964
9271,0,0.022101,0.025091,0.003302,-0.00,-0.00,0.000273,0.125000,-0.001116,-0.001258,0.000000,0.000000,0.000000,0.000000,0.002033,-0.000003,-0.000003,0.122961,0.122972,0.127034,0.127033,919,960,939,964
9281,0,0.021782,0.025091,0.003296,-0.00,-0.00,0.000496,0.125000,-0.001110,-0.001256,0.000000,0.000000,0.000000,0.000000,0.001763,-0.000003,-0.000005,0.123230,0.123245,0.126765,0.126760,920,961,939,963
9291,0,0.021309,0.025090,0.003291,-0.00,0.00,0.000654,0.125000,-0.001103,-0.001254,0.000000,0.000000,0.000000,0.000000,0.001318,-0.000003,-0.000007,0.123673,0.123692,0.126322,0.126314,920,961,939,963
9300,0,0.020712,0.025090,0.003288,-0.00,0.00,0.000796,0.125000,-0.001096,-0.001253,0.000000,0.000000,0.000000,0.000000,0.000719,-0.000003,-0.000008,0.124270,0.124293,0.125724,0.125713,920,961,938,963
9311,0,0.020017,0.025090,0.003285,-0.00,0.00,0.000941,0.125000,-0.001080,-0.001253,0.000000,0.000000,0.000000,0.000000,0.000196,-0.000003,-0.000010,0.124791,0.124816,0.125203,0.125189,921,962,938,962
9321,0,0.019024,0.025090,0.003282,-0.00,0.00,0.001094,0.125000,-0.001063,-0.001252,0.000000,0.000000,0.000000,0.000000,-0.000700,-0.000003,-0.000011,0.125686,0.125714,0.124308,0.124292,922,963,937,961
9331,0,0.018012,0.025090,0.003280,-0.00,0.00,0.001247,0.125000,-0.001042,-0.001249,0.000000,0.000000,0.000000,0.000000,-0.001509,-0.000003,-0.000013,0.126493,0.126525,0.123501,0.123481,922,963,936,961
9341,0,0.016984,0.024871,0.003279,-0.00,-0.00,0.001273,0.125000,-0.001016,-0.001244,0.000000,0.000000,0.000000,0.000000,-0.002212,-0.000003,-0.000013,0.127196,0.127228,0.122799,0.122778,923,964,936,960
9351,0,0.015725,0.024697,0.003277,-0.00,-0.00,0.001304,0.125000,-0.000987,-0.001240,0.000000,0.000000,0.000000,0.000000,-0.003142,-0.000003,-0.000013,0.128126,0.128158,0.121869,0.121847,924,965,935,959
9361,0,0.014718,0.024557,0.003276,-0.00,-0.00,0.001352,0.125000,-0.000956,-0.001237,0.000000,0.000000,0.000000,0.000000,-0.003722,-0.000002,-0.000014,0.128706,0.128739,0.121289,0.121266,924,965,934,959
9371,0,0.013694,0.024663,0.003276,-0.00,-0.00,0.001464,0.125000,-0.000925,-0.001240,0.000000,0.000000,0.000000,0.000000,-0.004306,-0.000002,-0.000015,0.129289,0.129324,0.120706,0.120681,925,966,934,958
9381,0,0.012657,0.024749,0.003275,-0.00,-0.00,0.001555,0.125000,-0.000892,-0.001241,0.000000,0.000000,0.000000,0.000000,-0.004859,-0.000003,-0.000016,0.129841,0.129878,0.120154,0.120127,925,966,933,958
9391,0,0.011609,0.024817,0.003275,-0.00,-0.00,0.001620,0.125000,-0.000857,-0.001244,0.000000,0.000000,0.000000,0.000000,-0.005371,-0.000003,-0.000017,0.130352,0.130391,0.119643,0.119615,925,966,933,958
9401,0,0.010335,0.024871,0.003274,-0.00,-0.00,0.001606,0.125000,-0.000820,-0.001248,0.000000,0.000000,0.000000,0.000000,-0.006143,-0.000003,-0.000017,0.131123,0.131162,0.118871,0.118844,926,967,932,957
9411,0,0.009315,0.024915,0.003492,-0.00,-0.00,0.001544,0.125000,-0.000786,-0.001251,0.000000,0.000000,0.000000,0.000000,-0.006646,-0.000003,-0.000016,0.131627,0.131664,0.118368,0.118341,926,967,932,957
9427,0,0.008063,0.024950,0.003884,-0.00,-0.00,0.001565,0.125000,-0.000732,-0.001249,0.000000,0.000000,0.000000,0.000000,-0.006967,-0.000003,-0.000016,0.131948,0.131986,0.118047,0.118020,927,968,932,956
9441,0,0.007061,0.024759,0.004417,-0.00,0.00,0.001442,0.125000,-0.000693,-0.001233,0.000000,0.000000,0.000000,0.000000,-0.007319,-0.000003,-0.000015,0.132302,0.132337,0.117692,0.117669,927,968,931,956
9451,0,0.006260,0.024389,0.005060,-0.00,0.00,0.001330,0.125000,-0.000666,-0.001214,0.000000,0.000000,0.000000,0.000000,-0.007709,-0.000003,-0.000014,0.132692,0.132725,0.117302,0.117281,927,968,931,956
9461,0,0.005619,0.023875,0.005794,-0.00,0.00,0.001110,0.125000,-0.000644,-0.001186,0.000000,0.000000,0.000000,0.000000,-0.008001,-0.000003,-0.000011,0.132986,0.133015,0.117008,0.116991,928,969,931,955
9471,0,0.005324,0.023027,0.006598,-0.00,0.00,0.000990,0.125000,-0.000627,-0.001146,0.000000,0.000000,0.000000,0.000000,-0.007985,-0.000003,-0.000010,0.132972,0.132998,0.117022,0.117008,928,969,931,955
9484,0,0.005088,0.021476,0.007897,-0.00,-0.00,0.000910,0.125000,-0.000612,-0.001081,0.000000,0.000000,0.000000,0.000000,-0.007914,-0.000002,-0.000009,0.132902,0.132925,0.117093,0.117079,928,968,931,956
9493,0,0.005118,0.019798,0.009372,-0.00,-0.00,0.000746,0.125000,-0.000606,-0.001026,0.000000,0.000000,0.000000,0.000000,-0.007736,-0.000000,-0.000008,0.132728,0.132745,0.117271,0.117257,927,968,931,956
9503,0,0.005141,0.018239,0.010988,-0.00,-0.00,0.000516,0.125000,-0.000604,-0.000972,0.000000,0.000000,0.000000,0.000000,-0.007668,0.000000,-0.000005,0.132664,0.132673,0.117337,0.117326,927,968,931,956
9512,0,0.005597,0.016554,0.012936,-0.00,-0.00,0.000263,0.125000,-0.000609,-0.000905,0.000000,0.000000,0.000000,0.000000,-0.007188,0.000001,-0.000003,0.132187,0.132190,0.117816,0.117808,927,968,932,956
9522,0,0.006179,0.014553,0.014930,-0.00,-0.00,-0.000021,0.125000,-0.000618,-0.000822,0.000000,0.000000,0.000000,0.000000,-0.006642,0.000002,0.000000,0.131645,0.131640,0.118360,0.118356,926,967,932,957
9532,0,0.007081,0.012297,0.017180,-0.00,-0.00,-0.000395,0.125000,-0.000634,-0.000728,0.000000,0.000000,0.000000,0.000000,-0.005862,0.000003,0.000004,0.130870,0.130855,0.119137,0.119139,926,967,933,957
9542,0,0.007803,0.010492,0.018980,-0.00,-0.00,-0.000763,0.125000,-0.000654,-0.000640,0.000000,0.000000,0.000000,0.000000,-0.005414,0.000004,0.000008,0.130426,0.130403,0.119581,0.119590,925,966,933,958
9552,0,0.009471,0.007521,0.021511,-0.00,-0.00,-0.001166,0.125000,-0.000690,-0.000522,0.000000,0.000000,0.000000,0.000000,-0.004122,0.000005,0.000012,0.129139,0.129105,0.120871,0.120885,924,965,934,959
9562,0,0.010806,0.005144,0.023535,-0.00,-0.00,-0.001607,0.125000,-0.000730,-0.000415,0.000000,0.000000,0.000000,0.000000,-0.003362,0.000006,0.000016,0.128385,0.128340,0.121627,0.121648,924,965,935,959
9572,0,0.012528,0.002588,0.025810,-0.00,-0.00,-0.001935,0.125000,-0.000781,-0.000299,0.000000,0.000000,0.000000,0.000000,-0.002350,0.000007,0.000020,0.127376,0.127323,0.122637,0.122663,923,964,935,960
9582,0,0.014342,-0.000329,0.028502,-0.00,-0.00,-0.002240,0.125000,-0.000836,-0.000172,0.000000,0.000000,0.000000,0.000000,-0.001336,0.000008,0.000023,0.126367,0.126305,0.123649,0.123679,922,963,936,961
9592,0,0.016448,-0.003536,0.031310,-0.00,-0.00,-0.002427,0.125000,-0.000899,-0.000036,0.000000,0.000000,0.000000,0.000000,-0.000126,0.000009,0.000025,0.125160,0.125092,0.124858,0.124889,921,962,937,962
9602,0,0.018569,-0.006974,0.034429,-0.00,-0.00,-0.002562,0.125000,-0.000967,0.000108,0.000000,0.000000,0.000000,0.000000,0.000982,0.000011,0.000026,0.124055,0.123981,0.125967,0.125997,920,961,938,963
9611,0,0.020702,-0.010597,0.037797,0.00,-0.00,-0.002665,0.125000,-0.001028,0.000250,0.000000,0.000000,0.000000,0.000000,0.002282,0.000013,0.000027,0.122757,0.122678,0.127268,0.127297,919,960,939,964
9622,0,0.022845,-0.014368,0.041146,0.00,-0.00,-0.002575,0.125000,-0.001110,0.000416,0.000000,0.000000,0.000000,0.000000,0.003092,0.000014,0.000026,0.121948,0.121868,0.128080,0.128104,919,959,940,965
9632,0,0.024559,-0.018258,0.044480,0.00,-0.00,-0.002401,0.125000,-0.001180,0.000576,0.000000,0.000000,0.000000,0.000000,0.003633,0.000016,0.000024,0.121408,0.121327,0.128624,0.128641,918,959,940,965
9642,0,0.025930,-0.022024,0.048019,0.00,-0.00,-0.002204,0.125000,-0.001245,0.000737,0.000000,0.000000,0.000000,0.000000,0.003851,0.000017,0.000022,0.121189,0.121109,0.128846,0.128856,918,959,941,965
9652,0,0.027027,-0.025909,0.051505,0.00,-0.00,-0.001895,0.125000,-0.001306,0.000905,0.000000,0.000000,0.000000,0.000000,0.003824,0.000019,0.000019,0.121214,0.121138,0.128824,0.128824,918,959,941,965
9662,0,0.027905,-0.029890,0.054949,0.00,-0.00,-0.001576,0.125000,-0.001363,0.001078,0.000000,0.000000,0.000000,0.000000,0.003593,0.000020,0.000016,0.121444,0.121371,0.128597,0.128588,918,959,940,965
9672,0,0.028389,-0.033948,0.058358,0.00,-0.00,-0.001325,0.125000,-0.001412,0.001256,0.000000,0.000000,0.000000,0.000000,0.003067,0.000022,0.000013,0.121969,0.121898,0.128075,0.128058,919,959,940,965
9682,0,0.028558,-0.037849,0.061522,-0.00,-0.00,-0.000926,0.125000,-0.001454,0.001433,0.000000,0.000000,0.000000,0.000000,0.002295,0.000023,0.000009,0.122737,0.122672,0.127309,0.127282,919,960,939,964
9692,0,0.028475,-0.041842,0.064707,-0.00,-0.01,-0.000456,0.125000,-0.001489,0.001614,0.000000,0.000000,0.000000,0.000000,0.001370,0.000024,0.000005,0.123659,0.123601,0.126389,0.126350,920,961,939,963
9702,0,0.027754,-0.045909,0.067692,-0.00,-0.01,0.000083,0.125000,-0.001510,0.001796,0.000000,0.000000,0.000000,0.000000,-0.000030,0.000025,-0.000000,0.125054,0.125005,0.124997,0.124944,921,962,937,962
9711,0,0.026741,-0.050035,0.070516,-0.00,-0.01,0.000771,0.125000,-0.001524,0.001967,0.000000,0.000000,0.000000,0.000000,-0.001638,0.000027,-0.000008,0.126658,0.126619,0.123397,0.123327,922,963,936,961
9722,0,0.025058,-0.053991,0.073212,-0.00,-0.01,0.001488,0.125000,-0.001512,0.002156,0.000000,0.000000,0.000000,0.000000,-0.003510,0.000028,-0.000015,0.128523,0.128497,0.121533,0.121447,924,965,935,959
9737,0,0.021748,-0.058464,0.076241,-0.00,-0.01,0.002184,0.125000,-0.001432,0.002386,0.000000,0.000000,0.000000,0.000000,-0.005825,0.000028,-0.000022,0.130831,0.130819,0.119226,0.119125,926,967,933,957
9749,0,0.018010,-0.062479,0.078882,-0.00,-0.01,0.002939,0.125000,-0.001353,0.002581,0.000000,0.000000,0.000000,0.000000,-0.008719,0.000029,-0.000030,0.133718,0.133720,0.116340,0.116222,928,969,930,955
9758,0,0.013709,-0.066346,0.080995,-0.00,-0.01,0.003642,0.125000,-0.001298,0.002742,0.000000,0.000000,0.000000,0.000000,-0.012869,0.000031,-0.000037,0.137863,0.137876,0.112198,0.112063,932,973,927,951
9770,0,0.009397,-0.069657,0.082686,-0.00,-0.01,0.004249,0.125000,-0.001170,0.002909,0.000000,0.000000,0.000000,0.000000,-0.015336,0.000031,-0.000043,0.140324,0.140348,0.109738,0.109590,934,975,925,949
9781,0,0.004856,-0.072525,0.084038,-0.01,-0.01,0.004858,0.125000,-0.001038,0.003055,0.000000,0.000000,0.000000,0.000000,-0.018002,0.000031,-0.000049,0.142984,0.143020,0.107078,0.106917,936,977,923,947
9793,0,-0.000959,-0.075255,0.084902,-0.01,-0.01,0.005216,0.125000,-0.000852,0.003199,0.000000,0.000000,0.000000,0.000000,-0.021017,0.000031,-0.000053,0.145995,0.146039,0.104067,0.103899,938,979,920,945
9802,0,-0.006483,-0.077439,0.085375,-0.01,-0.01,0.005513,0.125000,-0.000720,0.003308,0.000000,0.000000,0.000000,0.000000,-0.024908,0.000031,-0.000056,0.149884,0.149933,0.100178,0.100005,941,982,917,942
9812,0,-0.010902,-0.079186,0.085753,-0.01,-0.01,0.005781,0.125000,-0.000558,0.003410,0.000000,0.000000,0.000000,0.000000,-0.026724,0.000031,-0.000058,0.151696,0.151751,0.098366,0.098187,943,984,916,940
9822,0,-0.015310,-0.080802,0.085838,-0.01,-0.01,0.005928,0.125000,-0.000385,0.003506,0.000000,0.000000,0.000000,0.000000,-0.028256,0.000030,-0.000060,0.153226,0.153286,0.096834,0.096654,944,985,914,939
9832,0,-0.019710,-0.082095,0.085687,-0.01,-0.01,0.005933,0.125000,-0.000205,0.003595,0.000000,0.000000,0.000000,0.000000,-0.029600,0.000029,-0.000060,0.154570,0.154631,0.095489,0.095311,945,986,913,938
9843,0,-0.023665,-0.083129,0.085130,-0.01,-0.01,0.005740,0.125000,-0.000011,0.003677,0.000000,0.000000,0.000000,0.000000,-0.030065,0.000028,-0.000058,0.155036,0.155095,0.095021,0.094849,946,987,913,937
9852,0,-0.027266,-0.083957,0.084467,-0.02,-0.00,0.005338,0.125000,0.000150,0.003745,0.000000,0.000000,0.000000,0.000000,-0.030865,0.000027,-0.000054,0.155839,0.155892,0.094216,0.094054,946,987,912,937
9862,0,-0.030365,-0.084837,0.083500,-0.01,-0.00,0.004780,0.125000,0.000323,0.003817,0.000000,0.000000,0.000000,0.000000,-0.030743,0.000026,-0.000048,0.155721,0.155765,0.094332,0.094183,946,987,912,937
9872,0,-0.032844,-0.085541,0.082508,-0.01,-0.00,0.004109,0.125000,0.000488,0.003882,0.000000,0.000000,0.000000,0.000000,-0.030016,0.000025,-0.000041,0.154999,0.155032,0.095051,0.094918,946,987,913,937
9882,0,-0.034391,-0.086322,0.081278,-0.01,-0.00,0.003364,0.125000,0.000637,0.003946,0.000000,0.000000,0.000000,0.000000,-0.028496,0.000024,-0.000034,0.153487,0.153506,0.096562,0.096446,944,985,914,939
9893,0,-0.035192,-0.086948,0.080076,-0.01,-0.00,0.002486,0.125000,0.000777,0.004003,0.000000,0.000000,0.000000,0.000000,-0.026272,0.000023,-0.000025,0.151270,0.151274,0.098776,0.098680,943,984,916,940
9903,0,-0.035179,-0.087666,0.078896,-0.01,-0.00,0.001624,0.125000,0.000893,0.004054,0.000000,0.000000,0.000000,0.000000,-0.023554,0.000023,-0.000016,0.148561,0.148548,0.101485,0.101407,940,981,918,943
9912,0,-0.034514,-0.088240,0.077734,-0.00,-0.00,0.000618,0.125000,0.000993,0.004090,0.000000,0.000000,0.000000,0.000000,-0.020397,0.000022,-0.000006,0.145414,0.145381,0.104631,0.104574,938,979,921,945
9922,0,-0.032890,-0.088482,0.076586,-0.00,-0.00,-0.000586,0.125000,0.001066,0.004118,0.000000,0.000000,0.000000,0.000000,-0.016652,0.000022,0.000006,0.141680,0.141625,0.108364,0.108332,935,976,924,948
9932,0,-0.030283,-0.088457,0.075450,-0.00,-0.00,-0.002064,0.125000,0.001113,0.004141,0.000000,0.000000,0.000000,0.000000,-0.012300,0.000021,0.000021,0.137342,0.137259,0.112700,0.112700,931,972,927,952
9943,0,-0.026452,-0.088219,0.074322,-0.00,-0.00,-0.003669,0.125000,0.001114,0.004161,0.000000,0.000000,0.000000,0.000000,-0.007467,0.000019,0.000037,0.132523,0.132410,0.117516,0.117551,927,968,931,956
9952,0,-0.021423,-0.088028,0.073420,0.00,-0.00,-0.005325,0.125000,0.001120,0.004183,0.000000,0.000000,0.000000,0.000000,-0.001028,0.000018,0.000053,0.126100,0.125957,0.123936,0.124007,922,963,937,961
9963,0,-0.015000,-0.087876,0.072699,0.00,-0.00,-0.007024,0.125000,0.001039,0.004202,0.000000,0.000000,0.000000,0.000000,0.005145,0.000017,0.000070,0.119942,0.119767,0.130092,0.130199,917,958,942,966
9973,0,-0.007244,-0.087754,0.071904,0.00,-0.00,-0.008823,0.125000,0.000941,0.004217,0.000000,0.000000,0.000000,0.000000,0.012610,0.000016,0.000088,0.112494,0.112285,0.137538,0.137683,911,952,948,972
9983,0,0.001797,-0.087657,0.071267,0.01,-0.00,-0.010472,0.125000,0.000797,0.004230,0.000000,0.000000,0.000000,0.000000,0.020587,0.000015,0.000105,0.104533,0.104293,0.145498,0.145677,904,945,954,979
9993,0,0.011866,-0.087579,0.070758,0.02,-0.00,-0.012076,0.125000,0.000611,0.004243,0.000000,0.000000,0.000000,0.000000,0.028884,0.000015,0.000121,0.096252,0.095981,0.153778,0.153990,897,938,961,986
10003,0,0.022975,-0.087516,0.070569,0.02,-0.00,-0.013516,0.125000,0.000378,0.004251,0.000000,0.000000,0.000000,0.000000,0.037408,0.000014,0.000135,0.087741,0.087443,0.162287,0.162529,891,931,968,993
10013,0,0.034917,-0.087248,0.070418,0.02,-0.00,-0.014664,0.125000,0.000102,0.004255,0.000000,0.000000,0.000000,0.000000,0.045953,0.000013,0.000147,0.079207,0.078887,0.170820,0.171086,884,924,975,1000
