t,is_crashed,roll,pitch,yaw,p,q,r,throttle,p_cmd,q_cmd,r_cmd,roll_cmd,pitch_cmd,yaw_cmd,roll_pid_out,pitch_pid_out,yaw_pid_out,motor_fl,motor_bl,motor_fr,motor_br,pwm_fl,pwm_bl,pwm_fr,pwm_br
7022,0,0.437500,0.337500,71.987503,0.00,0.00,0.000000,0.004000,-0.021890,-0.020929,0.000000,0.000000,0.039999,0.000000,0.000091,-0.000170,0.000000,0.000000,0.000000,0.000000,0.000000,0,0,0,0
7034,0,0.700000,0.540000,129.577499,0.11,0.08,-0.000104,0.004000,-0.034931,-0.035196,0.000000,0.000000,0.039999,0.000000,0.000586,-0.000964,0.000001,0.000000,0.000000,0.000000,0.000000,819,819,819,819
7044,0,0.910000,0.702000,175.649506,0.20,0.16,-0.000197,0.004000,-0.045329,-0.046416,0.000000,0.000000,0.039999,0.000000,0.001008,-0.001641,0.000002,0.000000,0.000000,0.000000,0.000000,819,819,819,819
7054,0,1.078000,0.831600,-147.492889,0.27,0.21,-0.000179,0.004000,-0.053671,-0.055485,0.000000,0.000000,0.039999,0.000000,0.001300,-0.002108,0.000002,0.000000,0.000000,0.000000,0.000000,819,819,819,819
7064,0,1.212400,0.935280,-118.006805,0.31,0.24,-0.000265,0.004000,-0.060355,-0.062749,0.000000,0.000000,0.039999,0.000000,0.001492,-0.002419,0.000003,0.000000,0.000000,0.000000,0.000000,819,819,819,819
7075,0,1.319920,1.018224,-94.417938,0.33,0.25,-0.000240,0.004000,-0.065717,-0.068571,0.000000,0.000000,0.039999,0.000000,0.001588,-0.002578,0.000002,0.000000,0.000000,0.000000,0.000000,819,819,819,819
7090,0,1.405936,1.084579,-75.546844,0.32,0.25,-0.000321,0.004000,-0.070025,-0.073242,0.000000,0.000000,0.039999,0.000000,0.001592,-0.002596,0.000003,0.000000,0.000000,0.000000,0.000000,819,819,819,819
7102,0,1.474749,1.137663,-60.449982,0.32,0.25,-0.000394,0.004000,-0.073472,-0.076980,0.000000,0.000000,0.039999,0.000000,0.001593,-0.002609,0.000004,0.000000,0.000000,0.000000,0.000000,819,819,819,819
7115,0,1.529799,1.180131,-48.372498,0.31,0.24,-0.000564,0.004000,-0.076235,-0.079976,0.000000,0.000000,0.039999,0.000000,0.001570,-0.002578,0.000006,0.000000,0.000000,0.000000,0.000000,819,819,819,819
7125,0,1.573839,1.214105,-38.710510,0.30,0.23,-0.000718,0.004000,-0.078449,-0.082375,0.000000,0.000000,0.039999,0.000000,0.001537,-0.002529,0.000007,0.000000,0.000000,0.000000,0.000000,819,819,819,819
7135,0,1.609072,1.241284,-30.980927,0.29,0.22,-0.000753,0.004000,-0.080225,-0.084298,0.000000,0.000000,0.039999,0.000000,0.001496,-0.002468,0.000008,0.000000,0.000000,0.000000,0.000000,819,819,819,819
7145,0,1.637257,1.263027,-24.797241,0.27,0.21,-0.000681,0.004000,-0.081650,-0.085839,0.000000,0.000000,0.039999,0.000000,0.001444,-0.002392,0.000007,0.000000,0.000000,0.000000,0.000000,819,819,819,819
7155,0,1.659806,1.280422,-19.850311,0.26,0.20,-0.000928,0.004000,-0.082794,-0.087075,0.000000,0.000000,0.039999,0.000000,0.001386,-0.002308,0.000009,0.000000,0.000000,0.000000,0.000000,819,819,819,819
7165,0,1.677845,1.294337,-15.892761,0.24,0.18,-0.000840,0.004000,-0.083713,-0.088068,0.000000,0.000000,0.039999,0.000000,0.001325,-0.002213,0.000008,0.000000,0.000000,0.000000,0.000000,819,819,819,819
7175,0,1.692276,1.305470,-12.726715,0.22,0.17,-0.000760,0.004000,-0.084452,-0.088865,0.000000,0.000000,0.039999,0.000000,0.001261,-0.002118,0.000008,0.000000,0.000000,0.000000,0.000000,819,819,819,819
7185,0,1.703821,1.314376,-10.193878,0.21,0.16,-0.000895,0.004000,-0.085046,-0.089505,0.000000,0.000000,0.039999,0.000000,0.001199,-0.002021,0.000009,0.000000,0.000000,0.000000,0.000000,819,819,819,819
7195,0,1.713057,1.321501,-8.167603,0.19,0.15,-0.000810,0.004000,-0.085524,-0.090019,0.000000,0.000000,0.039999,0.000000,0.001138,-0.001925,0.000008,0.000000,0.000000,0.000000,0.000000,819,819,819,819
7205,0,1.720445,1.327201,-6.546600,0.18,0.14,-0.000733,0.004000,-0.085909,-0.090432,0.000000,0.000000,0.039999,0.000000,0.001080,-0.001838,0.000007,0.000000,0.000000,0.000000,0.000000,819,819,819,819
7215,0,1.726356,1.331760,-5.249786,0.16,0.12,-0.000663,0.004000,-0.086220,-0.090765,0.000000,0.000000,0.039999,0.000000,0.001022,-0.001750,0.000007,0.000000,0.000000,0.000000,0.000000,819,819,819,819
7225,0,1.731085,1.335408,-4.212341,0.15,0.11,-0.000497,0.004000,-0.086470,-0.091033,0.000000,0.000000,0.039999,0.000000,0.000970,-0.001666,0.000005,0.000000,0.000000,0.000000,0.000000,819,819,819,819
7235,0,1.734868,1.338327,-3.382385,0.13,0.10,-0.000657,0.004000,-0.086672,-0.091249,0.000000,0.000000,0.039999,0.000000,0.000919,-0.001590,0.000007,0.000000,0.000000,0.000000,0.000000,819,819,819,819
7245,0,1.737895,1.340661,-2.718414,0.12,0.09,-0.000698,0.004000,-0.086836,-0.091423,0.000000,0.000000,0.039999,0.000000,0.000873,-0.001518,0.000007,0.000000,0.000000,0.000000,0.000000,819,819,819,819
7255,0,1.740316,1.342529,-2.187225,0.11,0.09,-0.000839,0.004000,-0.086968,-0.091564,0.000000,0.000000,0.039999,0.000000,0.000830,-0.001452,0.000008,0.000000,0.000000,0.000000,0.000000,819,819,819,819
7265,0,1.742253,1.344023,-1.762299,0.10,0.08,-0.000863,0.004000,-0.087075,-0.091678,0.000000,0.000000,0.039999,0.000000,0.000790,-0.001391,0.000009,0.000000,0.000000,0.000000,0.000000,819,819,819,819
7275,0,1.743802,1.345219,-1.422333,0.09,0.07,-0.000781,0.004000,-0.087162,-0.091770,0.000000,0.000000,0.039999,0.000000,0.000754,-0.001331,0.000008,0.000000,0.000000,0.000000,0.000000,819,819,819,819
7285,0,1.745042,1.346175,-1.150360,0.08,0.06,-0.000914,0.004000,-0.087233,-0.091844,0.000000,0.000000,0.039999,0.000000,0.000721,-0.001280,0.000009,0.000000,0.000000,0.000000,0.000000,819,819,819,819
7295,0,1.746033,1.346940,-0.932800,0.08,0.06,-0.000931,0.005000,-0.087290,-0.091905,0.000000,0.000000,0.039999,0.000000,0.000690,-0.001233,0.000009,0.000000,0.000000,0.000000,0.000000,819,819,819,819
7305,0,1.746827,1.347552,-0.758759,0.07,0.05,-0.000946,0.005000,-0.087337,-0.091954,0.000000,0.000000,0.039999,0.000000,0.000662,-0.001189,0.000010,0.000000,0.000000,0.000000,0.000000,819,819,819,819
7315,0,1.747461,1.348042,-0.619507,0.06,0.05,-0.000856,0.005000,-0.087376,-0.091994,0.000000,0.000000,0.039999,0.000000,0.000635,-0.001149,0.000009,0.000000,0.000000,0.000000,0.000000,819,819,819,819
7325,0,1.747969,1.348433,-0.508118,0.06,0.04,-0.000775,0.004000,-0.087407,-0.092027,0.000000,0.000000,0.039999,0.000000,0.000612,-0.001115,0.000008,0.000000,0.000000,0.000000,0.000000,819,819,819,819
7335,0,1.748375,1.348747,-0.419006,0.05,0.04,-0.000805,0.004000,-0.087433,-0.092054,0.000000,0.000000,0.039999,0.000000,0.000592,-0.001083,0.000008,0.000000,0.000000,0.000000,0.000000,819,819,819,819
7345,0,1.748700,1.348997,-0.347717,0.05,0.03,-0.000417,0.004000,-0.087454,-0.092076,0.000000,0.000000,0.039999,0.000000,0.000573,-0.001053,0.000004,0.000000,0.000000,0.000000,0.000000,819,819,819,819
7355,0,1.748960,1.349198,-0.290680,0.04,0.03,-0.000378,0.004000,-0.087471,-0.092094,0.000000,0.000000,0.039999,0.000000,0.000555,-0.001026,0.000004,0.000000,0.000000,0.000000,0.000000,819,819,819,819
7365,0,1.749168,1.349358,-0.245056,0.04,0.03,-0.000238,0.004000,-0.087486,-0.092109,0.000000,0.000000,0.039999,0.000000,0.000539,-0.001003,0.000002,0.000000,0.000000,0.000000,0.000000,819,819,819,819
7375,0,1.749335,1.349487,-0.208557,0.03,0.03,-0.000527,0.004000,-0.087498,-0.092121,0.000000,0.000000,0.039999,0.000000,0.000525,-0.000983,0.000005,0.000000,0.000000,0.000000,0.000000,819,819,819,819
7385,0,1.749468,1.349589,-0.179352,0.03,0.02,-0.000062,0.004000,-0.087508,-0.092131,0.000000,0.000000,0.039999,0.000000,0.000513,-0.000966,0.000000,0.000000,0.000000,0.000000,0.000000,819,819,819,819
7395,0,1.749574,1.349671,-0.155975,0.03,0.02,-0.000160,0.005000,-0.087516,-0.092140,0.000000,0.000000,0.039999,0.000000,0.000502,-0.000949,0.000002,0.000000,0.000000,0.000000,0.000000,819,819,819,819
7413,0,1.749660,1.349737,-0.137299,0.02,0.02,-0.000248,0.004000,-0.087523,-0.092148,0.000000,0.000000,0.039999,0.000000,0.000493,-0.000932,0.000003,0.000000,0.000000,0.000000,0.000000,819,819,819,819
7424,0,1.749728,1.349790,-0.122345,0.02,0.02,-0.000225,0.004000,-0.087529,-0.092154,0.000000,0.000000,0.039999,0.000000,0.000483,-0.000919,0.000002,0.000000,0.000000,0.000000,0.000000,819,819,819,819
7435,0,1.749782,1.349832,-0.110382,0.02,0.02,-0.001032,0.004000,-0.087534,-0.092159,0.000000,0.000000,0.039999,0.000000,0.000474,-0.000906,0.000010,0.000000,0.000000,0.000000,0.000000,819,819,819,819
7445,0,1.749826,1.349865,-0.100800,0.02,0.01,-0.000831,0.004000,-0.087538,-0.092164,0.000000,0.000000,0.039999,0.000000,0.000467,-0.000894,0.000008,0.000000,0.000000,0.000000,0.000000,819,819,819,819
7455,0,1.749861,1.349892,-0.093140,0.02,0.01,-0.000544,0.004000,-0.087542,-0.092168,0.000000,0.000000,0.039999,0.000000,0.000459,-0.000885,0.000006,0.000000,0.000000,0.000000,0.000000,819,819,819,819
7465,0,1.749889,1.349914,-0.087006,0.01,0.01,-0.001322,0.004000,-0.087545,-0.092171,0.000000,0.000000,0.039999,0.000000,0.000452,-0.000874,0.000013,0.000000,0.000000,0.000000,0.000000,819,819,819,819
7475,0,1.749911,1.349931,-0.082123,0.01,0.01,-0.001611,0.004000,-0.087548,-0.092174,0.000000,0.000000,0.039999,0.000000,0.000447,-0.000867,0.000016,0.000000,0.000000,0.000000,0.000000,819,819,819,819
7486,0,1.749929,1.349945,-0.078217,0.01,0.01,-0.001147,0.004000,-0.087550,-0.092177,0.000000,0.000000,0.039999,0.000000,0.000442,-0.000859,0.000012,0.000000,0.000000,0.000000,0.000000,819,819,819,819
7496,0,1.749943,1.349956,-0.075073,0.01,0.00,-0.001038,0.004000,-0.087552,-0.092179,0.000000,0.000000,0.039999,0.000000,0.000438,-0.000849,0.000011,0.000000,0.000000,0.000000,0.000000,819,819,819,819
7506,0,1.749955,1.349965,-0.072571,0.00,0.00,-0.001250,0.004000,-0.087554,-0.092182,0.000000,0.000000,0.039999,0.000000,0.000434,-0.000841,0.000013,0.000000,0.000000,0.000000,0.000000,819,819,819,819
7515,0,1.749964,1.349972,-0.070557,0.00,0.00,-0.001131,0.004000,-0.087556,-0.092184,0.000000,0.000000,0.039999,0.000000,0.000430,-0.000833,0.000011,0.000000,0.000000,0.000000,0.000000,819,819,819,819
7525,0,1.749971,1.349977,-0.068939,0.00,0.00,-0.001024,0.004000,-0.087557,-0.092186,0.000000,0.000000,0.039999,0.000000,0.000427,-0.000828,0.000010,0.000000,0.000000,0.000000,0.000000,819,819,819,819
7536,0,1.749977,1.349982,-0.067657,0.00,0.00,-0.001238,0.004000,-0.087558,-0.092187,0.000000,0.000000,0.039999,0.000000,0.000425,-0.000821,0.000013,0.000000,0.000000,0.000000,0.000000,819,819,819,819
7546,0,1.749982,1.349985,-0.066620,0.00,0.00,-0.001327,0.004000,-0.087559,-0.092189,0.000000,0.000000,0.039999,0.000000,0.000421,-0.000817,0.000013,0.000000,0.000000,0.000000,0.000000,819,819,819,819
7556,0,1.749985,1.349988,-0.065796,0.00,0.00,-0.001512,0.004000,-0.087560,-0.092190,0.000000,0.000000,0.039999,0.000000,0.000419,-0.000814,0.000015,0.000000,0.000000,0.000000,0.000000,819,819,819,819
7566,0,1.749988,1.349991,-0.065155,0.00,0.00,-0.001679,0.004000,-0.087561,-0.092191,0.000000,0.000000,0.039999,0.000000,0.000417,-0.000810,0.000017,0.000000,0.000000,0.000000,0.000000,819,819,819,819
7576,0,1.749991,1.349993,-0.064636,0.00,0.00,-0.001416,0.004000,-0.087562,-0.092193,0.000000,0.000000,0.039999,0.000000,0.000415,-0.000808,0.000014,0.000000,0.000000,0.000000,0.000000,819,819,819,819
7586,0,1.749992,1.349994,-0.064209,0.00,0.00,-0.001178,0.004000,-0.087562,-0.092193,0.000000,0.000000,0.039999,0.000000,0.000414,-0.000809,0.000012,0.000000,0.000000,0.000000,0.000000,819,819,819,819
7596,0,1.749994,1.349995,-0.063873,0.00,0.00,-0.001481,0.004000,-0.087563,-0.092194,0.000000,0.000000,0.039999,0.000000,0.000413,-0.000807,0.000015,0.000000,0.000000,0.000000,0.000000,819,819,819,819
7606,0,1.749995,1.349996,-0.063599,0.00,0.00,-0.001236,0.004000,-0.087563,-0.092195,0.000000,0.000000,0.039999,0.000000,0.000412,-0.000807,0.000013,0.000000,0.000000,0.000000,0.000000,819,819,819,819
7616,0,1.749996,1.349997,-0.063385,0.00,0.00,-0.000497,0.004000,-0.087564,-0.092196,0.000000,0.000000,0.039999,0.000000,0.000411,-0.000804,0.000005,0.000000,0.000000,0.000000,0.000000,819,819,819,819
7626,0,1.749997,1.349998,-0.063202,0.00,0.00,0.000172,0.004000,-0.087564,-0.092197,0.000000,0.000000,0.039999,0.000000,0.000410,-0.000801,-0.000002,0.000000,0.000000,0.000000,0.000000,819,819,819,819
7636,0,1.749998,1.349998,-0.063080,0.00,0.00,0.000052,0.004000,-0.087564,-0.092198,0.000000,0.000000,0.039999,0.000000,0.000410,-0.000801,-0.000000,0.000000,0.000000,0.000000,0.000000,819,819,819,819
7646,0,1.749998,1.349998,-0.062958,0.00,0.00,-0.000367,0.004000,-0.087565,-0.092199,0.000000,0.000000,0.039999,0.000000,0.000410,-0.000800,0.000004,0.000000,0.000000,0.000000,0.000000,819,819,819,819
7656,0,1.749999,1.349999,-0.062866,0.00,0.00,-0.000643,0.004000,-0.087565,-0.092200,0.000000,0.000000,0.039999,0.000000,0.000409,-0.000798,0.000007,0.000000,0.000000,0.000000,0.000000,819,819,819,819
7666,0,1.749999,1.349999,-0.062805,0.00,0.00,-0.001204,0.004000,-0.087565,-0.092201,0.000000,0.000000,0.039999,0.000000,0.000409,-0.000796,0.000012,0.000000,0.000000,0.000000,0.000000,819,819,819,819
7676,0,1.749999,1.349999,-0.062744,0.00,0.00,-0.001193,0.004000,-0.087566,-0.092202,0.000000,0.000000,0.039999,0.000000,0.000408,-0.000795,0.000012,0.000000,0.000000,0.000000,0.000000,819,819,819,819
7686,0,1.749999,1.349999,-0.062714,0.00,0.00,-0.000769,0.004000,-0.087566,-0.092203,0.000000,0.000000,0.039999,0.000000,0.000407,-0.000792,0.000008,0.000000,0.000000,0.000000,0.000000,819,819,819,819
7696,0,1.750000,1.349999,-0.062683,0.00,0.00,-0.000696,0.004000,-0.087566,-0.092204,0.000000,0.000000,0.039999,0.000000,0.000407,-0.000790,0.000007,0.000000,0.000000,0.000000,0.000000,819,819,819,819
7706,0,1.750000,1.350000,-0.062653,0.00,0.00,-0.000526,0.004000,-0.087567,-0.092205,0.000000,0.000000,0.039999,0.000000,0.000406,-0.000789,0.000005,0.000000,0.000000,0.000000,0.000000,819,819,819,819
7716,0,1.750000,1.350000,-0.062622,0.00,0.00,-0.000787,0.004000,-0.087567,-0.092205,0.000000,0.000000,0.039999,0.000000,0.000407,-0.000788,0.000008,0.000000,0.000000,0.000000,0.000000,819,819,819,819
7734,0,1.750000,1.350000,-0.062592,0.00,-0.00,-0.000401,0.005000,-0.087567,-0.092207,0.000000,0.000000,0.039999,0.000000,0.000407,-0.000786,0.000004,0.000000,0.000000,0.000000,0.000000,819,819,819,819
7745,0,1.750000,1.350000,-0.062592,0.00,-0.00,0.000258,0.004000,-0.087567,-0.092207,0.000000,0.000000,0.039999,0.000000,0.000407,-0.000788,-0.000002,0.000000,0.000000,0.000000,0.000000,819,819,819,819
7757,0,1.750000,1.350000,-0.062592,0.00,-0.00,0.000752,0.004000,-0.087567,-0.092208,0.000000,0.000000,0.039999,0.000000,0.000408,-0.000786,-0.000007,0.000000,0.000000,0.000000,0.000000,819,819,819,819
7767,0,1.750000,1.350000,-0.062592,0.00,0.00,0.000784,0.004000,-0.087567,-0.092209,0.000000,0.000000,0.039999,0.000000,0.000407,-0.000790,-0.000008,0.000000,0.000000,0.000000,0.000000,819,819,819,819
7777,0,1.750000,1.350000,-0.062592,0.00,0.00,0.000917,0.004000,-0.087567,-0.092209,0.000000,0.000000,0.039999,0.000000,0.000408,-0.000792,-0.000009,0.000000,0.000000,0.000000,0.000000,819,819,819,819
7786,0,1.750000,1.350000,-0.062592,0.00,0.00,0.000933,0.004000,-0.087568,-0.092210,0.000000,0.000000,0.039999,0.000000,0.000408,-0.000792,-0.000009,0.000000,0.000000,0.000000,0.000000,819,819,819,819
7796,0,1.750000,1.350000,-0.062592,0.00,0.00,0.001052,0.004000,-0.087568,-0.092211,0.000000,0.000000,0.039999,0.000000,0.000408,-0.000791,-0.000010,0.000000,0.000000,0.000000,0.000000,819,819,819,819
7806,0,1.750000,1.350000,-0.062592,0.00,0.00,0.001159,0.004000,-0.087568,-0.092211,0.000000,0.000000,0.039999,0.000000,0.000409,-0.000791,-0.000011,0.000000,0.000000,0.000000,0.000000,819,819,819,819
7816,0,1.750000,1.350000,-0.062592,0.00,0.00,0.001153,0.004000,-0.087568,-0.092212,0.000000,0.000000,0.039999,0.000000,0.000408,-0.000792,-0.000011,0.000000,0.000000,0.000000,0.000000,819,819,819,819
7826,0,1.750000,1.350000,-0.062592,0.00,0.00,0.001043,0.004000,-0.087568,-0.092212,0.000000,0.000000,0.039999,0.000000,0.000409,-0.000793,-0.000010,0.000000,0.000000,0.000000,0.000000,819,819,819,819
7836,0,1.750000,1.350000,-0.062592,0.00,0.00,0.000944,0.004000,-0.087568,-0.092213,0.000000,0.000000,0.039999,0.000000,0.000408,-0.000792,-0.000009,0.000000,0.000000,0.000000,0.000000,819,819,819,819
7846,0,1.750000,1.350000,-0.062592,0.00,0.00,0.000647,0.004000,-0.087568,-0.092214,0.000000,0.000000,0.039999,0.000000,0.000409,-0.000794,-0.000006,0.000000,0.000000,0.000000,0.000000,819,819,819,819
7856,0,1.750000,1.350000,-0.062592,0.00,0.00,0.000379,0.004000,-0.087569,-0.092214,0.000000,0.000000,0.039999,0.000000,0.000408,-0.000796,-0.000004,0.000000,0.000000,0.000000,0.000000,819,819,819,819
7870,0,1.750000,1.350000,-0.062592,0.00,0.00,0.000239,0.004000,-0.087569,-0.092215,0.000000,0.000000,0.039999,0.000000,0.000409,-0.000798,-0.000002,0.000000,0.000000,0.000000,0.000000,819,819,819,819
7881,0,1.750000,1.350000,-0.062592,0.00,0.00,0.000320,0.004000,-0.087569,-0.092216,0.000000,0.000000,0.039999,0.000000,0.000409,-0.000798,-0.000003,0.000000,0.000000,0.000000,0.000000,819,819,819,819
7891,0,1.750000,1.350000,-0.062592,0.00,0.00,0.000289,0.004000,-0.087569,-0.092216,0.000000,0.000000,0.039999,0.000000,0.000409,-0.000800,-0.000003,0.000000,0.000000,0.000000,0.000000,819,819,819,819
7902,0,1.750000,1.350000,-0.062592,-0.00,0.00,0.000158,0.004000,-0.087569,-0.092217,0.000000,0.000000,0.039999,0.000000,0.000409,-0.000797,-0.000001,0.000000,0.000000,0.000000,0.000000,819,819,819,819
7914,0,1.750000,1.350000,-0.062592,0.00,0.00,-0.000168,0.004000,-0.087569,-0.092218,0.000000,0.000000,0.039999,0.000000,0.000410,-0.000800,0.000002,0.000000,0.000000,0.000000,0.000000,819,819,819,819
7927,0,1.750000,1.350000,-0.062592,0.00,0.00,-0.000152,0.004000,-0.087569,-0.092219,0.000000,0.000000,0.039999,0.000000,0.000410,-0.000800,0.000002,0.000000,0.000000,0.000000,0.000000,819,819,819,819
7937,0,1.750000,1.350000,-0.062592,-0.00,0.00,-0.000241,0.004000,-0.087570,-0.092219,0.000000,0.000000,0.039999,0.000000,0.000410,-0.000799,0.000003,0.000000,0.000000,0.000000,0.000000,819,819,819,819
7947,0,1.750000,1.350000,-0.062592,-0.00,0.00,-0.000425,0.004000,-0.087570,-0.092220,0.000000,0.000000,0.039999,0.000000,0.000410,-0.000799,0.000004,0.000000,0.000000,0.000000,0.000000,819,819,819,819
7957,0,1.750000,1.350000,-0.062592,-0.00,0.00,-0.000488,0.004000,-0.087570,-0.092221,0.000000,0.000000,0.039999,0.000000,0.000409,-0.000800,0.000005,0.000000,0.000000,0.000000,0.000000,819,819,819,819
7967,0,1.750000,1.350000,-0.062592,-0.00,0.00,-0.000338,0.004000,-0.087570,-0.092222,0.000000,0.000000,0.039999,0.000000,0.000409,-0.000798,0.000004,0.000000,0.000000,0.000000,0.000000,819,819,819,819
7977,0,1.750000,1.350000,-0.062592,-0.00,0.00,-0.000514,0.004000,-0.087570,-0.092222,0.000000,0.000000,0.039999,0.000000,0.000410,-0.000798,0.000005,0.000000,0.000000,0.000000,0.000000,819,819,819,819
7987,0,1.750000,1.350000,-0.062592,-0.00,0.00,-0.000465,0.004000,-0.087570,-0.092223,0.000000,0.000000,0.039999,0.000000,0.000410,-0.000798,0.000005,0.000000,0.000000,0.000000,0.000000,819,819,819,819
7997,0,1.750000,1.350000,-0.062592,-0.00,0.00,-0.000421,0.004000,-0.087570,-0.092224,0.000000,0.000000,0.039999,0.000000,0.000411,-0.000798,0.000004,0.000000,0.000000,0.000000,0.000000,819,819,819,819
8007,0,1.750000,1.350000,-0.062592,-0.00,0.00,-0.000484,0.004000,-0.087571,-0.092224,0.000000,0.000000,0.039999,0.000000,0.000411,-0.000799,0.000005,0.000000,0.000000,0.000000,0.000000,819,819,819,819
8017,0,1.750000,1.350000,-0.062592,-0.00,0.00,-0.000542,0.004000,-0.087571,-0.092225,0.000000,0.000000,0.039999,0.000000,0.000412,-0.000799,0.000006,0.000000,0.000000,0.000000,0.000000,819,819,819,819
8027,0,1.750000,1.350000,-0.062592,-0.00,-0.00,-0.000594,0.005000,-0.087570,-0.092226,0.000000,0.000000,0.039999,0.000000,0.000413,-0.000798,0.000006,0.000000,0.000000,0.000000,0.000000,819,819,819,819
8037,0,1.750000,1.350000,-0.062592,-0.00,-0.00,-0.000538,0.005000,-0.087571,-0.092227,0.000000,0.000000,0.039999,0.000000,0.000413,-0.000796,0.000006,0.000000,0.000000,0.000000,0.000000,819,819,819,819
8054,0,1.750000,1.350000,-0.062592,-0.00,-0.00,-0.000590,0.005000,-0.087571,-0.092228,0.000000,0.000000,0.039999,0.000000,0.000414,-0.000797,0.000006,0.000000,0.000000,0.000000,0.000000,819,819,819,819
8067,0,1.750000,1.350000,-0.062592,0.00,-0.00,-0.000741,0.005000,-0.087571,-0.092229,0.000000,0.000000,0.039999,0.000000,0.000415,-0.000799,0.000008,0.000000,0.000000,0.000000,0.000000,819,819,819,819
8077,0,1.750000,1.350000,-0.062592,-0.00,-0.00,-0.000671,0.005000,-0.087571,-0.092229,0.000000,0.000000,0.039999,0.000000,0.000415,-0.000799,0.000007,0.000000,0.000000,0.000000,0.000000,819,819,819,819
8087,0,1.750000,1.350000,-0.062592,0.00,-0.00,-0.000607,0.004000,-0.087571,-0.092230,0.000000,0.000000,0.039999,0.000000,0.000415,-0.000797,0.000006,0.000000,0.000000,0.000000,0.000000,819,819,819,819
8097,0,1.750000,1.350000,-0.062592,0.00,-0.00,-0.000757,0.004000,-0.087571,-0.092231,0.000000,0.000000,0.039999,0.000000,0.000416,-0.000798,0.000008,0.000000,0.000000,0.000000,0.000000,819,819,819,819
8107,0,1.750000,1.350000,-0.062592,0.00,-0.00,-0.000789,0.004000,-0.087571,-0.092231,0.000000,0.000000,0.039999,0.000000,0.000417,-0.000798,0.000008,0.000000,0.000000,0.000000,0.000000,819,819,819,819
8117,0,1.750000,1.350000,-0.062592,0.00,-0.00,-0.000714,0.004000,-0.087571,-0.092232,0.000000,0.000000,0.039999,0.000000,0.000417,-0.000798,0.000007,0.000000,0.000000,0.000000,0.000000,819,819,819,819
8127,0,1.750000,1.350000,-0.062592,-0.00,-0.00,-0.000646,0.004000,-0.087571,-0.092233,0.000000,0.000000,0.039999,0.000000,0.000417,-0.000798,0.000007,0.000000,0.000000,0.000000,0.000000,819,819,819,819
8137,0,1.750000,1.350000,-0.062592,0.00,-0.00,-0.000688,0.004000,-0.087571,-0.092234,0.000000,0.000000,0.039999,0.000000,0.000418,-0.000795,0.000007,0.000000,0.000000,0.000000,0.000000,819,819,819,819
8147,0,1.750000,1.350000,-0.062592,0.00,-0.00,-0.000623,0.004000,-0.087571,-0.092235,0.000000,0.000000,0.039999,0.000000,0.000418,-0.000795,0.000006,0.000000,0.000000,0.000000,0.000000,819,819,819,819
8157,0,1.750000,1.350000,-0.062592,0.00,-0.00,-0.000564,0.004000,-0.087571,-0.092235,0.000000,0.000000,0.039999,0.000000,0.000418,-0.000795,0.000006,0.000000,0.000000,0.000000,0.000000,819,819,819,819
8167,0,1.750000,1.350000,-0.062592,0.00,-0.00,-0.000510,0.004000,-0.087571,-0.092236,0.000000,0.000000,0.039999,0.000000,0.000419,-0.000794,0.000005,0.000000,0.000000,0.000000,0.000000,819,819,819,819
8177,0,1.750000,1.350000,-0.062592,0.00,-0.00,-0.000358,0.004000,-0.087571,-0.092236,0.000000,0.000000,0.039999,0.000000,0.000420,-0.000798,0.000004,0.000000,0.000000,0.000000,0.000000,819,819,819,819
8187,0,1.750000,1.350000,-0.062592,0.00,-0.00,-0.000324,0.004000,-0.087571,-0.092237,0.000000,0.000000,0.039999,0.000000,0.000420,-0.000800,0.000003,0.000000,0.000000,0.000000,0.000000,819,819,819,819
8197,0,1.750000,1.350000,-0.062592,0.00,-0.00,-0.000500,0.004000,-0.087571,-0.092237,0.000000,0.000000,0.039999,0.000000,0.000420,-0.000803,0.000005,0.000000,0.000000,0.000000,0.000000,819,819,819,819
8207,0,1.750000,1.350000,-0.062592,0.00,-0.00,-0.000349,0.004000,-0.087571,-0.092238,0.000000,0.000000,0.039999,0.000000,0.000422,-0.000804,0.000004,0.000000,0.000000,0.000000,0.000000,819,819,819,819
8217,0,1.750000,1.350000,-0.062592,0.00,-0.00,-0.000420,0.004000,-0.087571,-0.092239,0.000000,0.000000,0.039999,0.000000,0.000422,-0.000803,0.000004,0.000000,0.000000,0.000000,0.000000,819,819,819,819
8227,0,1.750000,1.350000,-0.062592,0.00,-0.00,-0.000276,0.004000,-0.087571,-0.092239,0.000000,0.000000,0.039999,0.000000,0.000423,-0.000804,0.000003,0.000000,0.000000,0.000000,0.000000,819,819,819,819
8237,0,1.750000,1.350000,-0.062592,0.00,0.00,-0.000250,0.004000,-0.087571,-0.092240,0.000000,0.000000,0.039999,0.000000,0.000423,-0.000806,0.000003,0.000000,0.000000,0.000000,0.000000,819,819,819,819
8247,0,1.750000,1.350000,-0.062592,0.00,-0.00,-0.000226,0.004000,-0.087572,-0.092240,0.000000,0.000000,0.039999,0.000000,0.000423,-0.000805,0.000002,0.000000,0.000000,0.000000,0.000000,819,819,819,819
8257,0,1.750000,1.350000,-0.062592,0.00,-0.00,-0.000205,0.004000,-0.087572,-0.092241,0.000000,0.000000,0.039999,0.000000,0.000423,-0.000804,0.000002,0.000000,0.000000,0.000000,0.000000,819,819,819,819
8267,0,1.750000,1.350000,-0.062592,0.00,-0.00,-0.000289,0.004000,-0.087572,-0.092242,0.000000,0.000000,0.039999,0.000000,0.000423,-0.000803,0.000003,0.000000,0.000000,0.000000,0.000000,819,819,819,819
8277,0,1.750000,1.350000,-0.062592,0.00,-0.00,-0.000261,0.004000,-0.087572,-0.092243,0.000000,0.000000,0.039999,0.000000,0.000423,-0.000801,0.000003,0.000000,0.000000,0.000000,0.000000,819,819,819,819
8287,0,1.750000,1.350000,-0.062592,0.00,-0.00,-0.000133,0.004000,-0.087572,-0.092244,0.000000,0.000000,0.039999,0.000000,0.000423,-0.000799,0.000002,0.000000,0.000000,0.000000,0.000000,819,819,819,819
8298,0,1.750000,1.350000,-0.062592,-0.00,-0.00,-0.000017,0.004000,-0.087573,-0.092244,0.000000,0.000000,0.039999,0.000000,0.000423,-0.000801,0.000000,0.000000,0.000000,0.000000,0.000000,819,819,819,819
8307,0,1.750000,1.350000,-0.062592,-0.00,-0.00,-0.000119,0.004000,-0.087573,-0.092245,0.000000,0.000000,0.039999,0.000000,0.000423,-0.000800,0.000001,0.000000,0.000000,0.000000,0.000000,819,819,819,819
8317,0,1.750000,1.350000,-0.062592,0.00,-0.00,-0.000107,0.004000,-0.087573,-0.092246,0.000000,0.000000,0.039999,0.000000,0.000424,-0.000800,0.000001,0.000000,0.000000,0.000000,0.000000,819,819,819,819
8327,0,1.750000,1.350000,-0.062592,-0.00,-0.00,-0.000305,0.004000,-0.087573,-0.092247,0.000000,0.000000,0.039999,0.000000,0.000424,-0.000798,0.000003,0.000000,0.000000,0.000000,0.000000,819,819,819,819
8338,0,1.750000,1.350000,-0.062592,-0.00,-0.00,-0.000068,0.004000,-0.087573,-0.092248,0.000000,0.000000,0.039999,0.000000,0.000424,-0.000798,0.000000,0.000000,0.000000,0.000000,0.000000,819,819,819,819
8348,0,1.750000,1.350000,-0.062592,-0.00,-0.00,0.000145,0.004000,-0.087573,-0.092248,0.000000,0.000000,0.039999,0.000000,0.000424,-0.000801,-0.000001,0.000000,0.000000,0.000000,0.000000,819,819,819,819
8358,0,1.750000,1.350000,-0.062592,-0.00,-0.00,0.000132,0.004000,-0.087573,-0.092249,0.000000,0.000000,0.039999,0.000000,0.000424,-0.000800,-0.000001,0.000000,0.000000,0.000000,0.000000,819,819,819,819
8375,0,1.750000,1.350000,-0.062592,-0.00,-0.00,0.000119,0.004000,-0.087574,-0.092250,0.000000,0.000000,0.039999,0.000000,0.000424,-0.000798,-0.000001,0.000000,0.000000,0.000000,0.000000,819,819,819,819
8387,0,1.750000,1.350000,-0.062592,-0.00,-0.00,0.000211,0.004000,-0.087574,-0.092251,0.000000,0.000000,0.039999,0.000000,0.000425,-0.000798,-0.000002,0.000000,0.000000,0.000000,0.000000,819,819,819,819
8397,0,1.750000,1.350000,-0.062592,-0.00,-0.00,0.000295,0.004000,-0.087574,-0.092251,0.000000,0.000000,0.039999,0.000000,0.000426,-0.000801,-0.000003,0.000000,0.000000,0.000000,0.000000,819,819,819,819
8408,0,1.750000,1.350000,-0.062592,-0.00,-0.00,0.000163,0.004000,-0.087574,-0.092252,0.000000,0.000000,0.039999,0.000000,0.000426,-0.000802,-0.000001,0.000000,0.000000,0.000000,0.000000,819,819,819,819
8418,0,1.750000,1.350000,-0.062592,-0.00,-0.00,0.000251,0.004000,-0.087574,-0.092253,0.000000,0.000000,0.039999,0.000000,0.000426,-0.000802,-0.000002,0.000000,0.000000,0.000000,0.000000,819,819,819,819
8428,0,1.750000,1.350000,-0.062592,-0.00,-0.00,0.000538,0.004000,-0.087574,-0.092253,0.000000,0.000000,0.039999,0.000000,0.000426,-0.000804,-0.000005,0.000000,0.000000,0.000000,0.000000,819,819,819,819
8438,0,1.750000,1.350000,-0.062592,-0.00,-0.00,0.000591,0.004000,-0.087574,-0.092254,0.000000,0.000000,0.039999,0.000000,0.000426,-0.000804,-0.000006,0.000000,0.000000,0.000000,0.000000,819,819,819,819
8448,0,1.750000,1.350000,-0.062592,-0.00,-0.00,0.000742,0.004000,-0.087574,-0.092254,0.000000,0.000000,0.039999,0.000000,0.000427,-0.000809,-0.000007,0.000000,0.000000,0.000000,0.000000,819,819,819,819
8458,0,1.750000,1.350000,-0.062592,-0.00,-0.00,0.000879,0.004000,-0.087574,-0.092255,0.000000,0.000000,0.039999,0.000000,0.000428,-0.000810,-0.000009,0.000000,0.000000,0.000000,0.000000,819,819,819,819
8468,0,1.750000,1.350000,-0.062592,-0.00,-0.00,0.000795,0.005000,-0.087574,-0.092255,0.000000,0.000000,0.039999,0.000000,0.000428,-0.000813,-0.000008,0.000000,0.000000,0.000000,0.000000,819,819,819,819
8478,0,1.750000,1.350000,-0.062592,-0.00,-0.00,0.000616,0.005000,-0.087574,-0.092255,0.000000,0.000000,0.039999,0.000000,0.000429,-0.000814,-0.000006,0.000000,0.000000,0.000000,0.000000,819,819,819,819
8488,0,1.750000,1.350000,-0.062592,-0.00,0.00,0.000558,0.004000,-0.087574,-0.092256,0.000000,0.000000,0.039999,0.000000,0.000429,-0.000816,-0.000005,0.000000,0.000000,0.000000,0.000000,819,819,819,819
8498,0,1.750000,1.350000,-0.062592,-0.00,0.00,0.000401,0.005000,-0.087574,-0.092256,0.000000,0.000000,0.039999,0.000000,0.000430,-0.000818,-0.000004,0.000000,0.000000,0.000000,0.000000,819,819,819,819
8508,0,1.750000,1.350000,-0.062592,-0.00,0.00,0.000363,0.005000,-0.087575,-0.092257,0.000000,0.000000,0.039999,0.000000,0.000429,-0.000820,-0.000003,0.000000,0.000000,0.000000,0.000000,819,819,819,819
8518,0,1.750000,1.350000,-0.062592,-0.00,0.00,0.000536,0.004000,-0.087575,-0.092257,0.000000,0.000000,0.039999,0.000000,0.000430,-0.000822,-0.000005,0.000000,0.000000,0.000000,0.000000,819,819,819,819
8528,0,1.750000,1.350000,-0.062592,-0.00,0.00,0.000485,0.004000,-0.087575,-0.092258,0.000000,0.000000,0.039999,0.000000,0.000431,-0.000821,-0.000005,0.000000,0.000000,0.000000,0.000000,819,819,819,819
8538,0,1.750000,1.350000,-0.062592,-0.00,0.00,0.000335,0.004000,-0.087575,-0.092259,0.000000,0.000000,0.039999,0.000000,0.000430,-0.000820,-0.000003,0.000000,0.000000,0.000000,0.000000,819,819,819,819
8548,0,1.750000,1.350000,-0.062592,-0.00,0.00,0.000614,0.004000,-0.087575,-0.092260,0.000000,0.000000,0.039999,0.000000,0.000430,-0.000820,-0.000006,0.000000,0.000000,0.000000,0.000000,819,819,819,819
8558,0,1.750000,1.350000,-0.062592,-0.00,0.00,0.000659,0.004000,-0.087575,-0.092260,0.000000,0.000000,0.039999,0.000000,0.000431,-0.000819,-0.000006,0.000000,0.000000,0.000000,0.000000,819,819,819,819
8568,0,1.750000,1.350000,-0.062592,-0.00,0.00,0.000597,0.005000,-0.087575,-0.092261,0.000000,0.000000,0.039999,0.000000,0.000432,-0.000820,-0.000006,0.000000,0.000000,0.000000,0.000000,819,819,819,819
8578,0,1.750000,1.350000,-0.062592,-0.00,0.00,0.000644,0.005000,-0.087575,-0.092262,0.000000,0.000000,0.039999,0.000000,0.000433,-0.000819,-0.000006,0.000000,0.000000,0.000000,0.000000,819,819,819,819
8588,0,1.750000,1.350000,-0.062592,0.00,-0.00,0.000479,0.005000,-0.087575,-0.092263,0.000000,0.000000,0.039999,0.000000,0.000433,-0.000815,-0.000005,0.000000,0.000000,0.000000,0.000000,819,819,819,819
8598,0,1.750000,1.350000,-0.062592,0.00,-0.00,0.000433,0.005000,-0.087575,-0.092264,0.000000,0.000000,0.039999,0.000000,0.000434,-0.000814,-0.000004,0.000000,0.000000,0.000000,0.000000,819,819,819,819
8608,0,1.750000,1.350000,-0.062592,0.00,-0.00,0.000703,0.005000,-0.087575,-0.092265,0.000000,0.000000,0.039999,0.000000,0.000434,-0.000815,-0.000007,0.000000,0.000000,0.000000,0.000000,819,819,819,819
8618,0,1.750000,1.350000,-0.062592,-0.00,-0.00,0.001051,0.005000,-0.087576,-0.092265,0.000000,0.000000,0.039999,0.000000,0.000434,-0.000817,-0.000010,0.000000,0.000000,0.000000,0.000000,819,819,819,819
8628,0,1.750000,1.350000,-0.062592,-0.00,-0.00,0.001055,0.005000,-0.087576,-0.092266,0.000000,0.000000,0.039999,0.000000,0.000434,-0.000815,-0.000010,0.000000,0.000000,0.000000,0.000000,819,819,819,819
8638,0,1.750000,1.350000,-0.062592,-0.00,-0.00,0.000644,0.005000,-0.087576,-0.092267,0.000000,0.000000,0.039999,0.000000,0.000434,-0.000815,-0.000006,0.000000,0.000000,0.000000,0.000000,819,819,819,819
8648,0,1.750000,1.350000,-0.062592,-0.00,-0.00,0.000790,0.005000,-0.087576,-0.092267,0.000000,0.000000,0.039999,0.000000,0.000434,-0.000817,-0.000008,0.000000,0.000000,0.000000,0.000000,819,819,819,819
8658,0,1.750000,1.350000,-0.062592,-0.00,-0.00,0.000611,0.005000,-0.087576,-0.092268,0.000000,0.000000,0.039999,0.000000,0.000434,-0.000818,-0.000006,0.000000,0.000000,0.000000,0.000000,819,819,819,819
8668,0,1.750000,1.350000,-0.062592,-0.00,-0.00,0.000553,0.005000,-0.087576,-0.092268,0.000000,0.000000,0.039999,0.000000,0.000434,-0.000820,-0.000005,0.000000,0.000000,0.000000,0.000000,819,819,819,819
8678,0,1.750000,1.350000,-0.062592,-0.00,-0.00,0.000293,0.005000,-0.087576,-0.092269,0.000000,0.000000,0.039999,0.000000,0.000435,-0.000820,-0.000003,0.000000,0.000000,0.000000,0.000000,819,819,819,819
8693,0,1.750000,1.350000,-0.062592,-0.00,-0.00,0.000162,0.005000,-0.087576,-0.092270,0.000000,0.000000,0.039999,0.000000,0.000436,-0.000820,-0.000001,0.000000,0.000000,0.000000,0.000000,819,819,819,819
8705,0,1.750000,1.350000,-0.062592,-0.00,-0.00,0.000146,0.005000,-0.087576,-0.092271,0.000000,0.000000,0.039999,0.000000,0.000436,-0.000820,-0.000001,0.000000,0.000000,0.000000,0.000000,819,819,819,819
8718,0,1.750000,1.350000,-0.062592,-0.00,-0.00,-0.000075,0.005000,-0.087577,-0.092272,0.000000,0.000000,0.039999,0.000000,0.000436,-0.000820,0.000000,0.000000,0.000000,0.000000,0.000000,819,819,819,819
8728,0,1.750000,1.350000,-0.062592,-0.00,-0.00,0.000036,0.005000,-0.087577,-0.092272,0.000000,0.000000,0.039999,0.000000,0.000436,-0.000821,-0.000000,0.000000,0.000000,0.000000,0.000000,819,819,819,819
8739,0,1.750000,1.350000,-0.062592,-0.00,-0.00,0.000033,0.005000,-0.087577,-0.092273,0.000000,0.000000,0.039999,0.000000,0.000436,-0.000823,-0.000000,0.000000,0.000000,0.000000,0.000000,819,819,819,819
8748,0,1.750000,1.350000,-0.062592,-0.00,-0.00,0.000029,0.005000,-0.087577,-0.092273,0.000000,0.000000,0.039999,0.000000,0.000437,-0.000823,-0.000000,0.000000,0.000000,0.000000,0.000000,819,819,819,819
8759,0,1.750000,1.350000,-0.062592,-0.00,-0.00,-0.000388,0.005000,-0.087577,-0.092274,0.000000,0.000000,0.039999,0.000000,0.000438,-0.000821,0.000004,0.000000,0.000000,0.000000,0.000000,819,819,819,819
8769,0,1.750000,1.350000,-0.062592,-0.00,-0.00,-0.000247,0.006000,-0.087577,-0.092275,0.000000,0.000000,0.039999,0.000000,0.000437,-0.000821,0.000003,0.000000,0.000000,0.000000,0.000000,819,819,819,819
8779,0,1.750000,1.350000,-0.062592,-0.00,-0.00,-0.000224,0.006000,-0.087577,-0.092276,0.000000,0.000000,0.039999,0.000000,0.000438,-0.000820,0.000002,0.000000,0.000000,0.000000,0.000000,819,819,819,819
8789,0,1.750000,1.350000,-0.062592,-0.00,-0.00,-0.000306,0.006000,-0.087577,-0.092277,0.000000,0.000000,0.039999,0.000000,0.000439,-0.000820,0.000003,0.000000,0.000000,0.000000,0.000000,819,819,819,819
8799,0,1.750000,1.350000,-0.062592,-0.00,-0.00,-0.000174,0.006000,-0.087578,-0.092277,0.000000,0.000000,0.039999,0.000000,0.000439,-0.000819,0.000002,0.000000,0.000000,0.000000,0.000000,819,819,819,819
8809,0,1.750000,1.350000,-0.062592,-0.00,-0.00,-0.000157,0.006000,-0.087578,-0.092278,0.000000,0.000000,0.039999,0.000000,0.000439,-0.000821,0.000002,0.000000,0.000000,0.000000,0.000000,819,819,819,819
8819,0,1.750000,1.350000,-0.062592,-0.00,-0.00,-0.000039,0.007000,-0.087578,-0.092279,0.000000,0.000000,0.039999,0.000000,0.000439,-0.000821,0.000000,0.000000,0.000000,0.000000,0.000000,819,819,819,819
8829,0,1.750000,1.350000,-0.062592,-0.00,-0.00,-0.000035,0.029000,-0.087578,-0.092279,0.000000,0.000000,0.039999,0.000000,0.000440,-0.000823,0.000000,0.000000,0.000000,0.000000,0.000000,819,819,819,819
8839,0,1.750000,1.350000,-0.062592,-0.00,-0.00,-0.000342,0.029000,-0.087578,-0.092280,0.000000,0.000000,0.039999,0.000000,0.000441,-0.000822,0.000004,0.000000,0.000000,0.000000,0.000000,819,819,819,819
8849,0,1.750000,1.350000,-0.062592,-0.00,-0.00,-0.000310,0.065000,-0.087578,-0.092281,0.000000,0.000000,0.039999,0.000000,0.000441,-0.000822,0.000003,0.000000,0.000000,0.000000,0.000000,819,819,819,819
8859,0,1.750000,1.350000,-0.062592,-0.00,-0.00,-0.000177,0.071000,-0.087578,-0.092281,0.000000,0.000000,0.039999,0.000000,0.000441,-0.000825,0.000002,0.000000,0.000000,0.000000,0.000000,819,819,819,819
8869,0,1.750000,1.350000,-0.062592,-0.00,-0.00,-0.000160,0.071000,-0.087578,-0.092281,0.000000,0.000000,0.039999,0.000000,0.000441,-0.000827,0.000002,0.000000,0.000000,0.000000,0.000000,819,819,819,819
8879,0,1.750000,1.350000,-0.062592,-0.00,-0.00,-0.000145,0.071000,-0.087578,-0.092282,0.000000,0.000000,0.039999,0.000000,0.000442,-0.000829,0.000002,0.000000,0.000000,0.000000,0.000000,819,819,819,819
8889,0,1.750000,1.350000,-0.062592,-0.00,-0.00,-0.000131,0.086000,-0.087578,-0.092282,0.000000,0.000000,0.039999,0.000000,0.000443,-0.000831,0.000001,0.000000,0.000000,0.000000,0.000000,819,819,819,819
8899,0,1.750000,1.350000,-0.062592,-0.00,-0.00,0.000089,0.086000,-0.087578,-0.092283,0.000000,0.000000,0.039999,0.000000,0.000443,-0.000830,-0.000000,0.000000,0.000000,0.000000,0.000000,819,819,819,819
8909,0,1.750000,1.350000,-0.062592,-0.00,-0.00,0.000184,0.086000,-0.087578,-0.092284,0.000000,0.000000,0.039999,0.000000,0.000444,-0.000831,-0.000002,0.000000,0.000000,0.000000,0.000000,819,819,819,819
8919,0,1.750000,1.350000,-0.062592,-0.00,-0.00,0.000063,0.087000,-0.087578,-0.092284,0.000000,0.000000,0.039999,0.000000,0.000444,-0.000831,-0.000000,0.000000,0.000000,0.000000,0.000000,819,819,819,819
8929,0,1.750000,1.350000,-0.062592,-0.00,0.00,-0.000150,0.088000,-0.087578,-0.092285,0.000000,0.000000,0.039999,0.000000,0.000445,-0.000835,0.000002,0.000000,0.000000,0.000000,0.000000,819,819,819,819
8939,0,1.750000,1.350000,-0.062592,-0.00,0.00,-0.000447,0.088000,-0.087579,-0.092285,0.000000,0.000000,0.039999,0.000000,0.000444,-0.000834,0.000005,0.000000,0.000000,0.000000,0.000000,819,819,819,819
8949,0,1.750000,1.350000,-0.062592,-0.00,-0.00,-0.000508,0.088000,-0.087579,-0.092286,0.000000,0.000000,0.039999,0.000000,0.000444,-0.000832,0.000005,0.000000,0.000000,0.000000,0.000000,819,819,819,819
8959,0,1.750000,1.350000,-0.062592,-0.00,-0.00,-0.000667,0.088000,-0.087579,-0.092287,0.000000,0.000000,0.039999,0.000000,0.000445,-0.000829,0.000007,0.000000,0.000000,0.000000,0.000000,819,819,819,819
8969,0,1.750000,1.350000,-0.062592,-0.00,-0.00,-0.000604,0.088000,-0.087579,-0.092288,0.000000,0.000000,0.039999,0.000000,0.000446,-0.000830,0.000006,0.000000,0.000000,0.000000,0.000000,819,819,819,819
8979,0,1.750000,1.350000,-0.062592,-0.00,-0.00,-0.000857,0.088000,-0.087579,-0.092289,0.000000,0.000000,0.039999,0.000000,0.000447,-0.000829,0.000009,0.000000,0.000000,0.000000,0.000000,819,819,819,819
8989,0,1.750000,1.350000,-0.062592,-0.00,-0.00,-0.000776,0.087000,-0.087579,-0.092290,0.000000,0.000000,0.039999,0.000000,0.000447,-0.000829,0.000008,0.000000,0.000000,0.000000,0.000000,819,819,819,819
9006,0,1.750000,1.350000,-0.062592,-0.00,-0.00,-0.000495,0.087000,-0.087579,-0.092291,0.000000,0.000000,0.039999,0.000000,0.000447,-0.000830,0.000005,0.000000,0.000000,0.000000,0.000000,819,819,819,819
9019,0,1.750000,1.350000,-0.062592,-0.00,-0.00,-0.000655,0.088000,-0.087579,-0.092291,0.000000,0.000000,0.039999,0.000000,0.000447,-0.000831,0.000007,0.000000,0.000000,0.000000,0.000000,819,819,819,819
9029,0,1.750000,1.350000,-0.062592,-0.00,-0.00,-0.000593,0.088000,-0.087579,-0.092292,0.000000,0.000000,0.039999,0.000000,0.000447,-0.000833,0.000006,0.000000,0.000000,0.000000,0.000000,819,819,819,819
9039,0,1.750000,1.350000,-0.062592,-0.00,-0.00,-0.000640,0.088000,-0.087579,-0.092292,0.000000,0.000000,0.039999,0.000000,0.000448,-0.000835,0.000007,0.000000,0.000000,0.000000,0.000000,819,819,819,819
9049,0,1.750000,1.350000,-0.062592,-0.00,-0.00,-0.000787,0.088000,-0.087580,-0.092293,0.000000,0.000000,0.039999,0.000000,0.000449,-0.000835,0.000008,0.000000,0.000000,0.000000,0.000000,819,819,819,819
9059,0,1.750000,1.350000,-0.062592,-0.00,-0.00,-0.000712,0.088000,-0.087579,-0.092294,0.000000,0.000000,0.039999,0.000000,0.000450,-0.000835,0.000007,0.000000,0.000000,0.000000,0.000000,819,819,819,819
9069,0,1.750000,1.350000,-0.062592,-0.00,-0.00,-0.000852,0.088000,-0.087580,-0.092294,0.000000,0.000000,0.039999,0.000000,0.000450,-0.000835,0.000009,0.000000,0.000000,0.000000,0.000000,819,819,819,819
9079,0,1.750000,1.350000,-0.062592,-0.00,-0.00,-0.000874,0.088000,-0.087580,-0.092295,0.000000,0.000000,0.039999,0.000000,0.000450,-0.000835,0.000009,0.000000,0.000000,0.000000,0.000000,819,819,819,819
9089,0,1.750000,1.350000,-0.062592,-0.00,-0.00,-0.000791,0.088000,-0.087580,-0.092296,0.000000,0.000000,0.039999,0.000000,0.000451,-0.000837,0.000008,0.000000,0.000000,0.000000,0.000000,819,819,819,819
9099,0,1.750000,1.350000,-0.062592,-0.00,-0.00,-0.000820,0.088000,-0.087580,-0.092296,0.000000,0.000000,0.039999,0.000000,0.000451,-0.000839,0.000008,0.000000,0.000000,0.000000,0.000000,819,819,819,819
9109,0,1.750000,1.350000,-0.062592,-0.00,-0.00,-0.000845,0.088000,-0.087580,-0.092297,0.000000,0.000000,0.039999,0.000000,0.000452,-0.000839,0.000009,0.000000,0.000000,0.000000,0.000000,819,819,819,819
9119,0,1.750000,1.350000,-0.062592,0.00,0.00,-0.000869,0.089000,-0.087580,-0.092297,0.000000,0.000000,0.039999,0.000000,0.000453,-0.000841,0.000009,0.000000,0.000000,0.000000,0.000000,819,819,819,819
9129,0,1.750000,1.350000,-0.062592,0.00,0.00,-0.000890,0.089000,-0.087580,-0.092298,0.000000,0.000000,0.039999,0.000000,0.000454,-0.000843,0.000009,0.000000,0.000000,0.000000,0.000000,819,819,819,819
9140,0,1.750000,1.350000,-0.062592,0.00,0.00,-0.000909,0.089000,-0.087580,-0.092299,0.000000,0.000000,0.039999,0.000000,0.000454,-0.000842,0.000009,0.000000,0.000000,0.000000,0.000000,819,819,819,819
9149,0,1.750000,1.350000,-0.062592,-0.00,0.00,-0.000926,0.105000,-0.087580,-0.092299,0.000000,0.000000,0.039999,0.000000,0.000454,-0.000841,0.000010,0.103714,0.105378,0.104603,0.106305,1000,1000,1000,1000
9159,0,1.750000,1.350000,-0.062592,-0.00,0.00,-0.001045,0.108000,-0.087660,-0.092899,0.000000,0.000000,0.039999,0.000000,0.000454,-0.000848,0.000011,0.106708,0.108383,0.107595,0.109313,1000,1000,1000,1000
9169,0,1.750000,1.350000,-0.062592,-0.00,0.00,-0.000843,0.108000,-0.087741,-0.093500,0.000000,0.000000,0.039999,0.000000,0.000455,-0.000854,0.000009,0.106700,0.108391,0.107592,0.109318,1000,1000,1000,1000
9180,0,1.750000,1.350000,-0.062592,0.00,0.00,-0.000970,0.108000,-0.087821,-0.094101,0.000000,0.000000,0.039999,0.000000,0.000456,-0.000861,0.000010,0.106693,0.108395,0.107585,0.109327,1000,1000,1000,1000
9190,0,1.750000,1.350000,-0.062592,0.00,0.00,-0.000774,0.117000,-0.087901,-0.094702,0.000000,0.000000,0.039999,0.000000,0.000457,-0.000869,0.000008,0.115682,0.117403,0.116581,0.118334,1000,1000,1000,1000
9200,0,1.737500,1.350000,-0.062592,-0.00,0.00,-0.000182,0.119000,-0.087363,-0.095305,0.000000,0.000000,0.039999,0.000000,0.000429,-0.000872,0.000002,0.117701,0.119442,0.118554,0.120303,1000,1000,1000,1000
9210,0,1.727500,1.350000,-0.062592,-0.01,-0.00,0.000871,0.119000,-0.086948,-0.095910,0.000000,0.000000,0.039999,0.000000,0.000405,-0.000867,-0.000008,0.117720,0.119470,0.118547,0.120263,1000,1000,1000,1000
9220,0,1.719500,1.350000,-0.062592,-0.01,-0.00,0.003690,0.123000,-0.086629,-0.096514,0.000000,0.000000,0.039999,0.000000,0.000395,-0.000872,-0.000037,0.121696,0.123513,0.122560,0.124230,1000,1000,1000,1000
9230,0,1.713100,1.350000,-0.062592,-0.02,-0.00,0.006345,0.123000,-0.086389,-0.097118,0.000000,0.000000,0.039999,0.000000,0.000390,-0.000878,-0.000063,0.121669,0.123551,0.122576,0.124205,1000,1000,1000,1000
9240,0,1.695480,1.350000,-0.062592,-0.02,-0.00,0.007296,0.123000,-0.085595,-0.097727,0.000000,0.000000,0.039999,0.000000,0.000354,-0.000857,-0.000073,0.121716,0.123576,0.122570,0.124139,1000,1000,1000,1000
9250,0,1.681384,1.350000,-0.062592,-0.03,-0.00,0.008054,0.124000,-0.084974,-0.098332,0.000000,0.000000,0.039999,0.000000,0.000326,-0.000870,-0.000081,0.122724,0.124625,0.123536,0.125115,1000,1000,1000,1000
9260,0,1.670107,1.350000,-72.050079,-0.04,-0.00,0.008843,0.124000,-0.084493,-0.098937,0.000000,0.000000,0.039999,0.000000,0.000302,-0.000887,-0.000089,0.122722,0.124673,0.123504,0.125101,1000,1000,1000,1000
9270,0,1.661086,1.350000,-129.640060,-0.04,-0.00,0.010698,0.124000,-0.084124,-0.099544,0.000000,0.000000,0.039999,0.000000,0.000281,-0.000892,-0.000107,0.122720,0.124718,0.123496,0.125066,1000,1000,1000,1000
9280,0,1.653869,1.350000,-175.712051,-0.04,-0.00,0.011029,0.124000,-0.083837,-0.100151,0.000000,0.000000,0.039999,0.000000,0.000291,-0.000909,-0.000111,0.122690,0.124728,0.123493,0.125089,1000,1000,1000,1000
9290,0,1.648095,1.350000,147.430359,-0.04,-0.00,0.011743,0.124000,-0.083626,-0.100762,0.000000,0.000000,0.039999,0.000000,0.000288,-0.000895,-0.000118,0.122699,0.124725,0.123511,0.125065,1000,1000,1000,1000
9300,0,1.630976,1.350000,117.944290,-0.05,-0.00,0.013839,0.124000,-0.082854,-0.101375,0.000000,0.000000,0.039999,0.000000,0.000251,-0.000868,-0.000139,0.122742,0.124755,0.123523,0.124980,1000,1000,1000,1000
9310,0,1.617281,1.362500,94.367928,-0.05,-0.00,0.017084,0.124000,-0.082251,-0.102860,0.000000,0.000000,0.039999,0.000000,0.000224,-0.000922,-0.000171,0.122683,0.124869,0.123474,0.124974,1000,1000,1000,1000
9327,0,1.606325,1.372500,75.506844,-0.05,-0.00,0.020125,0.124000,-0.081780,-0.104181,0.000000,0.000000,0.039999,0.000000,0.000214,-0.000937,-0.000202,0.122647,0.124925,0.123479,0.124949,1000,1000,1000,1000
9339,0,1.585060,1.380500,60.417976,-0.06,0.00,0.031166,0.123000,-0.080797,-0.105366,0.000000,0.000000,0.039999,0.000000,0.000184,-0.000960,-0.000313,0.121543,0.124089,0.122537,0.123832,1000,1000,1000,1000
9349,0,1.555548,1.386900,48.359383,-0.07,-0.00,0.043854,0.123000,-0.079403,-0.106445,0.000000,0.000000,0.039999,0.000000,0.000144,-0.000959,-0.000440,0.121456,0.124255,0.122625,0.123663,1000,1000,1000,1000
9359,0,1.506938,1.404520,38.712509,-0.08,0.00,0.057615,0.123000,-0.077058,-0.108313,0.000000,0.000000,0.039999,0.000000,0.000074,-0.001000,-0.000578,0.121347,0.124504,0.122652,0.123497,1000,1000,1000,1000
9369,0,1.443051,1.418616,30.995007,-0.11,0.00,0.063127,0.123000,-0.073953,-0.109947,0.000000,0.000000,0.039999,0.000000,-0.000028,-0.001007,-0.000634,0.121387,0.124669,0.122599,0.123346,1000,1000,1000,1000
9380,0,1.391940,1.442393,24.821005,-0.12,0.00,0.049772,0.123000,-0.071477,-0.112264,0.000000,0.000000,0.039999,0.000000,-0.000096,-0.001065,-0.000500,0.121531,0.124661,0.122340,0.123469,1000,1000,1000,1000
9390,0,1.363552,1.461414,19.881804,-0.12,0.02,0.030432,0.123000,-0.070125,-0.114251,0.000000,0.000000,0.039999,0.000000,-0.000115,-0.001178,-0.000307,0.121630,0.124600,0.122013,0.123757,1000,1000,1000,1000
9400,0,1.340842,1.476632,15.930443,-0.13,0.03,0.018629,0.123000,-0.069055,-0.115984,0.000000,0.000000,0.039999,0.000000,-0.000128,-0.001255,-0.000188,0.121684,0.124571,0.121806,0.123939,1000,1000,1000,1000
9410,0,1.335174,1.488805,12.769354,-0.12,0.03,0.015615,0.123000,-0.068829,-0.117518,0.000000,0.000000,0.039999,0.000000,-0.000107,-0.001266,-0.000158,0.121682,0.124531,0.121785,0.124001,1000,1000,1000,1000
9420,0,1.330639,1.511044,10.252984,-0.12,0.02,0.020142,0.124000,-0.068662,-0.119769,0.000000,0.000000,0.039999,0.000000,-0.000096,-0.001270,-0.000204,0.122622,0.125570,0.122838,0.124971,1000,1000,1000,1000
9430,0,1.314511,1.553836,8.252388,-0.12,0.03,0.026934,0.124000,-0.067922,-0.123475,0.000000,0.000000,0.039999,0.000000,-0.000117,-0.001329,-0.000272,0.122517,0.125718,0.122826,0.124940,1000,1000,1000,1000
9440,0,1.289109,1.600568,6.664411,-0.13,0.04,0.032044,0.124000,-0.066724,-0.127475,0.000000,0.000000,0.039999,0.000000,-0.000168,-0.001423,-0.000323,0.122421,0.125915,0.122732,0.124932,1000,1000,1000,1000
9450,0,1.268787,1.637955,5.394029,-0.14,0.04,0.037186,0.124000,-0.065778,-0.130842,0.000000,0.000000,0.039999,0.000000,-0.000213,-0.001497,-0.000375,0.122341,0.126084,0.122666,0.124909,1000,1000,1000,1000
9460,0,1.240030,1.692864,4.415223,-0.16,0.05,0.041633,0.124000,-0.064415,-0.135455,0.000000,0.000000,0.039999,0.000000,-0.000286,-0.001631,-0.000420,0.122235,0.126337,0.122503,0.124926,1000,1000,1000,1000
9470,0,1.217024,1.749291,3.657179,-0.18,0.06,0.041201,0.124000,-0.063338,-0.140210,0.000000,0.000000,0.039999,0.000000,-0.000354,-0.001710,-0.000416,0.122229,0.126480,0.122351,0.124940,1000,1000,1000,1000
9480,0,1.198619,1.831933,3.075743,-0.19,0.07,0.035836,0.124000,-0.062491,-0.146834,0.000000,0.000000,0.039999,0.000000,-0.000424,-0.001850,-0.000362,0.122213,0.126636,0.122088,0.125063,1000,1000,1000,1000
9490,0,1.171395,1.910546,2.648094,-0.21,0.08,0.033883,0.124000,-0.061207,-0.153217,0.000000,0.000000,0.039999,0.000000,-0.000517,-0.001961,-0.000343,0.122213,0.126821,0.121864,0.125101,1000,1000,1000,1000
9500,0,1.149616,2.010937,2.343476,-0.23,0.09,0.038643,0.124000,-0.060192,-0.161164,0.000000,0.000000,0.039999,0.000000,-0.000598,-0.002155,-0.000390,0.122052,0.127144,0.121637,0.125167,1000,1000,1000,1000
9510,0,1.119693,2.116250,2.137280,-0.26,0.11,0.038806,0.124000,-0.058773,-0.169510,0.000000,0.000000,0.039999,0.000000,-0.000701,-0.002333,-0.000392,0.121975,0.127426,0.121358,0.125240,1000,1000,1000,1000
9520,0,1.108254,2.250500,2.009825,-0.27,0.12,0.035845,0.124000,-0.058270,-0.179940,0.000000,0.000000,0.039999,0.000000,-0.000770,-0.002577,-0.000363,0.121829,0.127710,0.121016,0.125445,1000,1000,1000,1000
9530,0,1.099103,2.357900,1.907860,-0.29,0.12,0.032543,0.124000,-0.057879,-0.188564,0.000000,0.000000,0.039999,0.000000,-0.000828,-0.002639,-0.000330,0.121859,0.127796,0.120863,0.125481,1000,1000,1000,1000
9543,0,1.091783,2.543820,1.913788,-0.30,0.14,0.028934,0.124000,-0.057576,-0.202760,0.000000,0.000000,0.039999,0.000000,-0.000875,-0.002863,-0.000294,0.121718,0.128031,0.120556,0.125694,1000,1000,1000,1000
9553,0,1.098426,2.742556,1.968530,-0.30,0.17,0.020485,0.123000,-0.057966,-0.217926,0.000000,0.000000,0.039999,0.000000,-0.000898,-0.003277,-0.000209,0.120412,0.127384,0.119035,0.125170,1000,1000,1000,1000
9563,0,1.116241,2.964045,2.062324,-0.31,0.21,0.009524,0.123000,-0.058913,-0.234789,0.000000,0.000000,0.039999,0.000000,-0.000904,-0.003737,-0.000099,0.120068,0.127741,0.118458,0.125734,1000,1000,1000,1000
9572,0,1.155493,3.216236,2.187359,-0.30,0.27,-0.008791,0.124000,-0.060921,-0.253907,0.000000,0.000000,0.039999,0.000000,-0.000861,-0.004337,0.000084,0.120608,0.129113,0.118718,0.127560,1000,1000,1000,1000
9582,0,1.211894,3.505489,2.337388,-0.28,0.31,-0.029718,0.124000,-0.063787,-0.275770,0.000000,0.000000,0.039999,0.000000,-0.000798,-0.004881,0.000294,0.120211,0.129385,0.118027,0.128377,1000,1000,1000,1000
9592,0,1.294515,3.824391,2.519910,-0.26,0.36,-0.046584,0.124000,-0.067958,-0.299860,0.000000,0.000000,0.039999,0.000000,-0.000696,-0.005465,0.000463,0.119694,0.129698,0.117376,0.129232,1000,1000,1000,1000
9602,0,1.385612,4.179513,2.715928,-0.24,0.42,-0.064542,0.124000,-0.072556,-0.326649,0.000000,0.000000,0.039999,0.000000,-0.000583,-0.006144,0.000643,0.119082,0.130084,0.116629,0.130205,1000,1000,1000,1000
9612,0,1.495990,4.563611,2.935243,-0.21,0.48,-0.083696,0.124000,-0.078118,-0.355652,0.000000,0.000000,0.039999,0.000000,-0.000445,-0.006849,0.000836,0.118432,0.130458,0.115871,0.131240,1000,1000,1000,1000
9622,0,1.621792,4.995888,3.173194,-0.18,0.54,-0.100098,0.124000,-0.084455,-0.388231,0.000000,0.000000,0.039999,0.000000,-0.000292,-0.007644,0.001001,0.117649,0.130935,0.115063,0.132352,1000,1000,1000,1000
9640,0,1.759934,5.466711,3.426055,-0.18,0.51,-0.113802,0.124000,-0.091445,-0.423840,0.000000,0.000000,0.039999,0.000000,-0.000256,-0.007650,0.001139,0.117745,0.130767,0.114955,0.132532,1000,1000,1000,1000
9652,0,1.945447,6.105869,3.765845,-0.14,0.61,-0.129830,0.124000,-0.100776,-0.471405,0.000000,0.000000,0.039999,0.000000,-0.000063,-0.008867,0.001300,0.116496,0.131630,0.113771,0.134104,1000,1000,1000,1000
9662,0,2.143858,6.742195,4.100176,-0.08,0.75,-0.144854,0.124000,-0.110745,-0.519049,0.000000,0.000000,0.039999,0.000000,0.000197,-0.010360,0.001451,0.114894,0.132712,0.112386,0.136008,1000,1000,1000,1000
9672,0,2.340086,7.388756,4.442641,-0.04,0.87,-0.159798,0.124000,-0.120625,-0.567736,0.000000,0.000000,0.039999,0.000000,0.000417,-0.011776,0.001602,0.113408,0.133757,0.111040,0.137795,1000,1000,1000,1000
9681,0,2.559569,8.056005,4.791613,0.02,1.03,-0.181406,0.124000,-0.131661,-0.618165,0.000000,0.000000,0.039999,0.000000,0.000714,-0.013467,0.001819,0.111638,0.134934,0.109428,0.140000,1000,1000,1000,1000
9691,0,2.810155,8.739805,5.145790,0.08,1.14,-0.210391,0.124000,-0.144270,-0.670141,0.000000,0.000000,0.039999,0.000000,0.000994,-0.014744,0.002110,0.110372,0.135639,0.108140,0.141849,1000,1000,1000,1000
9701,0,3.098124,9.436844,5.516632,0.15,1.23,-0.247089,0.124000,-0.158752,-0.723396,0.000000,0.000000,0.039999,0.000000,0.001324,-0.015949,0.002479,0.109207,0.136145,0.106896,0.143752,1000,1000,1000,1000
9711,0,3.415999,10.156976,5.888306,0.22,1.33,-0.286829,0.124000,-0.174737,-0.778624,0.000000,0.000000,0.039999,0.000000,0.001692,-0.017165,0.002879,0.108022,0.136594,0.105648,0.145736,1000,1000,1000,1000
9721,0,3.782799,10.895581,6.273145,0.31,1.42,-0.330462,0.124000,-0.193171,-0.835510,0.000000,0.000000,0.039999,0.000000,0.002133,-0.018384,0.003318,0.106801,0.136933,0.104432,0.147835,1000,1000,1000,1000
9731,0,4.076240,11.486465,6.581016,0.35,1.43,-0.376997,0.124000,-0.207998,-0.882435,0.000000,0.000000,0.039999,0.000000,0.002371,-0.018823,0.003786,0.106592,0.136667,0.103761,0.148980,1000,1000,1000,1000
9741,0,4.560992,12.284173,6.989813,0.49,1.53,-0.426884,0.124000,-0.232325,-0.944134,0.000000,0.000000,0.039999,0.000000,0.003009,-0.020170,0.004288,0.105109,0.136874,0.102551,0.151467,1000,1000,1000,1000
9751,0,5.086294,13.084838,7.391850,0.63,1.63,-0.477212,0.124000,-0.258698,-1.006444,0.000000,0.000000,0.039999,0.000000,0.003685,-0.021470,0.004794,0.103639,0.136990,0.101421,0.153950,1000,1000,1000,1000
9761,0,5.644035,13.887871,7.800980,0.77,1.72,-0.525143,0.124000,-0.286717,-1.069326,0.000000,0.000000,0.039999,0.000000,0.004381,-0.022712,0.005277,0.102185,0.137054,0.100392,0.156370,1000,1000,1000,1000
9771,0,6.240228,14.692798,8.203284,0.92,1.79,-0.572873,0.124000,-0.316684,-1.132754,0.000000,0.000000,0.039999,0.000000,0.005105,-0.023846,0.005758,0.100808,0.136982,0.099501,0.158709,1000,1000,1000,1000
9781,0,6.717182,15.336739,8.525127,0.99,1.77,-0.620628,0.124000,-0.340787,-1.185330,0.000000,0.000000,0.039999,0.000000,0.005506,-0.024137,0.006240,0.100597,0.136391,0.099129,0.159883,1000,1000,1000,1000
9791,0,7.436246,16.201891,8.945103,1.18,1.86,-0.670893,0.123000,-0.376918,-1.253715,0.000000,0.000000,0.039999,0.000000,0.006409,-0.025412,0.006747,0.097925,0.135256,0.097250,0.161568,1000,1000,1000,1000
9801,0,8.011497,16.894012,9.281082,1.27,1.85,-0.720839,0.123000,-0.405978,-1.310431,0.000000,0.000000,0.039999,0.000000,0.006918,-0.025824,0.007251,0.097509,0.134654,0.096844,0.162993,1000,1000,1000,1000
9811,0,8.821698,17.797710,9.712366,1.48,1.95,-0.765004,0.123000,-0.446715,-1.382305,0.000000,0.000000,0.039999,0.000000,0.007927,-0.027199,0.007697,0.095572,0.134575,0.096031,0.165823,1000,1000,1000,1000
9821,0,9.607359,18.683168,10.132393,1.67,2.04,-0.771501,0.123000,-0.486282,-1.453353,0.000000,0.000000,0.039999,0.000000,0.008855,-0.028507,0.007766,0.093403,0.134886,0.095582,0.168129,1000,1000,1000,1000
9831,0,10.235888,19.391535,10.468414,1.77,2.05,-0.740904,0.123000,-0.518104,-1.512436,0.000000,0.000000,0.039999,0.000000,0.009430,-0.029126,0.007463,0.091906,0.135233,0.095841,0.169020,1000,1000,1000,1000
9841,0,10.826210,20.108229,10.787232,1.88,2.09,-0.668134,0.123000,-0.548051,-1.572448,0.000000,0.000000,0.039999,0.000000,0.009974,-0.029889,0.006737,0.089874,0.136179,0.096347,0.169600,1000,1000,1000,1000
9851,0,11.323468,20.806583,11.079786,1.94,2.12,-0.549220,0.121000,-0.573404,-1.631524,0.000000,0.000000,0.039999,0.000000,0.010364,-0.030694,0.005548,0.085491,0.135782,0.095121,0.167606,1000,1000,1000,1000
9861,0,11.558775,21.590267,11.338830,1.89,2.22,-0.409063,0.067000,-0.585791,-1.696917,0.000000,0.000000,0.039999,0.000000,0.010216,-0.031974,0.004146,0.000000,0.000000,0.000000,0.000000,819,819,819,819
9871,0,11.609520,22.329716,11.546064,1.76,2.28,-0.265123,0.067000,-0.579288,-1.568999,0.000000,0.000000,0.039999,0.000000,0.009680,-0.031498,0.002705,0.000000,0.000000,0.000000,0.000000,819,819,819,819
9881,0,11.650116,22.921274,11.711852,1.64,2.27,-0.131126,0.019000,-0.581441,-1.610726,0.000000,0.000000,0.039999,0.000000,0.009213,-0.031737,0.001363,0.000000,0.000000,0.000000,0.000000,819,819,819,819
9891,0,11.420094,23.594519,11.844482,1.40,2.29,-0.013071,0.005000,-0.570174,-1.658175,0.000000,0.000000,0.039999,0.000000,0.008192,-0.032326,0.000180,0.000000,0.000000,0.000000,0.000000,819,819,819,819
9901,0,11.236075,24.133116,11.950586,1.20,2.24,0.092111,0.005000,-0.561161,-1.696202,0.000000,0.000000,0.039999,0.000000,0.007372,-0.032277,-0.000874,0.000000,0.000000,0.000000,0.000000,819,819,819,819
9911,0,10.826360,24.776493,12.022969,0.91,2.25,0.182533,0.005000,-0.540944,-1.741559,0.000000,0.000000,0.039999,0.000000,0.006136,-0.032750,-0.001781,0.000000,0.000000,0.000000,0.000000,819,819,819,819
9921,0,10.498588,25.291195,12.080875,0.69,2.20,0.256179,0.004000,-0.524760,-1.777911,0.000000,0.000000,0.039999,0.000000,0.005190,-0.032621,-0.002521,0.000000,0.000000,0.000000,0.000000,819,819,819,819
9931,0,9.998871,25.927956,12.114700,0.40,2.21,0.320963,0.004000,-0.500035,-1.822801,0.000000,0.000000,0.039999,0.000000,0.003946,-0.033102,-0.003171,0.000000,0.000000,0.000000,0.000000,819,819,819,819
9941,0,9.599097,26.437365,12.141760,0.20,2.16,0.385395,0.004000,-0.480232,-1.858773,0.000000,0.000000,0.039999,0.000000,0.003045,-0.033041,-0.003819,0.000000,0.000000,0.000000,0.000000,819,819,819,819
9957,0,9.004278,27.019894,12.150908,0.03,2.07,0.453552,0.004000,-0.450629,-1.899958,0.000000,0.000000,0.039999,0.000000,0.002255,-0.032611,-0.004504,0.000000,0.000000,0.000000,0.000000,819,819,819,819
9968,0,8.353422,27.535915,12.145727,-0.22,2.06,0.535337,0.004000,-0.418306,-1.936364,0.000000,0.000000,0.039999,0.000000,0.001109,-0.032836,-0.005326,0.000000,0.000000,0.000000,0.000000,819,819,819,819
9980,0,7.620238,27.948732,12.116582,-0.44,2.02,0.631529,0.004000,-0.381835,-1.965514,0.000000,0.000000,0.039999,0.000000,0.000059,-0.032841,-0.006293,0.000000,0.000000,0.000000,0.000000,819,819,819,819
9992,0,6.546190,28.166487,11.993266,-0.75,1.99,0.735682,0.004000,-0.328391,-1.980915,0.000000,0.000000,0.039999,0.000000,-0.001416,-0.032719,-0.007340,0.000000,0.000000,0.000000,0.000000,819,819,819,819
10002,0,5.686952,28.340691,11.894613,-1.03,2.00,0.826625,0.004000,-0.285660,-1.993206,0.000000,0.000000,0.039999,0.000000,-0.002695,-0.032877,-0.008256,0.000000,0.000000,0.000000,0.000000,819,819,819,819
10011,0,4.574562,28.167553,11.740691,-1.50,1.85,0.877424,0.004000,-0.230452,-1.981156,0.000000,0.000000,0.039999,0.000000,-0.004808,-0.031659,-0.008769,0.000000,0.000000,0.000000,0.000000,819,819,819,819
10022,0,3.584650,27.816542,11.630054,-1.79,1.69,0.876972,0.004000,-0.181198,-1.956585,0.000000,0.000000,0.039999,0.000000,-0.006188,-0.030175,-0.008769,0.000000,0.000000,0.000000,0.000000,819,819,819,819
10032,0,2.755220,27.298233,11.579042,-2.05,1.46,0.844438,0.004000,-0.139944,-1.920288,0.000000,0.000000,0.039999,0.000000,-0.007409,-0.028051,-0.008447,0.000000,0.000000,0.000000,0.000000,819,819,819,819
10042,0,2.079176,26.633587,11.600734,-2.22,1.21,0.800797,0.004000,-0.106283,-1.873699,0.000000,0.000000,0.039999,0.000000,-0.008261,-0.025636,-0.008014,0.000000,0.000000,0.000000,0.000000,819,819,819,819
10052,0,1.538341,26.101870,11.618087,-2.32,1.06,0.744307,0.004000,-0.079316,-1.836367,0.000000,0.000000,0.039999,0.000000,-0.008791,-0.024204,-0.007452,0.000000,0.000000,0.000000,0.000000,819,819,819,819
10062,0,1.130672,25.088997,11.769470,-2.35,0.71,0.672458,0.004000,-0.058944,-1.765326,0.000000,0.000000,0.039999,0.000000,-0.009015,-0.020780,-0.006735,0.000000,0.000000,0.000000,0.000000,819,819,819,819
10072,0,0.854538,23.966198,11.965576,-2.33,0.34,0.584947,0.004000,-0.045097,-1.686544,0.000000,0.000000,0.039999,0.000000,-0.008979,-0.017205,-0.005861,0.000000,0.000000,0.000000,0.000000,819,819,819,819
