t,is_crashed,roll,pitch,yaw,p,q,r,throttle,roll_pid_out,pitch_pid_out,yaw_pid_out,motor_fl,motor_bl,motor_fr,motor_br,pwm_fl,pwm_bl,pwm_fr,pwm_br
6910,0,0.00,0.00,0.00,0.00,0.00,0.00,0.00,-0.00,0.00,0.00,0.00,0.00,0.00,0.00,819,819,819,819
6923,0,0.04,-0.00,-0.01,0.00,0.00,-0.00,0.00,0.00,0.00,0.00,0.00,0.00,0.00,0.00,819,819,819,819
6933,0,0.04,-0.00,-0.01,0.00,0.00,-0.00,0.00,0.00,0.00,0.00,0.00,0.00,0.00,0.00,819,819,819,819
6943,0,0.04,-0.00,-0.01,-0.00,0.00,-0.00,0.00,0.00,0.00,0.00,0.00,0.00,0.00,0.00,819,819,819,819
6952,0,0.04,-0.00,-0.01,-0.00,-0.00,0.00,0.00,0.00,0.00,0.00,0.00,0.00,0.00,0.00,819,819,819,819
6962,0,0.04,-0.00,-0.01,-0.00,-0.00,0.00,0.00,0.00,0.00,0.00,0.00,0.00,0.00,0.00,819,819,819,819
6972,0,0.04,-0.00,-0.01,-0.00,-0.00,-0.00,0.00,0.00,0.00,0.00,0.00,0.00,0.00,0.00,819,819,819,819
6982,0,0.04,-0.00,-0.01,-0.00,-0.00,0.00,0.00,0.00,0.00,0.00,0.00,0.00,0.00,0.00,819,819,819,819
6990,0,0.04,-0.00,-0.01,0.00,0.00,0.00,0.00,0.00,0.00,0.00,0.00,0.00,0.00,0.00,819,819,819,819
6998,0,0.04,-0.00,-0.01,0.00,0.00,0.00,0.00,0.00,0.00,0.00,0.00,0.00,0.00,0.00,819,819,819,819
7006,0,0.04,-0.00,-0.01,0.00,0.00,-0.00,0.00,0.00,0.00,0.00,0.00,0.00,0.00,0.00,819,819,819,819
7014,0,0.04,-0.00,-0.01,0.00,0.00,-0.00,0.00,0.00,0.00,0.00,0.00,0.00,0.00,0.00,819,819,819,819
7023,0,0.04,-0.00,-0.01,0.00,-0.00,0.00,0.00,0.00,0.00,0.00,0.00,0.00,0.00,0.00,819,819,819,819
7033,0,0.04,-0.00,-0.01,0.00,-0.00,0.00,0.00,0.00,0.00,0.00,0.00,0.00,0.00,0.00,819,819,819,819
7075,0,0.04,-0.00,-0.01,-0.00,0.00,0.00,0.00,0.00,0.00,0.00,0.00,0.00,0.00,0.00,819,819,819,819
7084,0,0.04,-0.00,-0.01,0.00,0.00,0.00,0.00,0.00,0.00,0.00,0.00,0.00,0.00,0.00,819,819,819,819
7093,0,0.04,-0.00,-0.01,0.00,0.00,0.00,0.00,0.00,0.00,0.00,0.00,0.00,0.00,0.00,819,819,819,819
7103,0,0.04,-0.00,-0.01,0.00,-0.00,-0.00,0.00,0.00,0.00,0.00,0.00,0.00,0.00,0.00,819,819,819,819
7113,0,0.04,-0.00,-0.01,-0.00,-0.00,-0.00,0.00,0.00,0.00,0.00,0.00,0.00,0.00,0.00,819,819,819,819
7123,0,0.04,-0.00,-0.01,-0.00,-0.00,0.00,0.00,0.00,0.00,0.00,0.00,0.00,0.00,0.00,819,819,819,819
7133,0,0.04,-0.00,-0.01,-0.00,0.00,-0.00,0.00,0.00,0.00,0.00,0.00,0.00,0.00,0.00,819,819,819,819
7141,0,0.04,-0.00,-0.01,0.00,0.00,-0.00,0.00,0.00,0.00,0.00,0.00,0.00,0.00,0.00,819,819,819,819
7151,0,0.04,-0.00,-0.01,0.00,0.00,-0.00,0.00,0.00,0.00,0.00,0.00,0.00,0.00,0.00,819,819,819,819
7161,0,0.04,-0.00,-0.01,0.00,0.00,0.00,0.00,0.00,0.00,0.00,0.00,0.00,0.00,0.00,819,819,819,819
7171,0,0.04,-0.00,-0.01,0.00,0.00,-0.00,0.00,0.00,0.00,0.00,0.00,0.00,0.00,0.00,819,819,819,819
7180,0,0.04,-0.00,-0.01,-0.00,-0.00,-0.00,0.00,0.00,0.00,0.00,0.00,0.00,0.00,0.00,819,819,819,819
7188,0,0.04,-0.00,-0.01,-0.00,-0.00,0.00,0.00,0.00,0.00,0.00,0.00,0.00,0.00,0.00,819,819,819,819
7196,0,0.04,-0.00,-0.01,0.00,-0.00,0.00,0.00,0.00,0.00,0.00,0.00,0.00,0.00,0.00,819,819,819,819
7204,0,0.04,-0.00,-0.01,0.00,-0.00,0.00,0.00,0.00,0.00,0.00,0.00,0.00,0.00,0.00,819,819,819,819
7214,0,0.04,-0.00,-0.01,0.00,-0.00,0.00,0.00,0.00,0.00,0.00,0.00,0.00,0.00,0.00,819,819,819,819
7223,0,0.04,-0.00,-0.01,0.00,0.00,-0.00,0.00,0.00,0.00,0.00,0.00,0.00,0.00,0.00,819,819,819,819
7234,0,0.04,-0.00,-0.01,-0.00,0.00,0.00,0.00,0.00,0.00,0.00,0.00,0.00,0.00,0.00,819,819,819,819
7244,0,0.04,-0.00,-0.01,0.00,0.00,0.00,0.00,0.00,0.00,0.00,0.00,0.00,0.00,0.00,819,819,819,819
7254,0,0.04,-0.00,-0.01,0.00,0.00,0.00,0.00,0.00,0.00,0.00,0.00,0.00,0.00,0.00,819,819,819,819
7263,0,0.04,-0.00,-0.01,-0.00,-0.00,-0.00,0.00,0.00,0.00,0.00,0.00,0.00,0.00,0.00,819,819,819,819
7274,0,0.04,-0.00,-0.01,0.00,-0.00,0.00,0.00,0.00,0.00,0.00,0.00,0.00,0.00,0.00,819,819,819,819
7284,0,0.04,-0.00,-0.01,0.00,-0.00,0.00,0.00,0.00,0.00,0.00,0.00,0.00,0.00,0.00,819,819,819,819
7292,0,0.04,-0.00,-0.01,-0.00,0.00,-0.00,0.00,0.00,0.00,0.00,0.00,0.00,0.00,0.00,819,819,819,819
7302,0,0.04,-0.00,-0.01,-0.00,-0.00,0.00,0.00,0.00,0.00,0.00,0.00,0.00,0.00,0.00,819,819,819,819
7312,0,0.04,-0.00,-0.01,0.00,-0.00,0.00,0.00,0.00,0.00,0.00,0.00,0.00,0.00,0.00,819,819,819,819
7322,0,0.04,-0.00,-0.01,-0.00,-0.00,0.00,0.00,0.00,0.00,0.00,0.00,0.00,0.00,0.00,819,819,819,819
7332,0,0.04,-0.00,-0.01,-0.00,0.00,-0.00,0.00,0.00,0.00,0.00,0.00,0.00,0.00,0.00,819,819,819,819
7339,0,0.04,-0.00,-0.01,0.00,0.00,-0.00,0.00,0.00,0.00,0.00,0.00,0.00,0.00,0.00,819,819,819,819
7347,0,0.04,-0.00,-0.01,0.00,0.00,-0.00,0.00,0.00,0.00,0.00,0.00,0.00,0.00,0.00,819,819,819,819
7355,0,0.04,-0.00,-0.01,-0.00,-0.00,0.00,0.00,0.00,0.00,0.00,0.00,0.00,0.00,0.00,819,819,819,819
7368,0,0.04,-0.00,-0.01,0.00,-0.00,0.00,0.00,0.00,0.00,0.00,0.00,0.00,0.00,0.00,819,819,819,819
7376,0,0.04,-0.00,-0.01,0.00,0.00,-0.00,0.00,0.00,0.00,0.00,0.00,0.00,0.00,0.00,819,819,819,819
7385,0,0.04,-0.00,-0.01,0.00,0.00,-0.00,0.00,0.00,0.00,0.00,0.00,0.00,0.00,0.00,819,819,819,819
7394,0,0.04,-0.00,-0.01,0.00,0.00,-0.00,0.00,0.00,0.00,0.00,0.00,0.00,0.00,0.00,819,819,819,819
7404,0,0.04,-0.00,-0.01,0.00,-0.00,0.00,0.00,0.00,0.00,0.00,0.00,0.00,0.00,0.00,819,819,819,819
7414,0,0.04,-0.00,-0.01,0.00,0.00,-0.00,0.00,0.00,0.00,0.00,0.00,0.00,0.00,0.00,819,819,819,819
7424,0,0.04,-0.00,-0.01,0.00,0.00,-0.00,0.00,0.00,0.00,0.00,0.00,0.00,0.00,0.00,819,819,819,819
7433,0,0.04,-0.00,-0.01,-0.00,-0.00,-0.00,0.00,0.00,0.00,0.00,0.00,0.00,0.00,0.00,819,819,819,819
7442,0,0.04,-0.00,-0.01,0.00,0.00,0.00,0.00,0.00,0.00,0.00,0.00,0.00,0.00,0.00,819,819,819,819
7452,0,0.04,-0.00,-0.01,0.00,-0.00,0.00,0.00,0.00,0.00,0.00,0.00,0.00,0.00,0.00,819,819,819,819
7462,0,0.04,-0.00,-0.01,0.00,-0.00,0.00,0.00,0.00,0.00,0.00,0.00,0.00,0.00,0.00,819,819,819,819
7471,0,0.04,-0.00,-0.01,-0.00,-0.00,-0.00,0.00,0.00,0.00,0.00,0.00,0.00,0.00,0.00,819,819,819,819
7481,0,0.04,-0.00,-0.01,-0.00,-0.00,0.00,0.00,0.00,0.00,0.00,0.00,0.00,0.00,0.00,819,819,819,819
7489,0,0.04,-0.00,-0.01,0.00,-0.00,0.00,0.00,0.00,0.00,0.00,0.00,0.00,0.00,0.00,819,819,819,819
7497,0,0.04,-0.00,-0.01,0.00,-0.00,0.00,0.00,0.00,0.00,0.00,0.00,0.00,0.00,0.00,819,819,819,819
7505,0,0.04,-0.00,-0.01,-0.00,-0.00,0.00,0.00,0.00,0.00,0.00,0.00,0.00,0.00,0.00,819,819,819,819
7514,0,0.04,-0.00,-0.01,-0.00,-0.00,0.00,0.00,0.00,0.00,0.00,0.00,0.00,0.00,0.00,819,819,819,819
7524,0,0.04,-0.00,-0.01,-0.00,-0.00,0.00,0.00,0.00,0.00,0.00,0.00,0.00,0.00,0.00,819,819,819,819
7534,0,0.04,-0.00,-0.01,-0.00,-0.00,0.00,0.00,0.00,0.00,0.00,0.00,0.00,0.00,0.00,819,819,819,819
7543,0,0.04,-0.00,-0.01,0.00,-0.00,-0.00,0.00,0.00,0.00,0.00,0.00,0.00,0.00,0.00,819,819,819,819
7553,0,0.04,-0.00,-0.01,-0.00,-0.00,0.00,0.00,0.00,0.00,0.00,0.00,0.00,0.00,0.00,819,819,819,819
7563,0,0.04,-0.00,-0.01,-0.00,-0.00,-0.00,0.00,0.00,0.00,0.00,0.00,0.00,0.00,0.00,819,819,819,819
7573,0,0.04,-0.00,-0.01,0.00,-0.00,0.00,0.00,0.00,0.00,0.00,0.00,0.00,0.00,0.00,819,819,819,819
7583,0,0.04,-0.00,-0.01,-0.00,-0.00,0.00,0.00,0.00,0.00,0.00,0.00,0.00,0.00,0.00,819,819,819,819
7591,0,0.04,-0.00,-0.01,0.00,0.00,0.00,0.00,0.00,0.00,0.00,0.00,0.00,0.00,0.00,819,819,819,819
7599,0,0.04,-0.00,-0.01,-0.00,-0.00,0.00,0.00,0.00,0.00,0.00,0.00,0.00,0.00,0.00,819,819,819,819
7607,0,0.04,-0.00,-0.01,0.00,-0.00,0.00,0.00,0.00,0.00,0.00,0.00,0.00,0.00,0.00,819,819,819,819
7615,0,0.04,-0.00,-0.01,-0.00,-0.00,0.00,0.00,0.00,0.00,0.00,0.00,0.00,0.00,0.00,819,819,819,819
7625,0,0.04,-0.00,-0.01,0.00,-0.00,0.00,0.00,0.00,0.00,0.00,0.00,0.00,0.00,0.00,819,819,819,819
7635,0,0.04,-0.00,-0.01,0.00,-0.00,0.00,0.00,0.00,0.00,0.00,0.00,0.00,0.00,0.00,819,819,819,819
7644,0,0.04,-0.00,-0.01,0.00,-0.00,0.00,0.00,0.00,0.00,0.00,0.00,0.00,0.00,0.00,819,819,819,819
7658,0,0.04,-0.00,-0.01,0.00,0.00,0.00,0.00,0.00,0.00,0.00,0.00,0.00,0.00,0.00,819,819,819,819
7666,0,0.04,-0.00,-0.01,0.00,0.00,-0.00,0.00,0.00,0.00,0.00,0.00,0.00,0.00,0.00,819,819,819,819
7675,0,0.04,-0.00,-0.01,0.00,0.00,0.00,0.00,0.00,0.00,0.00,0.00,0.00,0.00,0.00,819,819,819,819
7684,0,0.04,-0.00,-0.01,0.00,0.00,0.00,0.00,0.00,0.00,0.00,0.00,0.00,0.00,0.00,819,819,819,819
7693,0,0.04,-0.00,-0.01,-0.00,-0.00,-0.00,0.00,0.00,0.00,0.00,0.00,0.00,0.00,0.00,819,819,819,819
7702,0,0.04,-0.00,-0.01,0.00,0.00,0.00,0.00,0.00,0.00,0.00,0.00,0.00,0.00,0.00,819,819,819,819
7712,0,0.04,-0.00,-0.01,0.00,-0.00,0.00,0.00,0.00,0.00,0.00,0.00,0.00,0.00,0.00,819,819,819,819
7724,0,0.04,-0.00,-0.01,0.00,-0.00,-0.00,0.00,0.00,0.00,0.00,0.00,0.00,0.00,0.00,819,819,819,819
7733,0,0.04,-0.00,-0.01,0.00,-0.00,0.00,0.00,0.00,0.00,0.00,0.00,0.00,0.00,0.00,819,819,819,819
7741,0,0.04,-0.00,-0.01,-0.00,-0.00,0.00,0.00,0.00,0.00,0.00,0.00,0.00,0.00,0.00,819,819,819,819
7749,0,0.04,-0.00,-0.01,0.00,0.00,0.00,0.00,0.00,0.00,0.00,0.00,0.00,0.00,0.00,819,819,819,819
7757,0,0.04,-0.00,-0.01,0.00,0.00,0.00,0.00,0.00,0.00,0.00,0.00,0.00,0.00,0.00,819,819,819,819
7765,0,0.04,-0.00,-0.01,0.00,-0.00,0.00,0.00,0.00,0.00,0.00,0.00,0.00,0.00,0.00,819,819,819,819
7775,0,0.04,-0.00,-0.01,0.00,-0.00,0.00,0.00,0.00,0.00,0.00,0.00,0.00,0.00,0.00,819,819,819,819
7785,0,0.04,-0.00,-0.01,-0.00,-0.00,0.00,0.00,0.00,0.00,0.00,0.00,0.00,0.00,0.00,819,819,819,819
7793,0,0.04,-0.00,-0.01,-0.00,-0.00,-0.00,0.00,0.00,0.00,0.00,0.00,0.00,0.00,0.00,819,819,819,819
7803,0,0.04,-0.00,-0.01,-0.00,0.00,0.00,0.00,0.00,0.00,0.00,0.00,0.00,0.00,0.00,819,819,819,819
7813,0,0.04,-0.00,-0.01,0.00,0.00,0.00,0.00,0.00,0.00,0.00,0.00,0.00,0.00,0.00,819,819,819,819
7823,0,0.04,-0.00,-0.01,-0.00,0.00,0.00,0.00,0.00,0.00,0.00,0.00,0.00,0.00,0.00,819,819,819,819
7833,0,0.04,-0.00,-0.01,0.00,-0.00,0.00,0.00,0.00,0.00,0.00,0.00,0.00,0.00,0.00,819,819,819,819
7840,0,0.04,-0.00,-0.01,-0.00,-0.00,0.00,0.00,0.00,0.00,0.00,0.00,0.00,0.00,0.00,819,819,819,819
7848,0,0.04,-0.00,-0.01,0.00,0.00,-0.00,0.00,0.00,0.00,0.00,0.00,0.00,0.00,0.00,819,819,819,819
7856,0,0.04,-0.00,-0.01,0.00,0.00,-0.00,0.00,0.00,0.00,0.00,0.00,0.00,0.00,0.00,819,819,819,819
7865,0,0.04,-0.00,-0.01,-0.00,0.00,-0.00,0.00,0.00,0.00,0.00,0.00,0.00,0.00,0.00,819,819,819,819
7875,0,0.04,-0.00,-0.01,-0.00,0.00,-0.00,0.00,0.00,0.00,0.00,0.00,0.00,0.00,0.00,819,819,819,819
7885,0,0.04,-0.00,-0.01,0.00,0.00,0.00,0.00,0.00,0.00,0.00,0.00,0.00,0.00,0.00,819,819,819,819
7894,0,0.04,-0.00,-0.01,-0.00,0.00,0.00,0.00,0.00,0.00,0.00,0.00,0.00,0.00,0.00,819,819,819,819
7903,0,0.04,-0.00,-0.01,0.00,-0.00,0.00,0.00,0.00,0.00,0.00,0.00,0.00,0.00,0.00,819,819,819,819
7913,0,0.04,-0.00,-0.01,0.00,0.00,-0.00,0.00,0.00,0.00,0.00,0.00,0.00,0.00,0.00,819,819,819,819
7923,0,0.04,-0.00,-0.01,-0.00,-0.00,0.00,0.00,0.00,0.00,0.00,0.00,0.00,0.00,0.00,819,819,819,819
7933,0,0.04,-0.00,-0.01,0.00,-0.00,-0.00,0.00,0.00,0.00,0.00,0.00,0.00,0.00,0.00,819,819,819,819
7947,0,0.04,-0.00,-0.01,0.00,0.00,-0.00,0.00,0.00,0.00,0.00,0.00,0.00,0.00,0.00,819,819,819,819
7956,0,0.04,-0.00,-0.01,-0.00,-0.00,0.00,0.00,0.00,0.00,0.00,0.00,0.00,0.00,0.00,819,819,819,819
7965,0,0.04,-0.00,-0.01,-0.00,-0.00,0.00,0.00,0.00,0.00,0.00,0.00,0.00,0.00,0.00,819,819,819,819
7975,0,0.04,-0.00,-0.01,0.00,-0.00,0.00,0.00,0.00,0.00,0.00,0.00,0.00,0.00,0.00,819,819,819,819
7985,0,0.04,-0.00,-0.01,-0.00,-0.00,-0.00,0.00,0.00,0.00,0.00,0.00,0.00,0.00,0.00,819,819,819,819
7993,0,0.04,-0.00,-0.01,0.00,-0.00,0.00,0.00,0.00,0.00,0.00,0.00,0.00,0.00,0.00,819,819,819,819
8002,0,0.04,-0.00,-0.01,0.00,-0.00,0.00,0.00,0.00,0.00,0.00,0.00,0.00,0.00,0.00,819,819,819,819
8012,0,0.04,-0.00,-0.01,0.00,0.00,-0.00,0.00,0.00,0.00,0.00,0.00,0.00,0.00,0.00,819,819,819,819
8022,0,0.04,-0.00,-0.01,0.00,0.00,0.00,0.00,0.00,0.00,0.00,0.00,0.00,0.00,0.00,819,819,819,819
8031,0,0.04,-0.00,-0.01,-0.00,0.00,0.00,0.00,0.00,0.00,0.00,0.00,0.00,0.00,0.00,819,819,819,819
8038,0,0.04,-0.00,-0.01,0.00,-0.00,-0.00,0.00,0.00,0.00,0.00,0.00,0.00,0.00,0.00,819,819,819,819
8046,0,0.04,-0.00,-0.01,0.00,0.00,-0.00,0.00,0.00,0.00,0.00,0.00,0.00,0.00,0.00,819,819,819,819
8056,0,0.04,-0.00,-0.01,-0.00,0.00,0.00,0.00,0.00,0.00,0.00,0.00,0.00,0.00,0.00,819,819,819,819
8065,0,0.04,-0.00,-0.01,-0.00,0.00,0.00,0.00,0.00,0.00,0.00,0.00,0.00,0.00,0.00,819,819,819,819
8075,0,0.04,-0.00,-0.01,0.00,0.00,-0.00,0.00,0.00,0.00,0.00,0.00,0.00,0.00,0.00,819,819,819,819
8085,0,0.04,-0.00,-0.01,0.00,-0.00,0.00,0.00,0.00,0.00,0.00,0.00,0.00,0.00,0.00,819,819,819,819
8092,0,0.04,-0.00,-0.01,-0.00,-0.00,-0.00,0.00,0.00,0.00,0.00,0.00,0.00,0.00,0.00,819,819,819,819
8101,0,0.04,-0.00,-0.01,0.00,-0.00,-0.00,0.00,0.00,0.00,0.00,0.00,0.00,0.00,0.00,819,819,819,819
8109,0,0.04,-0.00,-0.01,-0.00,-0.00,-0.00,0.00,0.00,0.00,0.00,0.00,0.00,0.00,0.00,819,819,819,819
8117,0,0.04,-0.00,-0.01,-0.00,0.00,0.00,0.00,0.00,0.00,0.00,0.00,0.00,0.00,0.00,819,819,819,819
8126,0,0.04,-0.00,-0.01,-0.00,0.00,0.00,0.00,0.00,0.00,0.00,0.00,0.00,0.00,0.00,819,819,819,819
8136,0,0.04,-0.00,-0.01,0.00,-0.00,0.00,0.00,0.00,0.00,0.00,0.00,0.00,0.00,0.00,819,819,819,819
8146,0,0.04,-0.00,-0.01,0.00,-0.00,0.00,0.00,0.00,0.00,0.00,0.00,0.00,0.00,0.00,819,819,819,819
8155,0,0.04,-0.00,-0.01,0.00,-0.00,0.00,0.00,0.00,0.00,0.00,0.00,0.00,0.00,0.00,819,819,819,819
8165,0,0.04,-0.00,-0.01,0.00,-0.00,-0.00,0.00,0.00,0.00,0.00,0.00,0.00,0.00,0.00,819,819,819,819
8175,0,0.04,-0.00,-0.01,0.00,-0.00,-0.00,0.00,0.00,0.00,0.00,0.00,0.00,0.00,0.00,819,819,819,819
8185,0,0.04,-0.00,-0.01,0.00,-0.00,0.00,0.00,0.00,0.00,0.00,0.00,0.00,0.00,0.00,819,819,819,819
8192,0,0.04,-0.00,-0.01,-0.00,-0.00,0.00,0.00,0.00,0.00,0.00,0.00,0.00,0.00,0.00,819,819,819,819
8201,0,0.04,-0.00,-0.01,-0.00,0.00,-0.00,0.00,0.00,0.00,0.00,0.00,0.00,0.00,0.00,819,819,819,819
8209,0,0.04,-0.00,-0.01,-0.00,0.00,-0.00,0.00,0.00,0.00,0.00,0.00,0.00,0.00,0.00,819,819,819,819
8217,0,0.04,-0.00,-0.01,0.00,0.00,0.00,0.00,0.00,0.00,0.00,0.00,0.00,0.00,0.00,819,819,819,819
8232,0,0.04,-0.00,-0.01,0.00,-0.00,0.00,0.00,0.00,0.00,0.00,0.00,0.00,0.00,0.00,819,819,819,819
8240,0,0.04,-0.00,-0.01,0.00,-0.00,-0.00,0.00,0.00,0.00,0.00,0.00,0.00,0.00,0.00,819,819,819,819
8248,0,0.04,-0.00,-0.01,-0.00,-0.00,0.00,0.00,0.00,0.00,0.00,0.00,0.00,0.00,0.00,819,819,819,819
8256,0,0.04,-0.00,-0.01,-0.00,0.00,0.00,0.00,0.00,0.00,0.00,0.00,0.00,0.00,0.00,819,819,819,819
8266,0,0.04,-0.00,-0.01,-0.00,0.00,0.00,0.00,0.00,0.00,0.00,0.00,0.00,0.00,0.00,819,819,819,819
8276,0,0.04,-0.00,-0.01,-0.00,-0.00,-0.00,0.00,0.00,0.00,0.00,0.00,0.00,0.00,0.00,819,819,819,819
8286,0,0.04,-0.00,-0.01,-0.00,0.00,0.00,0.00,0.00,0.00,0.00,0.00,0.00,0.00,0.00,819,819,819,819
8294,0,0.04,-0.00,-0.01,0.00,-0.00,0.00,0.00,0.00,0.00,0.00,0.00,0.00,0.00,0.00,819,819,819,819
8304,0,0.04,-0.00,-0.01,-0.00,-0.00,-0.00,0.00,0.00,0.00,0.00,0.00,0.00,0.00,0.00,819,819,819,819
8314,0,0.04,-0.00,-0.01,-0.00,-0.00,-0.00,0.00,0.00,0.00,0.00,0.00,0.00,0.00,0.00,819,819,819,819
8324,0,0.04,-0.00,-0.01,0.00,-0.00,-0.00,0.00,0.00,0.00,0.00,0.00,0.00,0.00,0.00,819,819,819,819
8334,0,0.04,-0.00,-0.01,-0.00,-0.00,0.00,0.00,0.00,0.00,0.00,0.00,0.00,0.00,0.00,819,819,819,819
8341,0,0.04,-0.00,-0.01,0.00,-0.00,0.00,0.00,0.00,0.00,0.00,0.00,0.00,0.00,0.00,819,819,819,819
8349,0,0.04,-0.00,-0.01,0.00,-0.00,0.00,0.00,0.00,0.00,0.00,0.00,0.00,0.00,0.00,819,819,819,819
8357,0,0.04,-0.00,-0.01,0.00,0.00,-0.00,0.00,0.00,0.00,0.00,0.00,0.00,0.00,0.00,819,819,819,819
8366,0,0.04,-0.00,-0.01,0.00,0.00,-0.00,0.00,0.00,0.00,0.00,0.00,0.00,0.00,0.00,819,819,819,819
8376,0,0.04,-0.00,-0.01,0.00,-0.00,-0.00,0.00,0.00,0.00,0.00,0.00,0.00,0.00,0.00,819,819,819,819
8386,0,0.04,-0.00,-0.01,0.00,0.00,0.00,0.00,0.00,0.00,0.00,0.00,0.00,0.00,0.00,819,819,819,819
8395,0,0.04,-0.00,-0.01,0.00,-0.00,0.00,0.00,0.00,0.00,0.00,0.00,0.00,0.00,0.00,819,819,819,819
8405,0,0.04,-0.00,-0.01,0.00,0.00,0.00,0.00,0.00,0.00,0.00,0.00,0.00,0.00,0.00,819,819,819,819
8415,0,0.04,-0.00,-0.01,-0.00,-0.00,0.00,0.00,0.00,0.00,0.00,0.00,0.00,0.00,0.00,819,819,819,819
8424,0,0.04,-0.00,-0.01,0.00,0.00,0.00,0.00,0.00,0.00,0.00,0.00,0.00,0.00,0.00,819,819,819,819
8434,0,0.04,-0.00,-0.01,0.00,-0.00,0.00,0.00,0.00,0.00,0.00,0.00,0.00,0.00,0.00,819,819,819,819
8442,0,0.04,-0.00,-0.01,-0.00,-0.00,-0.00,0.00,0.00,0.00,0.00,0.00,0.00,0.00,0.00,819,819,819,819
8449,0,0.04,-0.00,-0.01,0.00,0.00,-0.00,0.00,0.00,0.00,0.00,0.00,0.00,0.00,0.00,819,819,819,819
8457,0,0.04,-0.00,-0.01,0.00,0.00,0.00,0.00,0.00,0.00,0.00,0.00,0.00,0.00,0.00,819,819,819,819
8466,0,0.04,-0.00,-0.01,0.00,0.00,0.00,0.00,0.00,0.00,0.00,0.00,0.00,0.00,0.00,819,819,819,819
8476,0,0.04,-0.00,-0.01,0.00,0.00,-0.00,0.00,0.00,0.00,0.00,0.00,0.00,0.00,0.00,819,819,819,819
8486,0,0.04,-0.00,-0.01,0.00,0.00,-0.00,0.00,0.00,0.00,0.00,0.00,0.00,0.00,0.00,819,819,819,819
8497,0,0.04,-0.00,-0.01,-0.00,-0.00,0.00,0.00,0.00,0.00,0.00,0.00,0.00,0.00,0.00,819,819,819,819
8510,0,0.04,-0.00,-0.01,-0.00,0.00,-0.00,0.00,0.00,0.00,0.00,0.00,0.00,0.00,0.00,819,819,819,819
8518,0,0.04,-0.00,-0.01,0.00,0.00,0.00,0.00,0.00,0.00,0.00,0.00,0.00,0.00,0.00,819,819,819,819
8527,0,0.04,-0.00,-0.01,0.00,0.00,-0.00,0.00,0.00,0.00,0.00,0.00,0.00,0.00,0.00,819,819,819,819
8537,0,0.04,-0.00,-0.01,0.00,0.00,-0.00,0.00,0.00,0.00,0.00,0.00,0.00,0.00,0.00,819,819,819,819
8546,0,0.04,-0.00,-0.01,-0.00,0.00,-0.00,0.00,0.00,0.00,0.00,0.00,0.00,0.00,0.00,819,819,819,819
8555,0,0.04,-0.00,-0.01,-0.00,0.00,-0.00,0.00,0.00,0.00,0.00,0.00,0.00,0.00,0.00,819,819,819,819
8565,0,0.04,-0.00,-0.01,0.00,0.00,0.00,0.00,0.00,0.00,0.00,0.00,0.00,0.00,0.00,819,819,819,819
8575,0,0.04,-0.00,-0.01,0.00,0.00,-0.00,0.00,0.00,0.00,0.00,0.00,0.00,0.00,0.00,819,819,819,819
8585,0,0.04,-0.00,-0.01,0.00,-0.00,0.00,0.00,0.00,0.00,0.00,0.00,0.00,0.00,0.00,819,819,819,819
8592,0,0.04,-0.00,-0.01,0.00,-0.00,-0.00,0.00,0.00,0.00,0.00,0.00,0.00,0.00,0.00,819,819,819,819
8600,0,0.04,-0.00,-0.01,0.00,-0.00,-0.00,0.00,0.00,0.00,0.00,0.00,0.00,0.00,0.00,819,819,819,819
8608,0,0.04,-0.00,-0.01,-0.00,0.00,-0.00,0.00,0.00,0.00,0.00,0.00,0.00,0.00,0.00,819,819,819,819
8617,0,0.04,-0.00,-0.01,0.00,0.00,-0.00,0.00,0.00,0.00,0.00,0.00,0.00,0.00,0.00,819,819,819,819
8627,0,0.04,-0.00,-0.01,0.00,0.00,-0.00,0.00,0.00,0.00,0.00,0.00,0.00,0.00,0.00,819,819,819,819
8637,0,0.04,-0.00,-0.01,-0.00,-0.00,-0.00,0.00,0.00,0.00,0.00,0.00,0.00,0.00,0.00,819,819,819,819
8646,0,0.04,-0.00,-0.01,0.00,0.00,-0.00,0.00,0.00,0.00,0.00,0.00,0.00,0.00,0.00,819,819,819,819
8656,0,0.04,-0.00,-0.01,0.00,0.00,0.00,0.00,0.00,0.00,0.00,0.00,0.00,0.00,0.00,819,819,819,819
8666,0,0.04,-0.00,-0.01,-0.00,0.00,0.00,0.00,0.00,0.00,0.00,0.00,0.00,0.00,0.00,819,819,819,819
8676,0,0.04,-0.00,-0.01,0.00,0.00,0.00,0.00,0.00,0.00,0.00,0.00,0.00,0.00,0.00,819,819,819,819
8686,0,0.04,-0.00,-0.01,-0.00,0.00,-0.00,0.00,0.00,0.00,0.00,0.00,0.00,0.00,0.00,819,819,819,819
8694,0,0.04,-0.00,-0.01,-0.00,-0.00,-0.00,0.00,0.00,0.00,0.00,0.00,0.00,0.00,0.00,819,819,819,819
8702,0,0.04,-0.00,-0.01,-0.00,-0.00,0.00,0.00,0.00,0.00,0.00,0.00,0.00,0.00,0.00,819,819,819,819
8710,0,0.04,-0.00,-0.01,-0.00,-0.00,0.00,0.00,0.00,0.00,0.00,0.00,0.00,0.00,0.00,819,819,819,819
8718,0,0.04,-0.00,-0.01,0.00,0.00,0.00,0.00,0.00,0.00,0.00,0.00,0.00,0.00,0.00,819,819,819,819
8727,0,0.04,-0.00,-0.01,0.00,0.00,0.00,0.00,0.00,0.00,0.00,0.00,0.00,0.00,0.00,819,819,819,819
8737,0,0.04,-0.00,-0.01,0.00,-0.00,0.00,0.00,0.00,0.00,0.00,0.00,0.00,0.00,0.00,819,819,819,819
8746,0,0.04,-0.00,-0.01,-0.00,-0.00,0.00,0.00,0.00,0.00,0.00,0.00,0.00,0.00,0.00,819,819,819,819
8756,0,0.04,-0.00,-0.01,0.00,0.00,0.00,0.00,0.00,0.00,0.00,0.00,0.00,0.00,0.00,819,819,819,819
8766,0,0.04,-0.00,-0.01,-0.00,-0.00,-0.00,0.00,0.00,0.00,0.00,0.00,0.00,0.00,0.00,819,819,819,819
8776,0,0.04,-0.00,-0.01,-0.00,-0.00,0.00,0.00,0.00,0.00,0.00,0.00,0.00,0.00,0.00,819,819,819,819
8786,0,0.04,-0.00,-0.01,0.00,-0.00,0.00,0.00,0.00,0.00,0.00,0.00,0.00,0.00,0.00,819,819,819,819
8799,0,0.04,-0.00,-0.01,-0.00,-0.00,-0.00,0.00,0.00,0.00,0.00,0.00,0.00,0.00,0.00,819,819,819,819
8808,0,0.04,-0.00,-0.01,0.00,-0.00,0.00,0.00,0.00,0.00,0.00,0.00,0.00,0.00,0.00,819,819,819,819
8817,0,0.04,-0.00,-0.01,0.00,-0.00,0.00,0.00,0.00,0.00,0.00,0.00,0.00,0.00,0.00,819,819,819,819
8827,0,0.04,-0.00,-0.01,-0.00,-0.00,0.00,0.00,0.00,0.00,0.00,0.00,0.00,0.00,0.00,819,819,819,819
8837,0,0.04,-0.00,-0.01,-0.00,0.00,0.00,0.00,0.00,0.00,0.00,0.00,0.00,0.00,0.00,819,819,819,819
8845,0,0.04,-0.00,-0.01,-0.00,-0.00,0.00,0.00,0.00,0.00,0.00,0.00,0.00,0.00,0.00,819,819,819,819
8855,0,0.04,-0.00,-0.01,-0.00,0.00,0.00,0.00,0.00,0.00,0.00,0.00,0.00,0.00,0.00,819,819,819,819
8865,0,0.04,-0.00,-0.01,0.00,0.00,0.00,0.00,0.00,0.00,0.00,0.00,0.00,0.00,0.00,819,819,819,819
8874,0,0.04,-0.00,-0.01,0.00,-0.00,-0.00,0.00,0.00,0.00,0.00,0.00,0.00,0.00,0.00,819,819,819,819
8884,0,0.04,-0.00,-0.01,0.00,0.00,-0.00,0.00,0.00,0.00,0.00,0.00,0.00,0.00,0.00,819,819,819,819
8891,0,0.04,-0.00,-0.01,0.00,0.00,-0.00,0.00,0.00,0.00,0.00,0.00,0.00,0.00,0.00,819,819,819,819
8899,0,0.04,-0.00,-0.01,0.00,0.00,0.00,0.00,0.00,0.00,0.00,0.00,0.00,0.00,0.00,819,819,819,819
8908,0,0.04,-0.00,-0.01,0.00,0.00,0.00,0.00,0.00,0.00,0.00,0.00,0.00,0.00,0.00,819,819,819,819
8917,0,0.04,-0.00,-0.01,0.00,0.00,0.00,0.00,0.00,0.00,0.00,0.00,0.00,0.00,0.00,819,819,819,819
8927,0,0.04,-0.00,-0.01,0.00,0.00,0.00,0.00,0.00,0.00,0.00,0.00,0.00,0.00,0.00,819,819,819,819
8936,0,0.04,-0.00,-0.01,0.00,0.00,-0.00,0.00,0.00,0.00,0.00,0.00,0.00,0.00,0.00,819,819,819,819
8944,0,0.04,-0.00,-0.01,-0.00,-0.00,-0.00,0.00,0.00,0.00,0.00,0.00,0.00,0.00,0.00,819,819,819,819
8952,0,0.04,-0.00,-0.01,-0.00,-0.00,-0.00,0.02,0.00,0.00,0.00,0.02,0.02,0.02,0.02,835,835,879,845
8960,0,0.04,-0.00,-0.01,0.00,-0.00,0.00,0.02,0.00,0.00,0.00,0.02,0.02,0.02,0.02,835,835,879,845
8969,0,0.04,-0.00,-0.01,0.00,0.00,0.00,0.02,0.00,0.00,0.00,0.02,0.02,0.02,0.02,835,835,879,845
8978,0,0.04,-0.00,-0.01,-0.00,-0.00,-0.00,0.02,0.00,0.00,0.00,0.02,0.02,0.02,0.02,835,835,879,846
8988,0,0.04,-0.00,-0.01,-0.00,-0.00,-0.00,0.02,0.00,0.00,0.00,0.02,0.02,0.02,0.02,835,835,880,846
8998,0,0.04,-0.00,-0.01,0.00,-0.00,0.00,0.02,0.00,0.00,0.00,0.02,0.02,0.02,0.02,835,835,880,846
9008,0,0.04,-0.00,-0.01,0.00,-0.00,0.00,0.07,0.00,0.00,0.00,0.07,0.07,0.08,0.08,877,875,922,888
9018,0,0.04,-0.00,-0.01,0.00,-0.00,0.00,0.07,0.00,0.00,0.00,0.07,0.07,0.08,0.08,877,875,923,889
9027,0,0.04,-0.00,-0.01,-0.00,-0.00,0.00,0.07,0.00,0.00,0.00,0.07,0.07,0.08,0.08,876,875,923,889
9037,0,0.04,-0.00,-0.01,0.00,-0.00,0.00,0.09,0.00,0.00,0.00,0.08,0.08,0.09,0.09,887,886,934,899
9047,0,0.04,-0.00,-0.01,0.00,-0.00,0.00,0.09,0.00,0.00,0.00,0.08,0.08,0.09,0.09,887,885,934,900
9056,0,0.04,-0.00,-0.01,0.00,-0.00,-0.00,0.09,0.00,0.00,0.00,0.08,0.08,0.09,0.09,887,885,934,900
9066,0,0.04,-0.00,-0.01,0.00,0.00,-0.00,0.09,0.00,0.00,0.00,0.08,0.08,0.09,0.09,887,885,934,900
9076,0,0.04,-0.00,-0.01,0.00,0.00,0.00,0.09,0.00,0.00,0.00,0.08,0.08,0.09,0.09,887,886,935,901
9090,0,0.04,-0.00,-0.01,0.00,-0.00,0.00,0.09,0.00,0.00,0.00,0.08,0.08,0.09,0.09,887,886,935,901
9098,0,0.04,-0.00,-0.01,0.00,0.01,-0.02,0.09,0.00,0.00,0.00,0.08,0.08,0.09,0.09,888,886,936,902
9108,0,0.04,-0.00,-0.01,0.00,0.01,-0.02,0.09,0.00,0.00,0.00,0.08,0.08,0.09,0.09,888,886,937,902
9118,0,0.04,-0.00,-0.01,0.00,-0.00,0.01,0.09,0.00,0.00,0.00,0.08,0.08,0.09,0.09,888,886,936,902
9128,0,0.04,-0.00,-0.01,0.00,-0.00,0.00,0.09,0.00,0.00,0.00,0.08,0.08,0.09,0.09,888,886,937,902
9138,0,0.04,-0.00,-0.01,0.00,0.00,0.01,0.09,0.00,0.00,0.00,0.09,0.08,0.10,0.09,888,886,938,903
9147,0,0.04,-0.00,-0.01,0.00,0.00,0.00,0.10,0.00,0.00,0.00,0.10,0.09,0.11,0.11,898,896,948,913
9157,0,0.04,-0.00,-0.01,0.00,-0.00,-0.00,0.10,0.00,0.00,0.00,0.10,0.09,0.11,0.11,898,896,948,913
9167,0,0.04,-0.00,-0.01,0.00,-0.00,-0.00,0.10,0.00,0.00,0.00,0.10,0.09,0.11,0.11,898,896,948,913
9177,0,0.04,-0.00,-0.01,0.00,-0.00,0.00,0.10,0.00,0.00,0.00,0.10,0.10,0.11,0.11,900,898,951,916
9187,0,0.04,-0.00,-0.01,0.00,0.00,0.00,0.10,0.00,0.00,0.00,0.10,0.10,0.11,0.11,901,899,952,917
9194,0,0.04,-0.00,-0.01,0.00,0.00,0.00,0.10,0.00,0.00,0.00,0.10,0.10,0.11,0.11,901,898,952,917
9203,0,0.04,-0.00,-0.01,0.00,0.00,0.00,0.10,0.00,0.00,0.00,0.10,0.10,0.11,0.11,901,898,952,917
9211,0,0.04,-0.00,-0.01,0.00,-0.00,0.00,0.10,0.00,0.00,0.00,0.10,0.10,0.11,0.11,900,898,952,917
9219,0,0.04,-0.00,-0.01,0.00,-0.00,0.00,0.10,0.00,0.00,0.00,0.10,0.10,0.11,0.11,900,898,952,917
9228,0,0.04,-0.00,-0.01,0.00,-0.00,0.00,0.10,0.00,0.00,0.00,0.10,0.10,0.11,0.11,900,898,952,917
9238,0,0.04,-0.00,-0.01,0.00,-0.00,0.00,0.10,0.00,0.00,0.00,0.10,0.10,0.11,0.11,900,898,953,917
9248,0,0.04,-0.00,-0.01,0.00,-0.00,-0.00,0.10,0.00,0.00,0.00,0.10,0.10,0.11,0.11,900,897,953,917
9257,0,0.04,-0.00,-0.01,0.00,-0.00,-0.01,0.10,0.00,0.00,0.00,0.10,0.10,0.11,0.11,900,897,953,918
9267,0,0.04,-0.00,-0.01,0.00,0.00,-0.01,0.10,0.00,0.00,0.00,0.10,0.10,0.11,0.11,900,897,953,918
9276,0,0.04,-0.00,-0.01,-0.00,-0.00,-0.02,0.10,0.00,0.00,0.00,0.10,0.10,0.11,0.11,900,897,953,918
9286,0,0.04,-0.00,-0.01,-0.00,-0.00,-0.02,0.10,0.00,0.00,0.00,0.10,0.10,0.11,0.11,900,897,954,918
9294,0,0.04,-0.00,-0.01,0.00,-0.01,-0.01,0.10,0.00,0.00,0.00,0.10,0.10,0.11,0.11,899,897,954,918
9302,0,0.04,-0.00,-0.01,0.00,-0.00,-0.01,0.10,0.00,0.00,0.00,0.10,0.09,0.12,0.11,899,896,954,918
9310,0,0.04,-0.00,-0.01,0.00,0.00,-0.00,0.10,0.00,0.00,0.00,0.10,0.09,0.12,0.11,899,896,954,918
9319,0,0.04,-0.00,-0.01,0.00,-0.00,-0.00,0.10,0.00,0.00,0.00,0.10,0.09,0.12,0.11,899,896,954,918
9328,0,0.04,-0.00,-0.01,0.00,-0.00,-0.00,0.10,0.00,0.00,0.00,0.10,0.09,0.12,0.11,899,896,954,919
9338,0,0.04,-0.00,-0.01,0.00,-0.00,-0.01,0.10,0.00,0.00,0.00,0.10,0.09,0.12,0.11,899,896,955,919
9347,0,0.04,-0.00,-0.01,-0.00,-0.00,-0.00,0.10,0.00,0.00,0.00,0.10,0.09,0.12,0.11,899,896,955,919
9357,0,0.04,-0.00,-0.01,-0.00,-0.00,-0.01,0.10,0.00,0.00,0.00,0.10,0.09,0.12,0.11,899,895,955,919
9367,0,0.04,-0.00,-0.01,-0.00,-0.01,-0.02,0.10,0.01,0.00,0.00,0.10,0.09,0.12,0.11,898,895,955,919
9380,0,0.04,-0.00,-0.01,-0.00,-0.00,-0.00,0.10,0.01,0.00,0.00,0.10,0.09,0.12,0.11,898,895,955,919
9389,0,0.04,-0.00,-0.01,0.00,-0.00,-0.00,0.10,0.01,0.00,0.00,0.10,0.09,0.12,0.11,898,895,956,919
9399,0,0.04,-0.00,-0.01,0.00,-0.00,-0.00,0.10,0.01,0.00,0.00,0.10,0.09,0.12,0.11,898,895,956,919
9408,0,0.04,-0.00,-0.01,-0.00,-0.00,-0.01,0.10,0.01,0.00,0.00,0.10,0.09,0.12,0.11,898,894,956,920
9418,0,0.04,-0.00,-0.01,-0.00,-0.00,-0.00,0.10,0.01,0.00,0.00,0.10,0.09,0.12,0.11,898,894,956,920
9428,0,0.04,-0.00,-0.01,-0.00,-0.00,0.00,0.10,0.01,0.00,0.00,0.10,0.09,0.12,0.11,898,894,956,920
9438,0,0.04,-0.00,-0.01,0.00,0.00,-0.00,0.10,0.01,0.00,0.00,0.10,0.09,0.12,0.11,898,894,956,920
9448,0,0.04,-0.00,-0.01,0.00,-0.00,0.00,0.10,0.01,0.00,0.00,0.10,0.09,0.12,0.11,898,894,957,920
9458,0,0.04,-0.00,-0.01,0.00,0.00,-0.00,0.10,0.01,0.00,0.00,0.10,0.09,0.12,0.11,897,893,957,920
9468,0,0.04,-0.00,-0.01,0.00,-0.00,-0.01,0.10,0.01,0.00,0.00,0.10,0.09,0.12,0.11,897,893,957,920
9478,0,0.04,-0.00,-0.01,0.00,-0.00,-0.00,0.10,0.01,0.00,0.00,0.09,0.09,0.12,0.11,896,892,956,920
9488,0,0.04,-0.00,-0.01,-0.00,-0.00,-0.01,0.10,0.01,0.00,0.00,0.09,0.09,0.12,0.11,896,892,956,920
9496,0,0.04,-0.00,-0.01,0.00,-0.00,-0.02,0.10,0.01,0.00,0.00,0.09,0.09,0.12,0.11,896,892,957,920
9506,0,0.04,-0.00,-0.01,0.00,0.00,-0.00,0.10,0.01,0.00,0.00,0.10,0.09,0.12,0.11,897,893,958,921
9515,0,0.04,-0.00,-0.01,0.00,0.00,0.00,0.10,0.01,0.00,0.00,0.09,0.09,0.12,0.11,896,892,957,920
9525,0,0.04,-0.00,-0.01,0.00,-0.00,-0.00,0.10,0.01,0.00,0.00,0.09,0.09,0.12,0.11,896,891,957,920
9533,0,0.04,-0.00,-0.01,0.00,-0.00,-0.00,0.10,0.01,0.00,0.00,0.09,0.09,0.12,0.11,896,891,957,920
9541,0,0.04,-0.00,-0.01,0.00,0.00,0.00,0.10,0.01,0.00,0.00,0.09,0.09,0.12,0.11,896,891,958,920
9550,0,0.04,-0.00,-0.01,-0.00,-0.00,0.00,0.10,0.01,0.00,0.00,0.09,0.09,0.12,0.11,895,891,958,921
9559,0,0.04,-0.00,-0.01,-0.00,-0.00,0.00,0.10,0.01,0.00,0.00,0.09,0.09,0.12,0.11,895,891,958,921
9569,0,0.04,-0.00,-0.01,-0.00,-0.00,0.01,0.10,0.01,0.00,0.00,0.09,0.09,0.12,0.12,896,891,959,922
9579,0,0.04,-0.00,-0.01,-0.00,0.00,0.01,0.10,0.01,0.00,0.00,0.09,0.09,0.12,0.12,896,891,959,922
9589,0,0.04,-0.00,-0.01,0.00,-0.00,0.00,0.10,0.01,0.00,0.00,0.09,0.09,0.12,0.12,896,891,959,922
9598,0,0.04,-0.00,-0.01,-0.00,-0.00,-0.00,0.10,0.01,0.00,0.00,0.09,0.09,0.12,0.12,896,891,959,922
9608,0,0.04,-0.00,-0.01,-0.00,-0.00,-0.01,0.10,0.01,0.00,0.00,0.09,0.09,0.12,0.12,895,891,960,922
9618,0,0.04,-0.00,-0.01,-0.00,-0.00,-0.00,0.10,0.01,0.00,0.00,0.09,0.09,0.12,0.12,895,890,960,922
9628,0,0.04,-0.00,-0.01,-0.00,0.00,0.00,0.10,0.01,0.00,0.00,0.09,0.09,0.12,0.12,895,890,960,922
9638,0,0.04,-0.00,-0.01,-0.00,-0.00,0.01,0.10,0.01,0.00,0.00,0.09,0.09,0.12,0.12,895,890,960,922
9646,0,0.04,-0.00,-0.01,-0.00,0.00,0.00,0.10,0.01,0.00,0.00,0.09,0.09,0.12,0.12,895,890,960,923
9655,0,0.04,-0.00,-0.01,0.00,0.00,0.02,0.10,0.02,0.00,0.00,0.09,0.09,0.12,0.12,895,890,961,923
9664,0,0.04,-0.00,-0.01,-0.00,-0.00,0.00,0.10,0.02,0.00,0.00,0.09,0.09,0.12,0.12,895,890,961,923
9679,0,0.04,-0.00,-0.01,-0.00,-0.00,0.01,0.10,0.02,0.00,0.00,0.09,0.09,0.12,0.12,895,889,961,923
9689,0,0.04,-0.00,-0.01,-0.00,0.00,0.00,0.10,0.02,0.00,0.00,0.09,0.09,0.12,0.12,894,889,961,923
9699,0,0.04,-0.00,-0.01,0.00,-0.00,-0.00,0.11,0.02,0.00,0.00,0.09,0.09,0.13,0.12,895,890,962,924
9709,0,0.04,-0.00,-0.01,0.00,-0.00,-0.00,0.11,0.02,0.00,0.00,0.09,0.09,0.13,0.12,895,890,962,924
9718,0,0.04,-0.00,-0.01,0.00,-0.00,-0.00,0.11,0.02,0.00,0.00,0.09,0.09,0.13,0.12,896,890,963,925
9728,0,0.04,-0.00,-0.01,-0.00,-0.00,-0.00,0.11,0.02,0.00,0.00,0.09,0.09,0.13,0.12,896,890,964,925
9737,0,0.04,-0.00,-0.01,-0.00,0.00,0.00,0.11,0.02,0.00,0.00,0.09,0.09,0.13,0.12,895,890,964,925
9745,0,0.04,-0.00,-0.01,-0.00,-0.00,0.00,0.11,0.02,0.00,0.00,0.09,0.09,0.13,0.12,895,890,964,925
9753,0,0.04,-0.00,-0.01,-0.00,0.00,0.01,0.11,0.02,0.00,0.00,0.10,0.09,0.13,0.12,897,891,966,927
9761,0,0.04,-0.00,-0.01,0.00,-0.00,-0.00,0.11,0.02,0.00,0.00,0.10,0.09,0.13,0.12,897,891,966,927
9770,0,0.04,-0.00,-0.01,-0.00,-0.00,-0.00,0.11,0.02,0.00,0.00,0.10,0.09,0.13,0.12,897,891,966,927
9779,0,0.04,-0.00,-0.01,-0.00,-0.00,-0.00,0.11,0.02,0.00,0.00,0.10,0.09,0.13,0.12,897,891,966,928
9789,0,0.04,-0.00,-0.01,0.00,-0.00,-0.01,0.11,0.02,0.00,0.00,0.09,0.09,0.13,0.12,896,890,966,928
9799,0,0.04,-0.00,-0.01,-0.00,-0.00,-0.00,0.11,0.02,0.00,0.00,0.09,0.09,0.13,0.12,896,890,967,928
9809,0,0.04,-0.00,-0.01,0.00,-0.00,0.00,0.11,0.02,0.00,0.00,0.09,0.09,0.13,0.12,896,890,967,928
9819,0,0.04,-0.00,-0.01,-0.00,-0.00,0.01,0.11,0.02,0.00,0.00,0.09,0.09,0.13,0.12,896,890,967,928
9829,0,0.04,-0.00,-0.01,0.00,0.00,0.01,0.11,0.02,0.00,0.00,0.09,0.09,0.13,0.12,896,890,967,928
9839,0,0.04,-0.00,-0.01,0.00,0.00,0.00,0.11,0.02,0.00,0.00,0.09,0.09,0.13,0.12,896,890,967,928
9848,0,0.04,-0.00,-0.01,-0.00,-0.00,-0.00,0.11,0.02,0.00,0.00,0.09,0.09,0.13,0.12,896,889,967,928
9858,0,0.04,-0.00,-0.01,-0.00,-0.00,0.00,0.11,0.02,0.00,0.00,0.09,0.09,0.13,0.12,896,889,968,929
9868,0,0.04,-0.00,-0.01,0.00,0.00,0.00,0.11,0.02,0.00,0.00,0.09,0.09,0.13,0.12,895,889,968,929
9878,0,0.04,-0.00,-0.01,0.00,-0.00,-0.00,0.11,0.02,0.00,0.00,0.09,0.09,0.13,0.12,895,889,968,929
9888,0,0.04,-0.00,-0.01,0.00,-0.00,-0.01,0.11,0.02,0.00,0.00,0.09,0.09,0.13,0.12,895,889,968,929
9896,0,0.04,-0.00,-0.01,0.00,-0.00,-0.01,0.11,0.02,0.00,0.00,0.09,0.09,0.13,0.12,895,888,968,929
9904,0,0.04,-0.00,-0.01,-0.00,-0.00,0.00,0.11,0.02,0.00,0.00,0.09,0.08,0.13,0.12,895,888,969,929
9912,0,0.04,-0.00,-0.01,0.00,-0.00,0.00,0.11,0.02,0.00,0.00,0.09,0.08,0.13,0.12,895,888,969,929
9920,0,0.04,-0.00,-0.01,-0.00,-0.00,-0.00,0.11,0.02,0.00,0.00,0.09,0.08,0.13,0.13,895,888,969,929
9930,0,0.04,-0.00,-0.01,-0.00,-0.00,-0.00,0.11,0.02,0.00,0.00,0.09,0.08,0.13,0.13,895,888,969,930
9940,0,0.04,-0.00,-0.01,0.00,-0.00,-0.00,0.11,0.02,0.00,0.00,0.09,0.08,0.13,0.13,894,888,969,930
9950,0,0.04,-0.00,-0.01,-0.00,0.00,-0.00,0.11,0.02,0.00,0.00,0.09,0.08,0.13,0.13,894,887,970,930
9960,0,0.04,-0.00,-0.01,-0.00,0.00,-0.00,0.11,0.02,0.00,0.00,0.09,0.08,0.13,0.13,894,887,970,930
9977,0,0.04,-0.00,-0.01,0.00,0.00,0.00,0.11,0.02,0.00,0.00,0.09,0.08,0.13,0.12,893,886,969,929
9988,0,0.04,-0.00,-0.01,0.00,-0.00,-0.00,0.11,0.02,0.00,0.00,0.09,0.08,0.13,0.13,893,886,969,929
9995,0,0.04,-0.00,-0.01,0.00,0.00,0.00,0.11,0.02,0.00,0.00,0.09,0.08,0.13,0.13,893,886,969,929
10003,0,0.04,-0.00,-0.01,0.00,0.00,0.00,0.11,0.02,0.00,0.00,0.09,0.08,0.14,0.13,894,886,970,930
10011,0,0.04,-0.00,-0.01,-0.00,0.00,0.00,0.11,0.02,0.00,0.00,0.09,0.08,0.14,0.13,894,886,971,930
10020,0,0.04,-0.00,-0.01,0.00,0.00,0.00,0.11,0.02,0.00,0.00,0.09,0.08,0.14,0.13,894,886,971,931
10030,0,0.04,-0.00,-0.01,0.00,0.00,0.00,0.11,0.02,0.00,0.00,0.09,0.08,0.13,0.13,893,885,970,930
10040,0,0.04,-0.00,-0.01,-0.00,-0.00,-0.00,0.11,0.02,0.00,0.00,0.09,0.08,0.14,0.13,892,885,970,930
10050,0,0.04,-0.00,-0.01,0.00,-0.00,0.00,0.11,0.02,0.00,0.00,0.09,0.08,0.14,0.13,892,885,971,930
10060,0,0.04,-0.00,-0.01,0.00,-0.00,0.00,0.11,0.02,0.00,0.00,0.09,0.08,0.14,0.13,893,885,972,931
10069,0,0.04,-0.00,-0.01,0.00,-0.00,0.00,0.11,0.02,0.00,0.00,0.09,0.08,0.14,0.13,892,884,971,930
10079,0,0.04,-0.00,-0.01,0.00,-0.00,0.00,0.11,0.02,0.00,0.00,0.09,0.08,0.14,0.13,892,884,971,930
10091,0,0.04,-0.00,-0.01,-0.00,-0.00,0.00,0.11,0.02,0.00,0.00,0.09,0.08,0.14,0.13,892,884,971,931
10100,0,0.04,-0.00,-0.01,-0.00,-0.00,0.00,0.11,0.02,0.00,0.00,0.09,0.08,0.14,0.13,892,884,971,931
10110,0,0.04,-0.00,-0.01,0.00,0.00,-0.00,0.11,0.02,0.00,0.00,0.09,0.08,0.14,0.13,892,884,972,931
10120,0,0.04,-0.00,-0.01,-0.00,0.00,-0.00,0.11,0.02,0.00,0.00,0.09,0.08,0.14,0.13,891,883,972,931
10130,0,0.04,-0.00,-0.01,0.00,0.00,0.00,0.11,0.02,0.00,0.00,0.09,0.08,0.14,0.13,891,883,972,931
10140,0,0.04,-0.00,-0.01,0.00,0.00,0.00,0.11,0.02,0.00,0.00,0.09,0.08,0.14,0.13,891,883,972,931
10150,0,0.04,-0.00,-0.01,-0.00,-0.00,0.00,0.11,0.02,0.00,0.00,0.09,0.08,0.14,0.13,891,883,972,931
10161,0,0.04,-0.00,-0.01,-0.00,0.00,0.00,0.11,0.02,0.00,0.00,0.09,0.08,0.14,0.13,891,883,973,931
10170,0,0.04,-0.00,-0.01,-0.00,0.00,0.00,0.11,0.03,0.00,0.00,0.09,0.08,0.14,0.13,891,882,973,932
10180,0,0.04,-0.00,-0.01,0.00,-0.01,0.00,0.11,0.03,0.00,0.00,0.09,0.08,0.14,0.13,891,882,973,932
10190,0,0.04,-0.00,-0.01,0.00,0.00,-0.02,0.11,0.03,0.00,0.00,0.09,0.08,0.14,0.13,890,882,973,932
10201,0,0.04,-0.00,-0.01,0.00,-0.00,0.00,0.11,0.03,0.00,0.00,0.09,0.08,0.14,0.13,890,882,973,932
10210,0,0.04,-0.00,-0.01,0.00,-0.00,0.00,0.11,0.03,0.00,0.00,0.09,0.08,0.14,0.13,890,882,973,932
10220,0,0.04,-0.00,-0.01,0.00,0.00,0.00,0.11,0.03,0.00,0.00,0.09,0.08,0.14,0.13,890,882,974,932
10231,0,0.04,-0.00,-0.01,0.00,-0.00,0.00,0.11,0.03,0.00,0.00,0.09,0.08,0.14,0.13,891,882,975,933
10241,0,0.04,-0.00,-0.01,0.00,-0.00,0.00,0.11,0.03,0.00,0.00,0.09,0.08,0.14,0.13,891,882,975,933
10250,0,0.04,-0.00,-0.01,0.00,-0.00,-0.00,0.11,0.03,0.00,0.00,0.09,0.08,0.14,0.13,891,882,975,934
10261,0,0.04,-0.00,-0.01,0.00,-0.00,-0.00,0.11,0.03,0.00,0.00,0.09,0.08,0.14,0.13,890,882,975,934
10276,0,0.04,-0.00,-0.01,0.00,-0.00,0.00,0.11,0.03,0.00,0.00,0.09,0.08,0.14,0.13,889,881,975,933
10284,0,0.04,-0.00,-0.01,0.00,-0.00,-0.00,0.11,0.03,0.00,0.00,0.09,0.08,0.14,0.13,890,881,975,934
10292,0,0.04,-0.00,-0.01,-0.00,-0.00,-0.00,0.11,0.03,0.00,0.00,0.09,0.08,0.14,0.13,890,881,976,934
10301,0,0.04,-0.00,-0.01,0.00,-0.00,-0.00,0.11,0.03,0.00,0.00,0.09,0.08,0.14,0.13,890,881,976,934
10311,0,0.04,-0.00,-0.01,0.00,-0.00,-0.00,0.11,0.03,0.00,0.00,0.09,0.08,0.14,0.13,890,881,976,934
10320,0,0.04,-0.00,-0.01,0.00,0.00,-0.00,0.11,0.03,0.00,0.00,0.09,0.08,0.14,0.13,890,881,976,934
10331,0,0.04,-0.00,-0.01,0.00,0.00,0.02,0.11,0.03,0.00,0.00,0.09,0.08,0.14,0.13,890,880,976,934
10341,0,0.04,-0.00,-0.01,0.00,0.00,0.02,0.11,0.03,0.00,0.00,0.09,0.08,0.14,0.13,889,880,977,935
10351,0,0.04,-0.00,-0.01,0.00,-0.00,0.00,0.11,0.03,0.00,0.00,0.09,0.07,0.14,0.13,889,880,977,935
10360,0,0.04,-0.00,-0.01,0.00,-0.00,0.02,0.11,0.03,0.00,0.00,0.08,0.07,0.14,0.13,888,879,976,934
10370,0,0.04,-0.00,-0.01,0.00,0.00,0.00,0.11,0.03,0.00,0.00,0.09,0.07,0.14,0.13,889,880,977,935
10381,0,0.04,-0.00,-0.01,0.01,0.00,0.00,0.11,0.03,0.00,0.00,0.09,0.07,0.14,0.13,889,879,977,935
10391,0,0.04,-0.00,-0.01,0.01,0.00,0.00,0.11,0.03,0.00,0.00,0.09,0.07,0.14,0.13,889,879,978,935
10401,0,0.04,-0.00,-0.01,0.00,-0.00,0.00,0.11,0.03,0.00,0.00,0.09,0.07,0.14,0.13,889,879,978,935
10410,0,0.04,-0.00,-0.01,0.00,-0.00,0.00,0.11,0.03,0.00,0.00,0.09,0.07,0.14,0.13,888,879,978,936
10421,0,0.04,-0.00,-0.01,0.00,-0.00,0.02,0.11,0.03,0.00,0.00,0.09,0.07,0.14,0.13,888,879,978,936
10431,0,0.04,-0.00,-0.01,0.00,-0.00,0.02,0.11,0.03,0.00,0.00,0.08,0.07,0.14,0.13,888,879,978,936
10441,0,0.04,-0.00,-0.01,0.00,0.01,0.00,0.11,0.03,0.00,0.00,0.08,0.07,0.15,0.13,888,878,979,936
10451,0,0.04,-0.00,-0.01,0.00,-0.00,0.00,0.11,0.03,0.00,0.00,0.08,0.07,0.15,0.13,888,878,979,936
10461,0,0.04,-0.00,-0.01,0.00,-0.00,0.00,0.11,0.03,0.00,0.00,0.08,0.07,0.15,0.13,888,878,979,936
10470,0,0.04,-0.00,-0.01,0.00,-0.00,-0.00,0.11,0.03,0.00,0.00,0.08,0.07,0.15,0.13,888,878,979,936
10481,0,0.04,-0.00,-0.01,0.00,0.00,0.00,0.11,0.03,0.00,0.00,0.08,0.07,0.15,0.13,888,877,979,936
10491,0,0.04,-0.00,-0.01,0.00,0.00,0.00,0.11,0.03,0.00,0.00,0.08,0.07,0.15,0.13,888,877,980,937
10501,0,0.04,-0.00,-0.01,0.00,0.00,0.00,0.11,0.03,0.00,0.00,0.08,0.07,0.15,0.13,887,877,980,937
10511,0,0.04,-0.00,-0.01,0.00,-0.00,0.00,0.11,0.03,0.00,0.00,0.08,0.07,0.15,0.13,887,877,980,937
10520,0,0.04,-0.00,-0.01,0.00,-0.00,0.00,0.11,0.03,0.00,0.00,0.08,0.07,0.15,0.13,887,877,980,937
10531,0,0.04,-0.00,-0.01,0.00,-0.00,-0.00,0.12,0.03,0.00,0.00,0.09,0.08,0.16,0.14,895,885,989,945
10541,0,0.04,-0.00,-0.01,0.00,-0.00,-0.00,0.12,0.03,0.00,0.00,0.10,0.08,0.16,0.15,897,886,990,947
10551,0,0.04,-0.00,-0.01,0.00,-0.00,0.00,0.12,0.03,0.00,0.00,0.09,0.08,0.16,0.15,896,886,990,947
10560,0,0.04,-0.00,-0.01,0.00,-0.00,0.00,0.12,0.03,0.00,0.00,0.09,0.08,0.16,0.15,896,886,991,947
10572,0,0.04,-0.00,-0.01,0.00,-0.00,0.02,0.12,0.03,0.00,0.00,0.10,0.08,0.16,0.15,899,888,993,950
10585,0,0.04,-0.00,-0.01,0.00,0.00,0.00,0.12,0.03,0.00,0.00,0.10,0.08,0.16,0.15,899,888,994,950
10593,0,0.04,-0.00,-0.01,0.00,-0.00,0.02,0.12,0.03,0.00,0.00,0.10,0.08,0.16,0.15,898,888,994,950
10602,0,0.04,-0.00,-0.01,0.00,0.01,-0.00,0.12,0.03,0.00,0.00,0.10,0.08,0.16,0.15,898,887,994,950
10611,0,0.04,-0.00,-0.01,0.00,0.01,-0.00,0.12,0.03,0.00,0.00,0.10,0.08,0.16,0.15,898,887,994,950
10621,0,0.04,-0.00,-0.01,-0.00,-0.00,0.01,0.12,0.03,0.00,0.00,0.10,0.08,0.16,0.15,898,887,994,951
10631,0,0.04,-0.00,-0.01,-0.00,0.00,-0.00,0.12,0.03,0.00,0.00,0.10,0.08,0.17,0.15,899,888,995,952
10641,0,0.04,-0.00,-0.01,-0.00,-0.00,0.00,0.12,0.03,0.00,0.00,0.10,0.08,0.17,0.15,898,888,995,952
10651,0,0.04,-0.00,-0.01,-0.00,-0.00,-0.00,0.12,0.03,0.00,0.00,0.10,0.08,0.17,0.15,898,887,996,952
10661,0,0.04,-0.00,-0.01,-0.00,-0.00,-0.01,0.12,0.03,0.00,0.00,0.10,0.08,0.17,0.15,898,887,996,952
10671,0,0.04,-0.00,-0.01,0.00,-0.00,-0.00,0.12,0.03,0.00,0.00,0.10,0.08,0.17,0.15,898,887,996,952
10681,0,0.04,-0.00,-0.01,-0.00,-0.00,-0.02,0.12,0.04,0.00,0.00,0.10,0.08,0.17,0.15,898,887,996,953
10691,0,0.04,-0.00,-0.01,-0.00,-0.00,-0.01,0.12,0.04,0.00,0.00,0.10,0.08,0.17,0.15,898,887,996,953
10700,0,0.04,-0.00,-0.01,-0.01,-0.00,-0.00,0.12,0.04,0.00,0.00,0.10,0.08,0.17,0.15,897,886,997,953
10710,0,0.04,-0.00,-0.01,-0.00,0.00,0.02,0.12,0.04,0.00,0.00,0.10,0.08,0.17,0.15,897,886,997,953
10720,0,0.04,-0.00,-0.01,-0.00,0.00,-0.01,0.12,0.04,0.00,0.00,0.10,0.08,0.17,0.15,897,886,997,953
10729,0,0.04,-0.00,-0.01,0.00,-0.00,0.00,0.12,0.04,0.00,0.00,0.10,0.08,0.17,0.15,897,886,997,953
10739,0,0.04,-0.00,-0.01,-0.00,0.00,-0.02,0.12,0.04,0.00,0.00,0.10,0.08,0.17,0.15,897,886,997,953
10747,0,0.04,-0.00,-0.01,0.00,-0.00,0.00,0.12,0.04,0.00,0.00,0.10,0.08,0.17,0.15,897,886,997,953
10755,0,0.04,-0.00,-0.01,-0.00,-0.00,-0.02,0.12,0.04,0.00,0.00,0.10,0.08,0.17,0.15,897,885,998,954
10763,0,0.04,-0.00,-0.01,-0.00,0.00,-0.00,0.12,0.04,0.00,0.00,0.10,0.08,0.17,0.15,897,885,998,954
10772,0,0.04,-0.00,-0.01,-0.00,0.01,-0.00,0.12,0.04,0.00,0.00,0.10,0.08,0.17,0.15,896,885,998,954
10782,0,0.04,-0.00,-0.01,-0.00,0.01,-0.00,0.12,0.04,0.00,0.00,0.09,0.08,0.17,0.16,896,885,998,954
10792,0,0.04,-0.00,-0.01,0.00,0.00,0.00,0.12,0.04,0.00,0.00,0.09,0.08,0.17,0.16,896,885,998,954
10801,0,0.04,-0.00,-0.01,-0.00,-0.00,-0.01,0.12,0.04,0.00,0.00,0.09,0.08,0.17,0.16,896,884,999,954
10811,0,0.04,-0.00,-0.01,-0.00,-0.00,-0.00,0.12,0.04,0.00,0.00,0.09,0.08,0.17,0.16,896,884,999,955
10821,0,0.04,-0.00,-0.01,-0.00,-0.00,-0.00,0.12,0.04,0.00,0.00,0.09,0.08,0.17,0.16,896,884,999,955
10831,0,0.04,-0.00,-0.01,-0.00,-0.00,-0.01,0.12,0.04,0.00,0.00,0.09,0.08,0.17,0.16,895,884,999,955
10841,0,0.04,-0.00,-0.01,-0.00,-0.00,0.01,0.12,0.04,0.00,0.00,0.09,0.08,0.17,0.16,895,884,999,955
10850,0,0.04,-0.00,-0.01,-0.00,0.00,-0.02,0.12,0.04,0.00,0.00,0.09,0.08,0.17,0.16,895,884,1000,955
10860,0,0.04,-0.00,-0.01,0.00,0.00,0.00,0.12,0.04,0.00,0.00,0.09,0.08,0.17,0.16,895,883,1000,955
10869,0,0.04,-0.00,-0.01,-0.00,-0.00,-0.02,0.12,0.04,0.00,0.00,0.09,0.08,0.17,0.16,895,883,1000,955
10883,0,0.04,-0.00,-0.01,-0.00,-0.00,-0.00,0.12,0.04,0.00,0.00,0.09,0.08,0.17,0.16,895,883,1000,956
10892,0,0.04,-0.00,-0.01,0.00,0.00,-0.00,0.12,0.04,0.00,0.00,0.09,0.08,0.17,0.16,895,883,1000,956
10902,0,0.04,-0.00,-0.01,0.00,0.00,-0.00,0.12,0.04,0.00,0.00,0.09,0.08,0.17,0.16,895,883,1000,956
10911,0,0.04,-0.00,-0.01,-0.00,-0.00,-0.01,0.12,0.04,0.00,0.00,0.09,0.08,0.17,0.16,894,882,1001,956
10922,0,0.04,-0.00,-0.01,-0.00,-0.00,0.00,0.12,0.04,0.00,0.00,0.09,0.08,0.17,0.16,894,882,1001,956
10931,0,0.04,-0.00,-0.01,-0.00,-0.00,0.00,0.12,0.04,0.00,0.00,0.09,0.08,0.17,0.16,894,882,1001,956
10941,0,0.04,-0.00,-0.01,0.00,0.00,-0.00,0.12,0.04,0.00,0.00,0.09,0.08,0.17,0.16,894,882,1001,956
10949,0,0.04,-0.00,-0.01,0.00,-0.00,0.02,0.12,0.04,0.00,0.00,0.09,0.08,0.17,0.16,894,882,1001,957
10959,0,0.04,-0.00,-0.01,-0.00,0.00,0.01,0.12,0.04,0.00,0.00,0.09,0.08,0.17,0.16,894,881,1002,957
10968,0,0.04,-0.00,-0.01,0.00,-0.00,0.03,0.12,0.04,0.00,0.00,0.09,0.08,0.17,0.16,893,881,1002,957
10978,0,0.04,-0.00,-0.01,-0.00,-0.00,-0.02,0.12,0.04,0.00,0.00,0.09,0.08,0.17,0.16,893,881,1002,957
10985,0,0.04,-0.00,-0.01,0.00,-0.00,-0.00,0.12,0.04,0.00,0.00,0.09,0.08,0.17,0.16,893,881,1002,957
10994,0,0.04,-0.00,-0.01,-0.00,-0.00,-0.01,0.12,0.04,0.00,0.00,0.09,0.08,0.17,0.16,893,881,1002,957
11003,0,0.04,-0.00,-0.01,0.00,-0.00,-0.00,0.12,0.04,0.00,0.00,0.09,0.08,0.17,0.16,893,881,1002,957
11012,0,0.04,-0.00,-0.01,0.00,-0.00,-0.00,0.12,0.04,0.00,0.00,0.09,0.08,0.17,0.16,893,880,1003,958
11022,0,0.04,-0.00,-0.01,0.00,0.00,0.00,0.12,0.04,0.00,0.00,0.09,0.08,0.17,0.16,893,880,1003,958
11032,0,0.04,-0.00,-0.01,-0.00,-0.00,-0.00,0.12,0.04,0.00,0.00,0.09,0.07,0.18,0.16,892,880,1003,958
11042,0,0.04,-0.00,-0.01,0.00,0.00,0.02,0.12,0.04,0.00,0.00,0.09,0.07,0.18,0.16,892,880,1003,958
11052,0,0.04,-0.00,-0.01,-0.01,-0.00,-0.00,0.12,0.04,0.00,0.00,0.09,0.07,0.18,0.16,892,880,1003,958
11061,0,0.04,-0.00,-0.01,0.00,-0.00,0.02,0.12,0.04,0.00,0.00,0.09,0.07,0.18,0.16,892,880,1004,958
11071,0,0.04,-0.00,-0.01,-0.00,-0.00,-0.00,0.12,0.04,0.00,0.00,0.09,0.07,0.18,0.16,892,879,1004,958
11081,0,0.04,-0.00,-0.01,0.00,-0.00,-0.00,0.12,0.04,0.00,0.00,0.09,0.07,0.18,0.16,892,879,1004,959
11091,0,0.04,-0.00,-0.01,0.00,0.00,0.00,0.12,0.04,0.00,0.00,0.09,0.07,0.18,0.16,892,879,1004,959
11099,0,0.04,-0.00,-0.01,0.00,0.00,-0.01,0.12,0.04,0.00,0.00,0.09,0.07,0.18,0.16,891,879,1004,959
11109,0,0.04,-0.00,-0.01,0.00,0.00,0.02,0.12,0.04,0.00,0.00,0.09,0.07,0.18,0.16,891,879,1004,959
11119,0,0.04,-0.00,-0.01,-0.00,-0.00,-0.00,0.12,0.04,0.00,0.00,0.09,0.07,0.18,0.16,891,878,1005,959
11129,0,0.04,-0.00,-0.01,0.00,-0.00,0.01,0.12,0.04,0.00,0.00,0.09,0.07,0.18,0.16,891,878,1005,959
11138,0,0.04,-0.00,-0.01,0.00,0.00,-0.00,0.12,0.04,0.00,0.00,0.09,0.07,0.18,0.16,891,878,1005,959
11146,0,0.04,-0.00,-0.01,-0.00,-0.00,-0.00,0.12,0.04,0.00,0.00,0.09,0.07,0.18,0.16,890,877,1004,959
11154,0,0.04,-0.00,-0.01,0.00,-0.00,0.01,0.12,0.05,0.00,0.00,0.09,0.07,0.18,0.16,891,878,1005,960
11163,0,0.04,-0.00,-0.01,-0.00,-0.00,-0.00,0.12,0.05,0.00,0.00,0.09,0.07,0.18,0.16,890,877,1006,960
11177,0,0.04,-0.00,-0.01,0.00,-0.00,0.03,0.12,0.05,0.00,0.00,0.09,0.07,0.18,0.16,890,877,1006,960
11185,0,0.04,-0.00,-0.01,0.00,-0.00,-0.00,0.12,0.05,0.00,0.00,0.09,0.07,0.18,0.16,890,877,1006,960
11194,0,0.04,-0.00,-0.01,0.00,0.00,-0.00,0.12,0.05,0.00,0.00,0.09,0.07,0.18,0.16,890,877,1006,960
11201,0,0.04,-0.00,-0.01,0.00,0.00,-0.00,0.12,0.05,0.00,0.00,0.09,0.07,0.18,0.16,890,877,1006,960
11209,0,0.04,-0.00,-0.01,0.00,-0.00,0.02,0.12,0.05,0.00,0.00,0.09,0.07,0.18,0.16,890,877,1006,961
11219,0,0.04,-0.00,-0.01,0.00,0.00,0.00,0.12,0.05,0.00,0.00,0.09,0.07,0.18,0.16,890,876,1007,961
11228,0,0.04,-0.00,-0.01,0.01,-0.00,0.03,0.12,0.05,0.00,0.00,0.09,0.07,0.18,0.16,889,876,1007,961
11236,0,0.04,-0.00,-0.01,0.00,-0.00,-0.00,0.12,0.05,0.00,0.00,0.09,0.07,0.18,0.16,889,876,1007,961
11244,0,0.03,-0.00,-0.01,0.02,0.00,0.00,0.12,0.05,0.00,0.00,0.09,0.07,0.18,0.16,889,876,1007,961
11253,0,0.03,-0.00,-0.01,0.02,0.00,0.00,0.12,0.05,0.00,0.00,0.09,0.07,0.18,0.16,889,876,1007,961
11263,0,0.03,-0.00,-0.01,0.01,0.00,0.00,0.12,0.05,0.00,0.00,0.09,0.07,0.18,0.16,889,876,1008,961
11272,0,0.03,-0.00,-0.01,0.01,0.00,-0.00,0.12,0.05,0.00,0.00,0.09,0.07,0.18,0.16,889,875,1008,961
11282,0,0.03,-0.00,-0.01,0.02,0.00,0.02,0.12,0.05,0.00,0.00,0.09,0.07,0.18,0.16,889,875,1008,961
11292,0,0.03,-0.00,-0.01,0.00,-0.00,0.02,0.12,0.05,0.00,0.00,0.09,0.07,0.18,0.16,889,875,1008,962
11300,0,0.03,-0.00,-0.01,0.00,-0.00,0.03,0.12,0.05,0.00,0.00,0.09,0.07,0.18,0.16,889,875,1008,962
11307,0,0.03,-0.00,-0.01,0.00,0.00,0.03,0.12,0.05,0.00,0.00,0.09,0.07,0.18,0.16,889,875,1008,962
11315,0,0.03,-0.00,-0.01,-0.00,0.01,0.00,0.12,0.05,0.00,0.00,0.09,0.07,0.18,0.16,888,874,1009,962
11324,0,0.03,-0.00,-0.01,-0.00,0.00,0.02,0.12,0.05,0.00,0.00,0.09,0.07,0.18,0.16,888,874,1009,962
11333,0,0.03,-0.00,-0.01,-0.00,0.00,0.02,0.12,0.05,0.00,0.00,0.08,0.07,0.18,0.17,888,874,1009,962
11342,0,0.03,-0.00,-0.01,0.00,-0.00,0.00,0.12,0.05,0.00,0.00,0.08,0.07,0.18,0.17,888,874,1009,962
11350,0,0.03,-0.00,-0.01,0.00,-0.00,0.02,0.12,0.05,0.00,0.00,0.08,0.07,0.18,0.17,888,874,1009,962
11358,0,0.03,-0.00,-0.01,0.01,-0.00,0.04,0.12,0.05,0.00,0.00,0.08,0.07,0.18,0.17,888,874,1009,962
11366,0,0.03,-0.00,-0.01,0.01,-0.00,0.02,0.12,0.05,0.00,0.00,0.08,0.07,0.18,0.17,888,874,1009,962
11374,0,0.03,-0.00,-0.01,0.00,0.02,0.03,0.12,0.05,0.00,0.00,0.08,0.07,0.18,0.17,888,873,1010,962
11383,0,0.03,-0.00,-0.01,-0.00,0.04,-0.00,0.12,0.05,0.00,0.00,0.08,0.07,0.18,0.17,888,873,1010,963
11393,0,0.03,-0.00,-0.01,-0.00,0.04,-0.00,0.12,0.05,0.00,0.00,0.08,0.07,0.18,0.17,888,873,1010,963
11401,0,0.03,-0.00,-0.01,0.00,0.00,0.02,0.12,0.05,0.00,0.00,0.08,0.07,0.18,0.17,887,873,1010,963
11409,0,0.03,-0.00,-0.01,0.00,-0.02,0.05,0.12,0.05,0.00,0.00,0.08,0.07,0.18,0.17,887,873,1010,963
11417,0,0.03,-0.00,-0.01,0.00,-0.03,0.04,0.12,0.05,0.00,0.00,0.08,0.07,0.18,0.17,887,873,1010,963
11424,0,0.03,-0.00,-0.01,0.00,-0.02,0.07,0.12,0.05,0.00,0.00,0.08,0.07,0.18,0.17,887,873,1010,963
11434,0,0.03,-0.00,-0.01,0.00,0.02,0.11,0.12,0.05,0.00,0.00,0.08,0.07,0.18,0.17,887,872,1011,963
11444,0,0.02,-0.00,-0.01,-0.00,0.02,0.16,0.12,0.05,0.00,0.00,0.08,0.07,0.18,0.17,887,872,1011,963
11452,0,0.02,-0.00,-0.01,-0.00,0.02,0.16,0.12,0.05,0.00,0.00,0.08,0.07,0.18,0.17,887,872,1011,963
11460,0,0.02,-0.00,-0.01,0.00,0.02,0.21,0.12,0.05,0.00,0.00,0.08,0.07,0.18,0.17,887,872,1011,963
11468,0,0.02,-0.00,-0.01,0.00,0.00,0.23,0.12,0.05,0.00,0.00,0.08,0.07,0.18,0.17,887,872,1011,963
11476,0,0.02,-0.00,-0.01,0.00,0.00,0.26,0.12,0.05,0.00,0.00,0.08,0.07,0.18,0.17,887,872,1011,963
11484,0,0.02,-0.00,-0.01,0.00,0.00,0.33,0.12,0.05,0.00,0.00,0.08,0.07,0.18,0.17,887,872,1011,963
11494,0,0.01,-0.00,-0.01,0.00,0.00,0.33,0.12,0.05,0.00,0.00,0.08,0.07,0.18,0.17,887,872,1011,963
11501,0,0.01,-0.00,-0.01,0.00,-0.00,0.37,0.12,0.05,0.00,0.00,0.08,0.07,0.18,0.17,887,872,1011,963
11509,0,0.00,-0.00,-0.01,-0.00,0.00,0.40,0.12,0.05,0.00,0.00,0.08,0.07,0.18,0.17,887,872,1011,963
11517,0,0.00,-0.00,-0.01,-0.00,0.01,0.41,0.12,0.05,0.00,0.00,0.08,0.07,0.18,0.17,888,872,1011,963
11525,0,-0.00,-0.00,-0.01,-0.00,0.02,0.38,0.12,0.05,0.00,0.00,0.08,0.07,0.18,0.17,888,872,1011,962
11534,0,-0.00,-0.00,-0.01,0.00,0.02,0.37,0.12,0.05,0.01,0.00,0.08,0.07,0.18,0.17,888,872,1011,962
11544,0,-0.00,-0.00,-0.01,0.00,0.02,0.37,0.12,0.05,0.01,0.00,0.08,0.07,0.18,0.17,888,872,1011,962
11551,0,-0.00,-0.00,-0.01,0.00,0.03,0.34,0.12,0.05,0.01,0.00,0.09,0.07,0.18,0.16,888,872,1011,962
11559,0,-0.00,-0.00,-0.01,0.01,-0.00,0.22,0.13,0.05,0.00,0.00,0.09,0.07,0.19,0.17,890,874,1012,964
11567,0,-0.01,-0.00,-0.01,0.01,-0.00,0.22,0.13,0.05,0.00,0.00,0.09,0.07,0.19,0.17,890,875,1012,963
11575,0,-0.01,-0.00,-0.01,0.00,-0.00,0.14,0.13,0.05,0.00,0.00,0.09,0.07,0.19,0.17,893,877,1014,966
11584,0,-0.01,-0.00,-0.01,0.00,0.01,0.00,0.13,0.05,0.01,0.00,0.09,0.07,0.19,0.17,893,877,1014,966
11594,0,-0.01,-0.00,-0.01,0.00,0.01,0.00,0.13,0.05,0.01,0.00,0.09,0.07,0.19,0.17,894,878,1015,966
11601,0,-0.01,-0.00,-0.01,0.00,0.00,-0.07,0.13,0.05,0.01,0.00,0.09,0.07,0.19,0.17,895,879,1016,967
11609,0,-0.01,-0.00,-0.01,0.00,-0.00,-0.12,0.13,0.05,0.01,0.00,0.09,0.07,0.19,0.17,895,879,1016,967
11616,0,-0.00,-0.00,-0.01,0.00,-0.00,-0.12,0.13,0.05,0.01,0.00,0.09,0.07,0.19,0.17,895,879,1016,967
11625,0,-0.00,-0.00,-0.01,0.00,-0.01,-0.23,0.13,0.05,0.01,0.00,0.09,0.07,0.19,0.17,895,879,1016,967
11634,0,-0.00,-0.00,-0.01,0.00,-0.01,-0.23,0.13,0.05,0.01,0.00,0.09,0.07,0.19,0.17,894,879,1016,967
11645,0,-0.00,-0.00,-0.01,-0.00,-0.02,-0.27,0.13,0.05,0.01,0.00,0.09,0.07,0.19,0.17,894,879,1016,967
11653,0,-0.00,-0.00,-0.01,-0.00,-0.02,-0.27,0.13,0.05,0.01,0.00,0.09,0.07,0.19,0.17,894,878,1016,967
11660,0,0.00,-0.00,-0.01,-0.00,-0.02,-0.29,0.13,0.05,0.01,0.00,0.09,0.07,0.19,0.17,894,878,1016,967
11668,0,0.00,-0.00,-0.01,0.00,-0.00,-0.28,0.13,0.05,0.01,0.00,0.09,0.07,0.19,0.17,894,878,1016,967
11676,0,0.00,-0.00,-0.01,0.00,-0.00,-0.25,0.13,0.05,0.01,0.00,0.09,0.07,0.19,0.17,894,878,1017,967
11684,0,0.00,-0.00,-0.01,-0.01,0.02,-0.23,0.13,0.05,0.01,0.00,0.09,0.07,0.19,0.17,894,878,1017,967
11697,0,0.00,-0.00,-0.01,0.00,-0.00,-0.16,0.13,0.05,0.01,0.00,0.09,0.07,0.19,0.17,894,878,1017,968
11705,0,0.01,-0.00,-0.01,0.00,-0.01,-0.09,0.13,0.05,0.01,0.00,0.09,0.07,0.19,0.17,894,878,1017,968
11713,0,0.01,-0.00,-0.01,0.00,-0.01,-0.09,0.13,0.05,0.01,0.00,0.09,0.07,0.19,0.17,894,878,1017,968
11723,0,0.01,-0.00,-0.01,-0.01,-0.02,-0.05,0.13,0.05,0.01,0.00,0.09,0.07,0.19,0.17,894,877,1017,968
11733,0,0.01,-0.00,-0.01,-0.00,-0.00,0.02,0.13,0.05,0.01,0.00,0.09,0.07,0.19,0.17,894,877,1017,968
11743,0,0.00,-0.00,-0.01,-0.00,0.00,0.07,0.13,0.05,0.01,0.00,0.09,0.07,0.19,0.17,894,877,1017,968
11750,0,0.00,-0.00,-0.01,-0.00,0.01,0.10,0.13,0.05,0.01,0.00,0.09,0.07,0.19,0.17,894,877,1018,968
11758,0,0.00,-0.00,-0.01,0.00,0.00,0.16,0.13,0.05,0.01,0.00,0.09,0.07,0.19,0.17,894,877,1017,968
11766,0,0.00,-0.00,-0.01,0.00,0.00,0.19,0.13,0.05,0.01,0.00,0.09,0.07,0.19,0.17,894,877,1017,967
11775,0,0.00,-0.00,-0.01,0.00,0.01,0.20,0.13,0.05,0.01,0.00,0.09,0.07,0.19,0.17,894,877,1017,967
11784,0,0.00,-0.00,-0.01,0.00,0.01,0.20,0.13,0.05,0.01,0.00,0.09,0.07,0.19,0.17,894,877,1017,967
11794,0,0.00,-0.00,-0.01,0.00,0.01,0.23,0.13,0.05,0.01,0.00,0.09,0.07,0.19,0.17,894,877,1017,967
11802,0,-0.00,-0.00,-0.01,0.00,0.01,0.25,0.13,0.05,0.01,0.00,0.09,0.07,0.19,0.17,895,877,1017,967
11810,0,-0.00,-0.00,-0.01,0.00,0.00,0.22,0.13,0.05,0.01,0.00,0.09,0.07,0.19,0.17,895,877,1017,967
11817,0,-0.00,-0.00,-0.01,0.00,0.00,0.22,0.13,0.05,0.01,0.00,0.09,0.07,0.19,0.17,895,877,1017,967
11825,0,-0.00,-0.00,-0.01,0.00,0.00,0.20,0.13,0.05,0.01,0.00,0.09,0.07,0.19,0.17,895,877,1017,967
11834,0,-0.00,-0.00,-0.01,0.00,0.00,0.17,0.13,0.05,0.01,0.00,0.09,0.07,0.19,0.17,895,877,1017,967
11844,0,-0.00,-0.00,-0.01,0.00,0.00,0.17,0.13,0.05,0.01,0.00,0.09,0.07,0.19,0.17,895,878,1017,967
11852,0,-0.00,-0.00,-0.01,0.00,0.00,0.14,0.13,0.05,0.01,0.00,0.09,0.07,0.19,0.17,895,878,1017,966
11860,0,-0.01,-0.00,-0.01,0.01,-0.00,0.12,0.13,0.05,0.01,0.00,0.09,0.07,0.19,0.17,895,878,1017,966
11868,0,-0.01,-0.00,-0.01,0.00,-0.00,0.06,0.13,0.05,0.01,0.00,0.09,0.07,0.19,0.17,895,878,1017,966
11876,0,-0.01,-0.00,-0.01,0.00,-0.00,0.03,0.13,0.05,0.01,0.00,0.09,0.07,0.19,0.17,896,878,1017,966
11885,0,-0.01,-0.00,-0.01,0.00,0.01,0.00,0.13,0.05,0.01,0.00,0.09,0.07,0.19,0.17,896,878,1017,966
11895,0,-0.01,-0.00,-0.01,0.00,0.01,0.00,0.13,0.05,0.01,0.00,0.09,0.07,0.19,0.17,896,878,1017,966
11902,0,-0.01,-0.00,-0.01,0.00,0.01,-0.07,0.13,0.05,0.01,0.00,0.09,0.07,0.19,0.17,896,878,1017,966
11910,0,-0.01,-0.00,-0.02,0.03,-0.00,-0.17,0.13,0.05,0.01,0.00,0.09,0.07,0.19,0.17,896,878,1016,966
11918,0,-0.00,-0.00,-0.02,0.02,0.04,-0.27,0.13,0.05,0.01,0.00,0.09,0.07,0.19,0.17,896,878,1017,966
11926,0,-0.00,-0.00,-0.02,-0.01,0.05,-0.39,0.13,0.05,0.01,0.00,0.09,0.07,0.19,0.17,896,877,1017,966
11935,0,-0.00,-0.00,-0.02,-0.02,0.00,-0.46,0.13,0.05,0.01,0.00,0.09,0.07,0.19,0.17,896,877,1017,966
11945,0,-0.00,-0.00,-0.02,-0.02,0.00,-0.46,0.13,0.05,0.01,0.00,0.09,0.07,0.19,0.17,896,877,1017,966
11952,0,0.00,-0.00,-0.01,-0.03,-0.03,-0.53,0.13,0.05,0.01,0.00,0.09,0.07,0.19,0.17,895,877,1017,967
11962,0,0.01,-0.00,-0.01,-0.03,-0.07,-0.62,0.13,0.05,0.01,0.00,0.09,0.07,0.19,0.17,894,877,1017,967
11972,0,0.02,-0.00,-0.01,-0.04,-0.06,-0.65,0.13,0.05,0.01,0.00,0.09,0.07,0.19,0.17,895,878,1019,969
11982,0,0.02,-0.00,-0.01,-0.04,-0.03,-0.66,0.13,0.05,0.01,0.00,0.09,0.07,0.19,0.17,895,877,1019,969
11992,0,0.03,-0.00,-0.01,-0.03,-0.02,-0.69,0.13,0.05,0.01,0.00,0.09,0.07,0.20,0.17,894,877,1020,969
12000,0,0.03,-0.00,-0.01,-0.00,-0.04,-0.54,0.13,0.05,0.01,0.00,0.09,0.07,0.20,0.17,895,877,1020,970
12007,0,0.04,-0.00,-0.01,-0.00,-0.08,-0.30,0.14,0.05,0.01,0.00,0.09,0.07,0.20,0.18,896,879,1022,972
12015,0,0.04,-0.00,-0.01,-0.01,-0.06,-0.13,0.14,0.05,0.01,0.00,0.10,0.08,0.20,0.18,897,880,1024,974
12025,0,0.04,-0.00,-0.01,-0.01,-0.06,-0.13,0.14,0.05,0.01,0.00,0.10,0.08,0.20,0.18,898,881,1025,975
12034,0,0.04,-0.00,-0.01,-0.03,0.00,0.11,0.14,0.05,0.01,0.00,0.10,0.08,0.21,0.18,901,882,1028,977
12044,0,0.03,-0.00,-0.01,-0.03,0.07,0.29,0.14,0.05,0.01,0.00,0.10,0.08,0.21,0.18,901,882,1029,977
12051,0,0.03,-0.00,-0.01,-0.00,0.09,0.37,0.14,0.05,0.01,0.00,0.10,0.08,0.21,0.18,902,882,1029,976
12059,0,0.03,-0.00,-0.01,0.02,0.09,0.36,0.15,0.05,0.01,0.00,0.11,0.08,0.21,0.19,905,885,1032,980
12067,0,0.03,-0.00,-0.01,0.04,0.04,0.27,0.15,0.05,0.01,0.00,0.11,0.08,0.21,0.19,905,886,1032,980
12076,0,0.03,-0.00,-0.01,0.06,-0.02,0.19,0.15,0.05,0.01,0.00,0.11,0.08,0.21,0.19,906,888,1033,982
12085,0,0.02,-0.00,-0.01,0.06,-0.02,0.19,0.15,0.05,0.01,0.00,0.11,0.09,0.22,0.19,909,891,1036,985
12095,0,0.02,-0.00,-0.01,0.05,-0.03,0.20,0.15,0.05,0.01,0.00,0.11,0.09,0.22,0.20,911,893,1038,987
12103,0,0.02,-0.00,-0.01,0.03,-0.01,0.18,0.16,0.05,0.01,0.00,0.12,0.09,0.22,0.20,913,895,1041,989
12111,0,0.02,-0.00,-0.01,-0.01,0.01,0.17,0.16,0.05,0.01,0.00,0.12,0.09,0.22,0.20,913,894,1041,990
12118,0,0.02,-0.00,-0.01,-0.03,0.05,0.17,0.16,0.05,0.01,0.00,0.12,0.09,0.22,0.20,913,894,1042,989
12126,0,0.01,-0.00,-0.01,-0.04,0.03,0.13,0.16,0.05,0.01,0.00,0.12,0.09,0.22,0.20,913,894,1042,990
12135,0,0.01,-0.00,-0.01,-0.04,0.03,0.13,0.16,0.05,0.01,0.00,0.12,0.09,0.22,0.20,913,894,1042,990
12145,0,0.01,-0.00,-0.01,-0.02,-0.00,0.05,0.16,0.05,0.01,0.00,0.12,0.09,0.22,0.20,913,894,1042,990
12155,0,0.01,-0.00,-0.01,-0.01,-0.02,-0.00,0.16,0.05,0.01,0.00,0.12,0.09,0.22,0.20,913,894,1041,990
12165,0,0.01,-0.00,-0.01,-0.01,-0.02,-0.02,0.16,0.05,0.01,0.00,0.12,0.10,0.23,0.20,917,898,1046,994
12175,0,0.02,-0.00,-0.01,-0.00,-0.01,-0.09,0.16,0.05,0.01,0.00,0.12,0.10,0.23,0.20,917,898,1046,994
12184,0,0.02,-0.00,-0.01,0.00,0.00,-0.10,0.16,0.05,0.01,0.00,0.12,0.10,0.23,0.20,917,898,1046,994
12194,0,0.02,-0.00,-0.01,0.01,0.00,-0.13,0.16,0.05,0.01,0.00,0.12,0.10,0.23,0.21,918,898,1047,995
12202,0,0.02,-0.00,-0.01,0.00,0.02,-0.14,0.16,0.05,0.01,0.00,0.12,0.10,0.23,0.20,918,898,1047,995
12210,0,0.02,-0.00,-0.01,0.00,0.02,-0.17,0.16,0.05,0.01,0.00,0.12,0.10,0.23,0.21,918,898,1047,995
12218,0,0.02,-0.00,-0.01,-0.00,0.00,-0.18,0.16,0.05,0.01,0.00,0.12,0.10,0.23,0.21,917,898,1048,995
12226,0,0.02,-0.00,-0.01,0.00,-0.02,-0.20,0.16,0.05,0.01,0.00,0.12,0.10,0.23,0.21,917,898,1047,995
12239,0,0.03,-0.00,-0.01,0.00,-0.02,-0.20,0.16,0.05,0.01,0.00,0.12,0.10,0.23,0.21,917,898,1048,996
12247,0,0.03,-0.00,-0.01,-0.00,-0.00,-0.21,0.16,0.06,0.01,0.00,0.12,0.10,0.23,0.21,917,897,1048,996
12255,0,0.03,-0.00,-0.01,-0.00,-0.00,-0.21,0.16,0.06,0.01,0.00,0.12,0.10,0.23,0.21,916,897,1048,996
12263,0,0.03,-0.00,-0.01,0.00,-0.03,-0.19,0.16,0.06,0.01,0.00,0.12,0.10,0.23,0.21,916,897,1048,996
12273,0,0.03,-0.00,-0.01,0.00,-0.05,-0.17,0.16,0.06,0.01,0.00,0.12,0.10,0.23,0.21,916,897,1048,997
12283,0,0.03,-0.00,-0.01,0.00,-0.04,-0.07,0.16,0.06,0.01,0.00,0.12,0.10,0.23,0.21,916,897,1049,997
12293,0,0.03,-0.00,-0.01,-0.00,-0.02,-0.01,0.16,0.06,0.01,0.00,0.12,0.09,0.23,0.21,916,896,1049,997
12300,0,0.03,-0.00,-0.01,0.00,0.01,0.04,0.16,0.06,0.01,0.00,0.12,0.09,0.23,0.21,916,896,1049,997
12308,0,0.03,-0.00,-0.01,0.00,0.04,0.09,0.16,0.06,0.01,0.00,0.12,0.09,0.23,0.21,916,896,1050,997
12316,0,0.03,-0.00,-0.01,0.00,0.05,0.12,0.16,0.06,0.01,0.00,0.12,0.09,0.23,0.21,916,895,1050,997
12325,0,0.03,-0.00,-0.01,0.00,0.05,0.12,0.16,0.06,0.01,0.00,0.12,0.09,0.23,0.21,916,895,1050,997
12335,0,0.03,-0.00,-0.01,0.00,0.05,0.12,0.16,0.06,0.01,0.00,0.12,0.09,0.23,0.21,916,895,1050,997
12345,0,0.03,-0.00,-0.01,0.00,0.03,0.10,0.16,0.06,0.01,0.00,0.12,0.09,0.23,0.21,916,895,1050,997
12352,0,0.03,-0.00,-0.01,0.00,0.01,0.08,0.16,0.06,0.01,0.00,0.12,0.09,0.23,0.21,915,895,1050,997
12360,0,0.03,-0.00,-0.01,0.00,-0.00,0.05,0.16,0.06,0.01,0.00,0.12,0.09,0.23,0.21,915,895,1050,997
12367,0,0.03,-0.00,-0.01,0.00,-0.01,0.02,0.16,0.06,0.01,0.00,0.12,0.09,0.23,0.21,915,895,1050,998
12376,0,0.03,-0.00,-0.01,0.00,-0.02,-0.02,0.16,0.06,0.01,0.00,0.12,0.09,0.23,0.21,915,895,1051,998
12385,0,0.03,-0.00,-0.01,0.00,-0.02,-0.02,0.16,0.06,0.01,0.00,0.12,0.09,0.23,0.21,915,895,1051,998
12395,0,0.02,-0.00,-0.01,0.00,-0.00,-0.04,0.16,0.06,0.01,0.00,0.12,0.09,0.23,0.21,915,895,1051,998
12405,0,0.02,-0.00,-0.01,0.00,-0.00,-0.08,0.16,0.06,0.01,0.00,0.12,0.09,0.23,0.21,915,895,1051,998
12412,0,0.02,-0.00,-0.01,0.00,0.00,-0.09,0.16,0.06,0.01,0.00,0.12,0.09,0.23,0.21,915,895,1051,998
12422,0,0.02,-0.00,-0.01,0.00,-0.00,-0.11,0.16,0.06,0.01,0.00,0.12,0.09,0.23,0.21,915,895,1051,998
12429,0,0.02,-0.00,-0.01,0.00,-0.02,-0.10,0.16,0.06,0.01,0.00,0.12,0.09,0.23,0.21,914,895,1051,998
12437,0,0.02,-0.00,-0.01,0.00,-0.04,-0.09,0.16,0.06,0.01,0.00,0.12,0.09,0.23,0.21,914,895,1051,999
12446,0,0.02,-0.00,-0.01,0.00,-0.03,-0.05,0.16,0.06,0.01,0.00,0.12,0.09,0.23,0.21,914,894,1051,999
12456,0,0.02,0.00,-0.01,0.00,-0.03,-0.05,0.16,0.06,0.01,0.00,0.12,0.09,0.23,0.21,914,894,1051,999
12466,0,0.02,0.00,-0.01,-0.00,-0.01,-0.02,0.16,0.06,0.01,0.00,0.12,0.09,0.23,0.21,914,894,1051,999
12476,0,0.02,0.00,-0.01,0.00,0.01,0.01,0.16,0.06,0.01,0.00,0.12,0.09,0.23,0.21,914,894,1051,999
12486,0,0.02,0.00,-0.01,0.00,0.02,0.04,0.16,0.06,0.01,0.00,0.12,0.09,0.23,0.21,914,894,1052,999
12495,0,0.02,0.00,-0.01,-0.00,0.03,0.07,0.16,0.06,0.01,0.00,0.12,0.09,0.23,0.21,914,894,1052,999
12503,0,0.02,0.00,-0.01,0.00,0.02,0.07,0.16,0.06,0.01,0.00,0.12,0.09,0.23,0.21,914,894,1052,999
12517,0,0.01,0.00,-0.01,0.00,0.02,0.07,0.16,0.06,0.01,0.00,0.12,0.09,0.23,0.21,914,894,1052,999
12526,0,0.01,0.00,-0.01,-0.00,0.01,0.06,0.16,0.06,0.01,0.00,0.12,0.09,0.23,0.21,914,894,1052,999
12536,0,0.01,0.00,-0.01,-0.00,0.01,0.06,0.16,0.06,0.01,0.00,0.12,0.09,0.23,0.21,914,894,1052,999
12546,0,0.01,0.00,-0.01,0.00,-0.00,0.03,0.16,0.06,0.01,0.00,0.12,0.09,0.23,0.21,913,894,1052,999
12554,0,0.01,0.00,-0.01,0.00,-0.00,-0.00,0.16,0.06,0.01,0.00,0.12,0.09,0.23,0.21,913,894,1052,999
12562,0,0.01,0.00,-0.01,0.00,-0.00,-0.03,0.16,0.06,0.01,0.00,0.12,0.09,0.23,0.21,913,893,1052,999
12569,0,0.01,0.00,-0.01,0.00,-0.01,-0.04,0.16,0.06,0.01,0.00,0.12,0.09,0.23,0.21,913,894,1052,999
12577,0,0.01,0.00,-0.01,0.00,-0.01,-0.06,0.16,0.06,0.01,0.00,0.11,0.09,0.23,0.21,912,893,1051,999
12586,0,0.01,0.00,-0.01,0.00,-0.01,-0.05,0.16,0.06,0.01,0.00,0.12,0.09,0.23,0.21,913,893,1052,999
