t,is_crashed,roll,pitch,yaw,p,q,r,throttle,p_cmd,q_cmd,r_cmd,roll_cmd,pitch_cmd,yaw_cmd,roll_pid_out,pitch_pid_out,yaw_pid_out,motor_fl,motor_bl,motor_fr,motor_br,pwm_fl,pwm_bl,pwm_fr,pwm_br
7008,0,0.537500,0.287500,0.437500,-0.00,0.00,-0.000207,0.005000,0.000000,0.000000,0.000000,0.000000,0.000000,0.000000,-0.000000,-0.000000,0.000002,0.000000,0.000000,0.000000,0.000000,0,0,0,0
7022,0,0.860000,0.460000,0.787500,0.11,0.06,-0.000395,0.005000,0.000000,0.000000,0.000000,0.000000,0.000000,0.000000,0.000497,-0.000641,0.000004,0.000000,0.000000,0.000000,0.000000,819,819,819,819
7032,0,1.118000,0.598000,1.067500,0.23,0.12,-0.000461,0.007000,0.000000,0.000000,0.000000,0.000000,0.000000,0.000000,0.001045,-0.001312,0.000005,0.000000,0.000000,0.000000,0.000000,819,819,819,819
7042,0,1.324400,0.708400,1.291500,0.31,0.17,-0.000624,0.007000,0.000000,0.000000,0.000000,0.000000,0.000000,0.000000,0.001473,-0.001799,0.000007,0.000000,0.000000,0.000000,0.000000,819,819,819,819
7052,0,1.489520,0.796720,1.470700,0.36,0.19,-0.000565,0.007000,0.000000,0.000000,0.000000,0.000000,0.000000,0.000000,0.001805,-0.002140,0.000006,0.000000,0.000000,0.000000,0.000000,819,819,819,819
7062,0,1.621616,0.867376,1.614060,0.39,0.21,-0.000304,0.007000,0.000000,0.000000,0.000000,0.000000,0.000000,0.000000,0.002061,-0.002368,0.000004,0.000000,0.000000,0.000000,0.000000,819,819,819,819
7072,0,1.727293,0.923901,1.728748,0.41,0.22,0.000036,0.007000,0.000000,0.000000,0.000000,0.000000,0.000000,0.000000,0.002258,-0.002518,0.000000,0.000000,0.000000,0.000000,0.000000,819,819,819,819
7082,0,1.811835,0.969121,1.820499,0.41,0.22,0.000240,0.007000,0.000000,0.000000,0.000000,0.000000,0.000000,0.000000,0.002410,-0.002604,-0.000002,0.000000,0.000000,0.000000,0.000000,819,819,819,819
7092,0,1.879468,1.005297,1.893899,0.40,0.21,0.000320,0.007000,0.000000,0.000000,0.000000,0.000000,0.000000,0.000000,0.002525,-0.002643,-0.000003,0.000000,0.000000,0.000000,0.000000,819,819,819,819
7102,0,1.933574,1.034237,1.952619,0.39,0.21,0.000497,0.007000,0.000000,0.000000,0.000000,0.000000,0.000000,0.000000,0.002611,-0.002647,-0.000004,0.000000,0.000000,0.000000,0.000000,819,819,819,819
7112,0,1.976860,1.057390,1.999595,0.37,0.20,0.000346,0.007000,0.000000,0.000000,0.000000,0.000000,0.000000,0.000000,0.002675,-0.002626,-0.000003,0.000000,0.000000,0.000000,0.000000,819,819,819,819
7122,0,2.011488,1.075912,2.037176,0.35,0.19,0.000106,0.007000,0.000000,0.000000,0.000000,0.000000,0.000000,0.000000,0.002721,-0.002588,-0.000000,0.000000,0.000000,0.000000,0.000000,819,819,819,819
7132,0,2.039190,1.090729,2.067241,0.33,0.18,-0.000318,0.007000,0.000000,0.000000,0.000000,0.000000,0.000000,0.000000,0.002754,-0.002537,0.000004,0.000000,0.000000,0.000000,0.000000,819,819,819,819
7142,0,2.061352,1.102584,2.091293,0.31,0.16,-0.000392,0.007000,0.000000,0.000000,0.000000,0.000000,0.000000,0.000000,0.002776,-0.002479,0.000005,0.000000,0.000000,0.000000,0.000000,819,819,819,819
7152,0,2.079082,1.112067,2.110535,0.29,0.15,-0.000458,0.007000,0.000000,0.000000,0.000000,0.000000,0.000000,0.000000,0.002791,-0.002418,0.000005,0.000000,0.000000,0.000000,0.000000,819,819,819,819
7162,0,2.093266,1.119653,2.125928,0.26,0.14,-0.000311,0.007000,0.000000,0.000000,0.000000,0.000000,0.000000,0.000000,0.002801,-0.002350,0.000004,0.000000,0.000000,0.000000,0.000000,819,819,819,819
7172,0,2.104612,1.125723,2.138242,0.24,0.13,0.000029,0.007000,0.000000,0.000000,0.000000,0.000000,0.000000,0.000000,0.002805,-0.002287,0.000000,0.000000,0.000000,0.000000,0.000000,819,819,819,819
7182,0,2.113690,1.130578,2.148094,0.22,0.12,0.000337,0.007000,0.000000,0.000000,0.000000,0.000000,0.000000,0.000000,0.002806,-0.002223,-0.000003,0.000000,0.000000,0.000000,0.000000,819,819,819,819
7192,0,2.120952,1.134462,2.155975,0.20,0.11,0.000616,0.007000,0.000000,0.000000,0.000000,0.000000,0.000000,0.000000,0.002805,-0.002162,-0.000006,0.000000,0.000000,0.000000,0.000000,819,819,819,819
7202,0,2.126761,1.137570,2.162280,0.19,0.10,0.000765,0.007000,0.000000,0.000000,0.000000,0.000000,0.000000,0.000000,0.002803,-0.002106,-0.000007,0.000000,0.000000,0.000000,0.000000,819,819,819,819
7219,0,2.131409,1.140056,2.167324,0.17,0.09,0.000589,0.007000,0.000000,0.000000,0.000000,0.000000,0.000000,0.000000,0.002795,-0.002046,-0.000006,0.000000,0.000000,0.000000,0.000000,819,819,819,819
7231,0,2.135127,1.142045,2.171360,0.15,0.08,0.000015,0.007000,0.000000,0.000000,0.000000,0.000000,0.000000,0.000000,0.002790,-0.001992,-0.000000,0.000000,0.000000,0.000000,0.000000,819,819,819,819
7242,0,2.138102,1.143636,2.174588,0.14,0.08,-0.000401,0.007000,0.000000,0.000000,0.000000,0.000000,0.000000,0.000000,0.002784,-0.001944,0.000004,0.000000,0.000000,0.000000,0.000000,819,819,819,819
7252,0,2.140481,1.144909,2.177170,0.13,0.07,-0.000674,0.007000,0.000000,0.000000,0.000000,0.000000,0.000000,0.000000,0.002779,-0.001903,0.000007,0.000000,0.000000,0.000000,0.000000,819,819,819,819
7262,0,2.142385,1.145927,2.179236,0.12,0.06,-0.000714,0.007000,0.000000,0.000000,0.000000,0.000000,0.000000,0.000000,0.002773,-0.001865,0.000008,0.000000,0.000000,0.000000,0.000000,819,819,819,819
7272,0,2.143908,1.146742,2.180889,0.10,0.06,-0.000439,0.007000,0.000000,0.000000,0.000000,0.000000,0.000000,0.000000,0.002768,-0.001829,0.000005,0.000000,0.000000,0.000000,0.000000,819,819,819,819
7282,0,2.145127,1.147393,2.182211,0.09,0.05,0.000018,0.007000,0.000000,0.000000,0.000000,0.000000,0.000000,0.000000,0.002764,-0.001795,0.000000,0.000000,0.000000,0.000000,0.000000,819,819,819,819
7292,0,2.146101,1.147915,2.183269,0.09,0.05,0.000430,0.007000,0.000000,0.000000,0.000000,0.000000,0.000000,0.000000,0.002760,-0.001765,-0.000004,0.000000,0.000000,0.000000,0.000000,819,819,819,819
7302,0,2.146881,1.148332,2.184115,0.08,0.04,0.000700,0.007000,0.000000,0.000000,0.000000,0.000000,0.000000,0.000000,0.002754,-0.001734,-0.000007,0.000000,0.000000,0.000000,0.000000,819,819,819,819
7312,0,2.147505,1.148665,2.184793,0.07,0.04,0.000634,0.007000,0.000000,0.000000,0.000000,0.000000,0.000000,0.000000,0.002750,-0.001706,-0.000006,0.000000,0.000000,0.000000,0.000000,819,819,819,819
7322,0,2.148004,1.148932,2.185334,0.06,0.03,-0.000048,0.007000,0.000000,0.000000,0.000000,0.000000,0.000000,0.000000,0.002745,-0.001682,0.000000,0.000000,0.000000,0.000000,0.000000,819,819,819,819
7332,0,2.148403,1.149146,2.185767,0.06,0.03,-0.000976,0.007000,0.000000,0.000000,0.000000,0.000000,0.000000,0.000000,0.002742,-0.001662,0.000010,0.000000,0.000000,0.000000,0.000000,819,819,819,819
7342,0,2.148723,1.149317,2.186114,0.05,0.03,-0.001402,0.007000,0.000000,0.000000,0.000000,0.000000,0.000000,0.000000,0.002739,-0.001643,0.000015,0.000000,0.000000,0.000000,0.000000,819,819,819,819
7352,0,2.148978,1.149453,2.186391,0.05,0.03,-0.001683,0.007000,0.000000,0.000000,0.000000,0.000000,0.000000,0.000000,0.002735,-0.001627,0.000019,0.000000,0.000000,0.000000,0.000000,819,819,819,819
7362,0,2.149183,1.149563,2.186613,0.04,0.02,-0.002041,0.007000,0.000000,0.000000,0.000000,0.000000,0.000000,0.000000,0.002734,-0.001614,0.000023,0.000000,0.000000,0.000000,0.000000,819,819,819,819
7372,0,2.149346,1.149650,2.186790,0.04,0.02,-0.001847,0.007000,0.000000,0.000000,0.000000,0.000000,0.000000,0.000000,0.002731,-0.001600,0.000022,0.000000,0.000000,0.000000,0.000000,819,819,819,819
7382,0,2.149477,1.149720,2.186933,0.03,0.02,-0.001361,0.007000,0.000000,0.000000,0.000000,0.000000,0.000000,0.000000,0.002729,-0.001587,0.000017,0.000000,0.000000,0.000000,0.000000,819,819,819,819
7392,0,2.149582,1.149776,2.187046,0.03,0.02,-0.000403,0.007000,0.000000,0.000000,0.000000,0.000000,0.000000,0.000000,0.002726,-0.001574,0.000008,0.000000,0.000000,0.000000,0.000000,819,819,819,819
7402,0,2.149665,1.149821,2.187137,0.03,0.02,0.000776,0.007000,0.000000,0.000000,0.000000,0.000000,0.000000,0.000000,0.002724,-0.001561,-0.000004,0.000000,0.000000,0.000000,0.000000,819,819,819,819
7412,0,2.149732,1.149857,2.187210,0.02,0.01,0.001116,0.007000,0.000000,0.000000,0.000000,0.000000,0.000000,0.000000,0.002723,-0.001549,-0.000008,0.000000,0.000000,0.000000,0.000000,819,819,819,819
7422,0,2.149786,1.149885,2.187268,0.02,0.01,0.000803,0.007000,0.000000,0.000000,0.000000,0.000000,0.000000,0.000000,0.002722,-0.001540,-0.000005,0.000000,0.000000,0.000000,0.000000,819,819,819,819
7432,0,2.149829,1.149908,2.187314,0.02,0.01,-0.000102,0.007000,0.000000,0.000000,0.000000,0.000000,0.000000,0.000000,0.002720,-0.001532,0.000004,0.000000,0.000000,0.000000,0.000000,819,819,819,819
7442,0,2.149863,1.149927,2.187351,0.02,0.01,-0.001336,0.007000,0.000000,0.000000,0.000000,0.000000,0.000000,0.000000,0.002719,-0.001526,0.000017,0.000000,0.000000,0.000000,0.000000,819,819,819,819
7452,0,2.149891,1.149941,2.187381,0.02,0.01,-0.002038,0.007000,0.000000,0.000000,0.000000,0.000000,0.000000,0.000000,0.002719,-0.001524,0.000025,0.000000,0.000000,0.000000,0.000000,819,819,819,819
7462,0,2.149913,1.149953,2.187405,0.01,0.00,-0.002363,0.007000,0.000000,0.000000,0.000000,0.000000,0.000000,0.000000,0.002717,-0.001518,0.000029,0.000000,0.000000,0.000000,0.000000,819,819,819,819
7472,0,2.149930,1.149962,2.187424,0.01,0.00,-0.002138,0.007000,0.000000,0.000000,0.000000,0.000000,0.000000,0.000000,0.002716,-0.001512,0.000027,0.000000,0.000000,0.000000,0.000000,819,819,819,819
7483,0,2.149944,1.149970,2.187439,0.01,0.00,-0.001521,0.007000,0.000000,0.000000,0.000000,0.000000,0.000000,0.000000,0.002714,-0.001503,0.000022,0.000000,0.000000,0.000000,0.000000,819,819,819,819
7492,0,2.149955,1.149976,2.187452,0.01,0.00,-0.000133,0.007000,0.000000,0.000000,0.000000,0.000000,0.000000,0.000000,0.002713,-0.001495,0.000008,0.000000,0.000000,0.000000,0.000000,819,819,819,819
7503,0,2.149964,1.149981,2.187461,0.00,0.00,0.000813,0.007000,0.000000,0.000000,0.000000,0.000000,0.000000,0.000000,0.002713,-0.001490,-0.000002,0.000000,0.000000,0.000000,0.000000,819,819,819,819
7513,0,2.149971,1.149984,2.187469,0.00,0.00,0.001461,0.007000,0.000000,0.000000,0.000000,0.000000,0.000000,0.000000,0.002712,-0.001484,-0.000009,0.000000,0.000000,0.000000,0.000000,819,819,819,819
7523,0,2.149977,1.149988,2.187475,0.00,0.00,0.000908,0.007000,0.000000,0.000000,0.000000,0.000000,0.000000,0.000000,0.002711,-0.001483,-0.000004,0.000000,0.000000,0.000000,0.000000,819,819,819,819
7537,0,2.149982,1.149990,2.187480,0.00,0.00,-0.000111,0.007000,0.000000,0.000000,0.000000,0.000000,0.000000,0.000000,0.002710,-0.001486,0.000006,0.000000,0.000000,0.000000,0.000000,819,819,819,819
7550,0,2.149985,1.149992,2.187485,0.00,0.00,-0.001033,0.007000,0.000000,0.000000,0.000000,0.000000,0.000000,0.000000,0.002709,-0.001484,0.000016,0.000000,0.000000,0.000000,0.000000,819,819,819,819
7563,0,2.149988,1.149994,2.187488,0.00,0.00,-0.000935,0.007000,0.000000,0.000000,0.000000,0.000000,0.000000,0.000000,0.002709,-0.001483,0.000015,0.000000,0.000000,0.000000,0.000000,819,819,819,819
7573,0,2.149991,1.149995,2.187490,0.00,0.00,-0.000225,0.007000,0.000000,0.000000,0.000000,0.000000,0.000000,0.000000,0.002708,-0.001482,0.000008,0.000000,0.000000,0.000000,0.000000,819,819,819,819
7583,0,2.149992,1.149996,2.187492,0.00,0.00,0.000522,0.007000,0.000000,0.000000,0.000000,0.000000,0.000000,0.000000,0.002708,-0.001482,0.000000,0.000000,0.000000,0.000000,0.000000,819,819,819,819
7593,0,2.149994,1.149997,2.187494,0.00,0.00,0.000887,0.007000,0.000000,0.000000,0.000000,0.000000,0.000000,0.000000,0.002708,-0.001479,-0.000003,0.000000,0.000000,0.000000,0.000000,819,819,819,819
7603,0,2.149995,1.149997,2.187495,0.00,0.00,0.000906,0.007000,0.000000,0.000000,0.000000,0.000000,0.000000,0.000000,0.002707,-0.001475,-0.000004,0.000000,0.000000,0.000000,0.000000,819,819,819,819
7613,0,2.149996,1.149998,2.187496,0.00,0.00,0.000302,0.007000,0.000000,0.000000,0.000000,0.000000,0.000000,0.000000,0.002706,-0.001472,0.000002,0.000000,0.000000,0.000000,0.000000,819,819,819,819
7623,0,2.149997,1.149998,2.187497,0.00,0.00,-0.000452,0.007000,0.000000,0.000000,0.000000,0.000000,0.000000,0.000000,0.002706,-0.001474,0.000010,0.000000,0.000000,0.000000,0.000000,819,819,819,819
7633,0,2.149997,1.149999,2.187498,0.00,0.00,-0.001238,0.007000,0.000000,0.000000,0.000000,0.000000,0.000000,0.000000,0.002706,-0.001470,0.000018,0.000000,0.000000,0.000000,0.000000,819,819,819,819
7643,0,2.149998,1.149999,2.187498,0.00,0.00,-0.001535,0.007000,0.000000,0.000000,0.000000,0.000000,0.000000,0.000000,0.002707,-0.001471,0.000022,0.000000,0.000000,0.000000,0.000000,819,819,819,819
7653,0,2.149998,1.149999,2.187499,0.00,0.00,-0.001700,0.007000,0.000000,0.000000,0.000000,0.000000,0.000000,0.000000,0.002706,-0.001474,0.000024,0.000000,0.000000,0.000000,0.000000,819,819,819,819
7663,0,2.149999,1.149999,2.187499,0.00,0.00,-0.001331,0.007000,0.000000,0.000000,0.000000,0.000000,0.000000,0.000000,0.002706,-0.001473,0.000021,0.000000,0.000000,0.000000,0.000000,819,819,819,819
7673,0,2.149999,1.149999,2.187499,0.00,0.00,-0.001101,0.007000,0.000000,0.000000,0.000000,0.000000,0.000000,0.000000,0.002706,-0.001471,0.000019,0.000000,0.000000,0.000000,0.000000,819,819,819,819
7683,0,2.149999,1.149999,2.187500,0.00,0.00,-0.000997,0.007000,0.000000,0.000000,0.000000,0.000000,0.000000,0.000000,0.002706,-0.001469,0.000018,0.000000,0.000000,0.000000,0.000000,819,819,819,819
7693,0,2.149999,1.150000,2.187500,0.00,0.00,-0.000902,0.007000,0.000000,0.000000,0.000000,0.000000,0.000000,0.000000,0.002706,-0.001468,0.000018,0.000000,0.000000,0.000000,0.000000,819,819,819,819
7703,0,2.150000,1.150000,2.187500,0.00,0.00,-0.000505,0.007000,0.000000,0.000000,0.000000,0.000000,0.000000,0.000000,0.002706,-0.001467,0.000014,0.000000,0.000000,0.000000,0.000000,819,819,819,819
7713,0,2.150000,1.150000,2.187500,0.00,0.00,-0.000354,0.007000,0.000000,0.000000,0.000000,0.000000,0.000000,0.000000,0.002705,-0.001467,0.000012,0.000000,0.000000,0.000000,0.000000,819,819,819,819
7723,0,2.150000,1.150000,2.187500,0.00,0.00,0.000094,0.007000,0.000000,0.000000,0.000000,0.000000,0.000000,0.000000,0.002705,-0.001468,0.000008,0.000000,0.000000,0.000000,0.000000,819,819,819,819
7733,0,2.150000,1.150000,2.187500,0.00,0.00,-0.000018,0.007000,0.000000,0.000000,0.000000,0.000000,0.000000,0.000000,0.002705,-0.001470,0.000009,0.000000,0.000000,0.000000,0.000000,819,819,819,819
7743,0,2.150000,1.150000,2.187500,0.00,0.00,-0.000016,0.007000,0.000000,0.000000,0.000000,0.000000,0.000000,0.000000,0.002704,-0.001469,0.000009,0.000000,0.000000,0.000000,0.000000,819,819,819,819
7753,0,2.150000,1.150000,2.187500,0.00,0.00,-0.000326,0.007000,0.000000,0.000000,0.000000,0.000000,0.000000,0.000000,0.002704,-0.001468,0.000012,0.000000,0.000000,0.000000,0.000000,819,819,819,819
7763,0,2.150000,1.150000,2.187500,0.00,0.00,-0.000606,0.007000,0.000000,0.000000,0.000000,0.000000,0.000000,0.000000,0.002705,-0.001468,0.000015,0.000000,0.000000,0.000000,0.000000,819,819,819,819
7773,0,2.150000,1.150000,2.187500,0.00,0.00,-0.000652,0.007000,0.000000,0.000000,0.000000,0.000000,0.000000,0.000000,0.002705,-0.001467,0.000016,0.000000,0.000000,0.000000,0.000000,819,819,819,819
7783,0,2.150000,1.150000,2.187500,0.00,0.00,-0.000797,0.007000,0.000000,0.000000,0.000000,0.000000,0.000000,0.000000,0.002705,-0.001465,0.000018,0.000000,0.000000,0.000000,0.000000,819,819,819,819
7793,0,2.150000,1.150000,2.187500,0.00,0.00,-0.000929,0.007000,0.000000,0.000000,0.000000,0.000000,0.000000,0.000000,0.002706,-0.001466,0.000020,0.000000,0.000000,0.000000,0.000000,819,819,819,819
7803,0,2.150000,1.150000,2.187500,0.00,0.00,-0.000840,0.007000,0.000000,0.000000,0.000000,0.000000,0.000000,0.000000,0.002705,-0.001469,0.000019,0.000000,0.000000,0.000000,0.000000,819,819,819,819
7813,0,2.150000,1.150000,2.187500,0.00,0.00,-0.000657,0.007000,0.000000,0.000000,0.000000,0.000000,0.000000,0.000000,0.002705,-0.001470,0.000017,0.000000,0.000000,0.000000,0.000000,819,819,819,819
7825,0,2.150000,1.150000,2.187500,0.00,0.00,-0.000491,0.007000,0.000000,0.000000,0.000000,0.000000,0.000000,0.000000,0.002706,-0.001469,0.000016,0.000000,0.000000,0.000000,0.000000,819,819,819,819
7835,0,2.150000,1.150000,2.187500,0.00,0.00,-0.000237,0.007000,0.000000,0.000000,0.000000,0.000000,0.000000,0.000000,0.002705,-0.001470,0.000013,0.000000,0.000000,0.000000,0.000000,819,819,819,819
7845,0,2.150000,1.150000,2.187500,0.00,0.00,-0.000215,0.007000,0.000000,0.000000,0.000000,0.000000,0.000000,0.000000,0.002705,-0.001468,0.000013,0.000000,0.000000,0.000000,0.000000,819,819,819,819
7863,0,2.150000,1.150000,2.187500,0.00,0.00,-0.000712,0.007000,0.000000,0.000000,0.000000,0.000000,0.000000,0.000000,0.002705,-0.001469,0.000019,0.000000,0.000000,0.000000,0.000000,819,819,819,819
7873,0,2.150000,1.150000,2.187500,0.00,0.00,-0.000852,0.007000,0.000000,0.000000,0.000000,0.000000,0.000000,0.000000,0.002705,-0.001471,0.000020,0.000000,0.000000,0.000000,0.000000,819,819,819,819
7883,0,2.150000,1.150000,2.187500,0.00,0.00,-0.001082,0.007000,0.000000,0.000000,0.000000,0.000000,0.000000,0.000000,0.002705,-0.001473,0.000023,0.000000,0.000000,0.000000,0.000000,819,819,819,819
7893,0,2.150000,1.150000,2.187500,-0.00,0.00,-0.001290,0.007000,0.000000,0.000000,0.000000,0.000000,0.000000,0.000000,0.002704,-0.001474,0.000026,0.000000,0.000000,0.000000,0.000000,819,819,819,819
7903,0,2.150000,1.150000,2.187500,0.00,0.00,-0.000960,0.007000,0.000000,0.000000,0.000000,0.000000,0.000000,0.000000,0.002705,-0.001475,0.000023,0.000000,0.000000,0.000000,0.000000,819,819,819,819
7913,0,2.150000,1.150000,2.187500,0.00,0.00,-0.000662,0.007000,0.000000,0.000000,0.000000,0.000000,0.000000,0.000000,0.002705,-0.001476,0.000020,0.000000,0.000000,0.000000,0.000000,819,819,819,819
7923,0,2.150000,1.150000,2.187500,0.00,0.00,-0.000288,0.007000,0.000000,0.000000,0.000000,0.000000,0.000000,0.000000,0.002705,-0.001476,0.000016,0.000000,0.000000,0.000000,0.000000,819,819,819,819
7933,0,2.150000,1.150000,2.187500,-0.00,0.00,-0.000053,0.007000,0.000000,0.000000,0.000000,0.000000,0.000000,0.000000,0.002704,-0.001474,0.000014,0.000000,0.000000,0.000000,0.000000,819,819,819,819
7943,0,2.150000,1.150000,2.187500,-0.00,0.00,0.000366,0.007000,0.000000,0.000000,0.000000,0.000000,0.000000,0.000000,0.002704,-0.001473,0.000010,0.000000,0.000000,0.000000,0.000000,819,819,819,819
7953,0,2.150000,1.150000,2.187500,-0.00,0.00,0.000228,0.007000,0.000000,0.000000,0.000000,0.000000,0.000000,0.000000,0.002703,-0.001472,0.000011,0.000000,0.000000,0.000000,0.000000,819,819,819,819
7963,0,2.150000,1.150000,2.187500,-0.00,0.00,-0.000105,0.007000,0.000000,0.000000,0.000000,0.000000,0.000000,0.000000,0.002704,-0.001473,0.000014,0.000000,0.000000,0.000000,0.000000,819,819,819,819
7973,0,2.150000,1.150000,2.187500,-0.00,0.00,-0.000613,0.007000,0.000000,0.000000,0.000000,0.000000,0.000000,0.000000,0.002703,-0.001472,0.000020,0.000000,0.000000,0.000000,0.000000,819,819,819,819
7984,0,2.150000,1.150000,2.187500,-0.00,0.00,-0.001487,0.007000,0.000000,0.000000,0.000000,0.000000,0.000000,0.000000,0.002702,-0.001469,0.000029,0.000000,0.000000,0.000000,0.000000,819,819,819,819
7993,0,2.150000,1.150000,2.187500,-0.00,0.00,-0.001553,0.007000,0.000000,0.000000,0.000000,0.000000,0.000000,0.000000,0.002702,-0.001471,0.000030,0.000000,0.000000,0.000000,0.000000,819,819,819,819
8003,0,2.150000,1.150000,2.187500,-0.00,0.00,-0.001406,0.007000,0.000000,0.000000,0.000000,0.000000,0.000000,0.000000,0.002703,-0.001475,0.000029,0.000000,0.000000,0.000000,0.000000,819,819,819,819
8013,0,2.150000,1.150000,2.187500,-0.00,0.00,-0.001272,0.007000,0.000000,0.000000,0.000000,0.000000,0.000000,0.000000,0.002703,-0.001476,0.000029,0.000000,0.000000,0.000000,0.000000,819,819,819,819
8023,0,2.150000,1.150000,2.187500,-0.00,0.00,-0.000840,0.007000,0.000000,0.000000,0.000000,0.000000,0.000000,0.000000,0.002702,-0.001472,0.000025,0.000000,0.000000,0.000000,0.000000,819,819,819,819
8034,0,2.150000,1.150000,2.187500,-0.00,0.00,-0.000346,0.007000,0.000000,0.000000,0.000000,0.000000,0.000000,0.000000,0.002702,-0.001470,0.000020,0.000000,0.000000,0.000000,0.000000,819,819,819,819
8044,0,2.150000,1.150000,2.187500,-0.00,0.00,-0.000210,0.007000,0.000000,0.000000,0.000000,0.000000,0.000000,0.000000,0.002701,-0.001468,0.000018,0.000000,0.000000,0.000000,0.000000,819,819,819,819
8053,0,2.150000,1.150000,2.187500,-0.00,0.00,-0.000086,0.007000,0.000000,0.000000,0.000000,0.000000,0.000000,0.000000,0.002701,-0.001468,0.000017,0.000000,0.000000,0.000000,0.000000,819,819,819,819
8063,0,2.150000,1.150000,2.187500,-0.00,0.00,-0.000285,0.007000,0.000000,0.000000,0.000000,0.000000,0.000000,0.000000,0.002701,-0.001470,0.000019,0.000000,0.000000,0.000000,0.000000,819,819,819,819
8074,0,2.150000,1.150000,2.187500,-0.00,0.00,-0.000465,0.007000,0.000000,0.000000,0.000000,0.000000,0.000000,0.000000,0.002702,-0.001476,0.000021,0.000000,0.000000,0.000000,0.000000,819,819,819,819
8084,0,2.150000,1.150000,2.187500,-0.00,0.00,-0.000421,0.007000,0.000000,0.000000,0.000000,0.000000,0.000000,0.000000,0.002702,-0.001473,0.000021,0.000000,0.000000,0.000000,0.000000,819,819,819,819
8093,0,2.150000,1.150000,2.187500,-0.00,0.00,-0.000588,0.007000,0.000000,0.000000,0.000000,0.000000,0.000000,0.000000,0.002702,-0.001471,0.000023,0.000000,0.000000,0.000000,0.000000,819,819,819,819
8103,0,2.150000,1.150000,2.187500,-0.00,0.00,-0.001051,0.007000,0.000000,0.000000,0.000000,0.000000,0.000000,0.000000,0.002702,-0.001472,0.000028,0.000000,0.000000,0.000000,0.000000,819,819,819,819
8114,0,2.150000,1.150000,2.187500,-0.00,0.00,-0.001054,0.007000,0.000000,0.000000,0.000000,0.000000,0.000000,0.000000,0.002701,-0.001471,0.000029,0.000000,0.000000,0.000000,0.000000,819,819,819,819
8124,0,2.150000,1.150000,2.187500,-0.00,0.00,-0.000747,0.007000,0.000000,0.000000,0.000000,0.000000,0.000000,0.000000,0.002701,-0.001472,0.000026,0.000000,0.000000,0.000000,0.000000,819,819,819,819
8134,0,2.150000,1.150000,2.187500,-0.00,0.00,-0.000469,0.007000,0.000000,0.000000,0.000000,0.000000,0.000000,0.000000,0.002700,-0.001473,0.000023,0.000000,0.000000,0.000000,0.000000,819,819,819,819
8144,0,2.150000,1.150000,2.187500,-0.00,0.00,-0.000321,0.007000,0.000000,0.000000,0.000000,0.000000,0.000000,0.000000,0.002700,-0.001471,0.000022,0.000000,0.000000,0.000000,0.000000,819,819,819,819
8154,0,2.150000,1.150000,2.187500,-0.00,0.00,-0.000290,0.007000,0.000000,0.000000,0.000000,0.000000,0.000000,0.000000,0.002699,-0.001471,0.000022,0.000000,0.000000,0.000000,0.000000,819,819,819,819
8170,0,2.150000,1.150000,2.187500,-0.00,0.00,-0.000159,0.007000,0.000000,0.000000,0.000000,0.000000,0.000000,0.000000,0.002699,-0.001473,0.000020,0.000000,0.000000,0.000000,0.000000,819,819,819,819
8183,0,2.150000,1.150000,2.187500,-0.00,0.00,-0.000455,0.007000,0.000000,0.000000,0.000000,0.000000,0.000000,0.000000,0.002699,-0.001473,0.000024,0.000000,0.000000,0.000000,0.000000,819,819,819,819
8194,0,2.150000,1.150000,2.187500,-0.00,0.00,-0.000412,0.007000,0.000000,0.000000,0.000000,0.000000,0.000000,0.000000,0.002699,-0.001470,0.000023,0.000000,0.000000,0.000000,0.000000,819,819,819,819
8204,0,2.150000,1.150000,2.187500,-0.00,0.00,-0.000580,0.008000,0.000000,0.000000,0.000000,0.000000,0.000000,0.000000,0.002699,-0.001470,0.000025,0.000000,0.000000,0.000000,0.000000,819,819,819,819
8214,0,2.150000,1.150000,2.187500,-0.00,0.00,-0.000732,0.008000,0.000000,0.000000,0.000000,0.000000,0.000000,0.000000,0.002699,-0.001474,0.000027,0.000000,0.000000,0.000000,0.000000,819,819,819,819
8224,0,2.150000,1.150000,2.187500,-0.00,0.00,-0.000766,0.008000,0.000000,0.000000,0.000000,0.000000,0.000000,0.000000,0.002698,-0.001476,0.000028,0.000000,0.000000,0.000000,0.000000,819,819,819,819
8234,0,2.150000,1.150000,2.187500,-0.00,0.00,-0.000693,0.009000,0.000000,0.000000,0.000000,0.000000,0.000000,0.000000,0.002698,-0.001479,0.000027,0.000000,0.000000,0.000000,0.000000,819,819,819,819
8244,0,2.150000,1.150000,2.187500,-0.00,0.00,-0.000627,0.009000,0.000000,0.000000,0.000000,0.000000,0.000000,0.000000,0.002698,-0.001479,0.000027,0.000000,0.000000,0.000000,0.000000,819,819,819,819
8254,0,2.150000,1.150000,2.187500,-0.00,0.00,-0.000257,0.009000,0.000000,0.000000,0.000000,0.000000,0.000000,0.000000,0.002696,-0.001480,0.000023,0.000000,0.000000,0.000000,0.000000,819,819,819,819
8264,0,2.150000,1.150000,2.187500,-0.00,0.00,0.000078,0.009000,0.000000,0.000000,0.000000,0.000000,0.000000,0.000000,0.002696,-0.001481,0.000020,0.000000,0.000000,0.000000,0.000000,819,819,819,819
8274,0,2.150000,1.150000,2.187500,-0.00,0.00,0.000071,0.009000,0.000000,0.000000,0.000000,0.000000,0.000000,0.000000,0.002695,-0.001480,0.000020,0.000000,0.000000,0.000000,0.000000,819,819,819,819
8284,0,2.150000,1.150000,2.187500,-0.00,0.00,-0.000143,0.009000,0.000000,0.000000,0.000000,0.000000,0.000000,0.000000,0.002695,-0.001479,0.000022,0.000000,0.000000,0.000000,0.000000,819,819,819,819
8294,0,2.150000,1.150000,2.187500,-0.00,0.00,-0.000337,0.009000,0.000000,0.000000,0.000000,0.000000,0.000000,0.000000,0.002694,-0.001475,0.000024,0.000000,0.000000,0.000000,0.000000,819,819,819,819
8304,0,2.150000,1.150000,2.187500,-0.00,-0.00,-0.000616,0.009000,0.000000,0.000000,0.000000,0.000000,0.000000,0.000000,0.002694,-0.001471,0.000027,0.000000,0.000000,0.000000,0.000000,819,819,819,819
8314,0,2.150000,1.150000,2.187500,-0.00,-0.00,-0.000764,0.009000,0.000000,0.000000,0.000000,0.000000,0.000000,0.000000,0.002693,-0.001470,0.000029,0.000000,0.000000,0.000000,0.000000,819,819,819,819
8324,0,2.150000,1.150000,2.187500,-0.00,-0.00,-0.001003,0.009000,0.000000,0.000000,0.000000,0.000000,0.000000,0.000000,0.002693,-0.001467,0.000032,0.000000,0.000000,0.000000,0.000000,819,819,819,819
8334,0,2.150000,1.150000,2.187500,-0.00,-0.00,-0.001011,0.009000,0.000000,0.000000,0.000000,0.000000,0.000000,0.000000,0.002692,-0.001465,0.000032,0.000000,0.000000,0.000000,0.000000,819,819,819,819
8344,0,2.150000,1.150000,2.187500,-0.00,-0.00,-0.000811,0.009000,0.000000,0.000000,0.000000,0.000000,0.000000,0.000000,0.002692,-0.001469,0.000031,0.000000,0.000000,0.000000,0.000000,819,819,819,819
8354,0,2.150000,1.150000,2.187500,-0.00,-0.00,-0.000527,0.009000,0.000000,0.000000,0.000000,0.000000,0.000000,0.000000,0.002692,-0.001467,0.000028,0.000000,0.000000,0.000000,0.000000,819,819,819,819
8364,0,2.150000,1.150000,2.187500,-0.00,-0.00,-0.000270,0.009000,0.000000,0.000000,0.000000,0.000000,0.000000,0.000000,0.002692,-0.001465,0.000026,0.000000,0.000000,0.000000,0.000000,819,819,819,819
8374,0,2.150000,1.150000,2.187500,-0.00,-0.00,-0.000037,0.010000,0.000000,0.000000,0.000000,0.000000,0.000000,0.000000,0.002692,-0.001463,0.000023,0.000000,0.000000,0.000000,0.000000,819,819,819,819
8384,0,2.150000,1.150000,2.187500,-0.00,-0.00,-0.000033,0.010000,0.000000,0.000000,0.000000,0.000000,0.000000,0.000000,0.002692,-0.001468,0.000023,0.000000,0.000000,0.000000,0.000000,819,819,819,819
8394,0,2.150000,1.150000,2.187500,-0.00,-0.00,-0.000237,0.009000,0.000000,0.000000,0.000000,0.000000,0.000000,0.000000,0.002692,-0.001467,0.000025,0.000000,0.000000,0.000000,0.000000,819,819,819,819
8404,0,2.150000,1.150000,2.187500,-0.00,-0.00,-0.000629,0.009000,0.000000,0.000000,0.000000,0.000000,0.000000,0.000000,0.002692,-0.001469,0.000030,0.000000,0.000000,0.000000,0.000000,819,819,819,819
8414,0,2.150000,1.150000,2.187500,-0.00,-0.00,-0.000880,0.009000,0.000000,0.000000,0.000000,0.000000,0.000000,0.000000,0.002691,-0.001470,0.000032,0.000000,0.000000,0.000000,0.000000,819,819,819,819
8424,0,2.150000,1.150000,2.187500,-0.00,0.00,-0.001004,0.009000,0.000000,0.000000,0.000000,0.000000,0.000000,0.000000,0.002690,-0.001472,0.000034,0.000000,0.000000,0.000000,0.000000,819,819,819,819
8435,0,2.150000,1.150000,2.187500,-0.00,-0.00,-0.001012,0.010000,0.000000,0.000000,0.000000,0.000000,0.000000,0.000000,0.002690,-0.001470,0.000035,0.000000,0.000000,0.000000,0.000000,819,819,819,819
8444,0,2.150000,1.150000,2.187500,-0.00,-0.00,-0.001020,0.010000,0.000000,0.000000,0.000000,0.000000,0.000000,0.000000,0.002689,-0.001468,0.000035,0.000000,0.000000,0.000000,0.000000,819,819,819,819
8454,0,2.150000,1.150000,2.187500,-0.00,-0.00,-0.000819,0.010000,0.000000,0.000000,0.000000,0.000000,0.000000,0.000000,0.002689,-0.001468,0.000033,0.000000,0.000000,0.000000,0.000000,819,819,819,819
8464,0,2.150000,1.150000,2.187500,-0.00,-0.00,-0.000327,0.011000,0.000000,0.000000,0.000000,0.000000,0.000000,0.000000,0.002689,-0.001464,0.000029,0.000000,0.000000,0.000000,0.000000,819,819,819,819
8474,0,2.150000,1.150000,2.187500,-0.00,-0.00,-0.000192,0.019000,0.000000,0.000000,0.000000,0.000000,0.000000,0.000000,0.002690,-0.001464,0.000027,0.000000,0.000000,0.000000,0.000000,819,819,819,819
8489,0,2.150000,1.150000,2.187500,-0.00,-0.00,-0.000070,0.019000,0.000000,0.000000,0.000000,0.000000,0.000000,0.000000,0.002690,-0.001463,0.000026,0.000000,0.000000,0.000000,0.000000,819,819,819,819
8502,0,2.150000,1.150000,2.187500,-0.00,-0.00,0.000040,0.030000,0.000000,0.000000,0.000000,0.000000,0.000000,0.000000,0.002690,-0.001466,0.000025,0.025870,0.028751,0.031199,0.034180,1000,1000,1000,1000
8513,0,2.150000,1.150000,2.187500,-0.00,-0.00,-0.000378,0.039000,0.000000,0.000000,0.000000,0.000000,0.000000,0.000000,0.002690,-0.001468,0.000029,0.034872,0.037748,0.040193,0.043187,1000,1000,1000,1000
8524,0,2.150000,1.150000,2.187500,0.00,0.00,-0.000653,0.039000,0.000000,0.000000,0.000000,0.000000,0.000000,0.000000,0.002691,-0.001470,0.000032,0.034871,0.037746,0.040189,0.043194,1000,1000,1000,1000
8534,0,2.150000,1.150000,2.187500,-0.00,-0.00,-0.000902,0.049000,0.000000,0.000000,0.000000,0.000000,0.000000,0.000000,0.002690,-0.001467,0.000035,0.044878,0.047741,0.050188,0.053193,1000,1000,1000,1000
8545,0,2.150000,1.150000,2.187500,0.00,-0.00,-0.000609,0.049000,0.000000,0.000000,0.000000,0.000000,0.000000,0.000000,0.002691,-0.001463,0.000033,0.044879,0.047739,0.050196,0.053187,1000,1000,1000,1000
8555,0,2.150000,1.150000,2.187500,0.00,-0.00,-0.000655,0.049000,0.000000,0.000000,0.000000,0.000000,0.000000,0.000000,0.002693,-0.001467,0.000033,0.044873,0.047741,0.050192,0.053194,1000,1000,1000,1000
8565,0,2.137500,1.150000,2.187500,-0.00,0.00,0.001376,0.057000,0.000000,0.000000,0.000000,0.000000,0.000000,0.000000,0.002665,-0.001472,0.000012,0.052875,0.055794,0.058181,0.061149,1000,1000,1000,1000
8575,0,2.127500,1.150000,2.187500,-0.01,0.00,0.003733,0.057000,0.000000,0.000000,0.000000,0.000000,0.000000,0.000000,0.002636,-0.001491,-0.000013,0.052860,0.055868,0.058158,0.061114,1000,1000,1000,1000
8585,0,2.119500,1.150000,2.187500,-0.02,0.00,0.000373,0.057000,0.000000,0.000000,0.000000,0.000000,0.000000,0.000000,0.002611,-0.001489,0.000021,0.052921,0.055857,0.058102,0.061121,1000,1000,1000,1000
8595,0,2.125600,1.150000,2.187500,-0.01,0.00,-0.003393,0.068000,0.000000,0.000000,0.000000,0.000000,0.000000,0.000000,0.002622,-0.001476,0.000060,0.063963,0.066794,0.069086,0.072157,1000,1000,1000,1000
8605,0,2.130480,1.150000,2.187500,-0.00,-0.00,-0.006283,0.068000,0.000000,0.000000,0.000000,0.000000,0.000000,0.000000,0.002631,-0.001469,0.000092,0.063992,0.066746,0.069071,0.072192,1000,1000,1000,1000
8615,0,2.134384,1.150000,2.187500,-0.00,-0.00,-0.010039,0.068000,0.000000,0.000000,0.000000,0.000000,0.000000,0.000000,0.002637,-0.001467,0.000134,0.064030,0.066696,0.069037,0.072237,1000,1000,1000,1000
8625,0,2.150007,1.150000,2.187500,0.00,-0.00,-0.014163,0.068000,0.000000,0.000000,0.000000,0.000000,0.000000,0.000000,0.002669,-0.001468,0.000181,0.064044,0.066618,0.069020,0.072318,1000,1000,1000,1000
8635,0,2.162506,1.150000,2.187500,0.00,0.00,-0.018103,0.070000,0.000000,0.000000,0.000000,0.000000,0.000000,0.000000,0.002693,-0.001473,0.000228,0.066063,0.068551,0.070992,0.074394,1000,1000,1000,1000
8647,0,2.185005,1.150000,2.187500,0.01,0.00,-0.021875,0.070000,0.000000,0.000000,0.000000,0.000000,0.000000,0.000000,0.002727,-0.001482,0.000276,0.066066,0.068480,0.070969,0.074485,1000,1000,1000,1000
8667,0,2.215504,1.150000,2.200000,0.02,0.00,-0.025497,0.071000,0.000000,0.000000,0.000000,0.000000,0.000000,0.000000,0.002748,-0.001480,0.000323,0.067095,0.069410,0.071944,0.075551,1000,1000,1000,1000
8678,0,2.239903,1.150000,2.210000,0.02,0.00,-0.029499,0.071000,0.000000,0.000000,0.000000,0.000000,0.000000,0.000000,0.002784,-0.001481,0.000376,0.067111,0.069321,0.071927,0.075641,1000,1000,1000,1000
8688,0,2.271923,1.150000,2.230500,0.03,-0.00,-0.029702,0.071000,0.000000,0.000000,0.000000,0.000000,0.000000,0.000000,0.002826,-0.001465,0.000391,0.067099,0.069248,0.071970,0.075683,1000,1000,1000,1000
8698,0,2.285038,1.150000,2.259400,0.02,-0.00,-0.024704,0.071000,0.000000,0.000000,0.000000,0.000000,0.000000,0.000000,0.002792,-0.001447,0.000351,0.067112,0.069304,0.071993,0.075591,1000,1000,1000,1000
8708,0,2.308031,1.150000,2.307520,0.00,-0.00,-0.021425,0.071000,0.000000,0.000000,0.000000,0.000000,0.000000,0.000000,0.002740,-0.001438,0.000328,0.067150,0.069370,0.071974,0.075506,1000,1000,1000,1000
8723,0,2.338924,1.150000,2.383516,-0.01,-0.00,-0.030167,0.070000,0.000000,0.000000,0.000000,0.000000,0.000000,0.000000,0.002655,-0.001448,0.000429,0.066325,0.068364,0.070778,0.074532,1000,1000,1000,1000
8734,0,2.388639,1.150000,2.469313,-0.00,-0.00,-0.054244,0.070000,0.000000,0.000000,0.000000,0.000000,0.000000,0.000000,0.002686,-0.001458,0.000694,0.066549,0.068078,0.070534,0.074838,1000,1000,1000,1000
8744,0,2.453412,1.137500,2.562950,0.02,-0.00,-0.072719,0.070000,0.000000,0.000000,0.000000,0.000000,0.000000,0.000000,0.002793,-0.001418,0.000911,0.066699,0.067715,0.070464,0.075122,1000,1000,1000,1000
8755,0,2.530229,1.127500,2.650360,0.05,-0.00,-0.077935,0.070000,0.000000,0.000000,0.000000,0.000000,0.000000,0.000000,0.002936,-0.001430,0.000997,0.066631,0.067497,0.070509,0.075363,1000,1000,1000,1000
8765,0,2.616683,1.107000,2.720288,0.09,-0.00,-0.073122,0.070000,0.000000,0.000000,0.000000,0.000000,0.000000,0.000000,0.003129,-0.001386,0.000981,0.066466,0.067276,0.070762,0.075496,1000,1000,1000,1000
8775,0,2.685847,1.090600,2.776230,0.12,-0.01,-0.067522,0.070000,0.000000,0.000000,0.000000,0.000000,0.000000,0.000000,0.003287,-0.001333,0.000954,0.066334,0.067091,0.071000,0.075574,1000,1000,1000,1000
8785,0,2.741178,1.077480,2.820984,0.13,-0.02,-0.057584,0.070000,0.000000,0.000000,0.000000,0.000000,0.000000,0.000000,0.003408,-0.001258,0.000880,0.066214,0.066970,0.071269,0.075546,1000,1000,1000,1000
8795,0,2.772942,1.079484,2.856787,0.13,-0.02,-0.044860,0.070000,0.000000,0.000000,0.000000,0.000000,0.000000,0.000000,0.003471,-0.001223,0.000772,0.066079,0.066980,0.071475,0.075466,1000,1000,1000,1000
8805,0,2.785854,1.081087,2.885430,0.12,-0.03,-0.032930,0.070000,0.000000,0.000000,0.000000,0.000000,0.000000,0.000000,0.003488,-0.001173,0.000667,0.066006,0.067017,0.071648,0.075328,1000,1000,1000,1000
8822,0,2.783683,1.082370,2.908344,0.11,-0.03,-0.013221,0.070000,0.000000,0.000000,0.000000,0.000000,0.000000,0.000000,0.003477,-0.001158,0.000475,0.065840,0.067206,0.071843,0.075111,1000,1000,1000,1000
8837,0,2.744447,1.095896,2.939175,0.08,-0.02,0.000574,0.070000,0.000000,0.000000,0.000000,0.000000,0.000000,0.000000,0.003412,-0.001228,0.000337,0.065697,0.067479,0.071847,0.074977,1000,1000,1000,1000
8848,0,2.700557,1.106717,2.963840,0.05,-0.01,0.010986,0.070000,0.000000,0.000000,0.000000,0.000000,0.000000,0.000000,0.003323,-0.001299,0.000228,0.065607,0.067748,0.071796,0.074849,1000,1000,1000,1000
8859,0,2.652946,1.115373,2.983572,0.03,-0.00,0.014191,0.070000,0.000000,0.000000,0.000000,0.000000,0.000000,0.000000,0.003226,-0.001349,0.000189,0.065614,0.067934,0.071687,0.074765,1000,1000,1000,1000
8871,0,2.614857,1.109799,2.999358,0.00,-0.00,0.017714,0.070000,0.000000,0.000000,0.000000,0.000000,0.000000,0.000000,0.003146,-0.001347,0.000146,0.065653,0.068054,0.071654,0.074639,1000,1000,1000,1000
8883,0,2.584386,1.105339,3.011986,-0.01,-0.00,0.016549,0.070000,0.000000,0.000000,0.000000,0.000000,0.000000,0.000000,0.003078,-0.001324,0.000151,0.065749,0.068095,0.071604,0.074552,1000,1000,1000,1000
8899,0,2.560009,1.114271,3.022089,-0.02,-0.00,0.010210,0.070000,0.000000,0.000000,0.000000,0.000000,0.000000,0.000000,0.003040,-0.001331,0.000210,0.065839,0.068081,0.071500,0.074580,1000,1000,1000,1000
8911,0,2.553007,1.121417,3.030171,-0.02,-0.00,-0.000916,0.070000,0.000000,0.000000,0.000000,0.000000,0.000000,0.000000,0.003031,-0.001353,0.000321,0.065938,0.068000,0.071357,0.074705,1000,1000,1000,1000
8923,0,2.559906,1.127133,3.036637,-0.01,-0.00,-0.011191,0.070000,0.000000,0.000000,0.000000,0.000000,0.000000,0.000000,0.003048,-0.001370,0.000429,0.066012,0.067893,0.071248,0.074847,1000,1000,1000,1000
8934,0,2.577924,1.131707,3.054310,-0.00,0.00,-0.014999,0.070000,0.000000,0.000000,0.000000,0.000000,0.000000,0.000000,0.003076,-0.001402,0.000474,0.065997,0.067851,0.071200,0.074952,1000,1000,1000,1000
8945,0,2.592340,1.135365,3.068448,0.00,0.00,-0.020517,0.070000,0.000000,0.000000,0.000000,0.000000,0.000000,0.000000,0.003099,-0.001413,0.000539,0.066026,0.067775,0.071148,0.075051,1000,1000,1000,1000
8955,0,2.616372,1.138292,3.079758,0.01,0.00,-0.023128,0.070000,0.000000,0.000000,0.000000,0.000000,0.000000,0.000000,0.003157,-0.001429,0.000575,0.065989,0.067697,0.071152,0.075161,1000,1000,1000,1000
8965,0,2.648098,1.128134,3.088807,0.03,0.00,-0.026941,0.070000,0.000000,0.000000,0.000000,0.000000,0.000000,0.000000,0.003228,-0.001409,0.000626,0.065989,0.067555,0.071194,0.075262,1000,1000,1000,1000
8975,0,2.673478,1.120007,3.096045,0.04,-0.00,-0.029459,0.070000,0.000000,0.000000,0.000000,0.000000,0.000000,0.000000,0.003287,-0.001384,0.000664,0.065993,0.067433,0.071239,0.075335,1000,1000,1000,1000
8986,0,2.693783,1.113506,3.101836,0.04,-0.00,-0.026972,0.070000,0.000000,0.000000,0.000000,0.000000,0.000000,0.000000,0.003322,-0.001366,0.000651,0.065963,0.067393,0.071305,0.075340,1000,1000,1000,1000
8996,0,2.710026,1.108305,3.106469,0.05,-0.00,-0.022233,0.070000,0.000000,0.000000,0.000000,0.000000,0.000000,0.000000,0.003357,-0.001325,0.000614,0.065931,0.067355,0.071418,0.075296,1000,1000,1000,1000
9006,0,2.723021,1.104144,3.110175,0.05,-0.00,-0.015354,0.070000,0.000000,0.000000,0.000000,0.000000,0.000000,0.000000,0.003382,-0.001298,0.000552,0.065872,0.067364,0.071533,0.075231,1000,1000,1000,1000
9015,0,2.733417,1.113315,3.113140,0.05,-0.00,-0.010787,0.070000,0.000000,0.000000,0.000000,0.000000,0.000000,0.000000,0.003410,-0.001329,0.000511,0.065771,0.067408,0.071571,0.075250,1000,1000,1000,1000
9025,0,2.729234,1.120652,3.115512,0.04,-0.00,-0.004788,0.070000,0.000000,0.000000,0.000000,0.000000,0.000000,0.000000,0.003403,-0.001376,0.000453,0.065673,0.067520,0.071574,0.075232,1000,1000,1000,1000
9036,0,2.725887,1.126522,3.117410,0.04,0.00,-0.002882,0.070000,0.000000,0.000000,0.000000,0.000000,0.000000,0.000000,0.003403,-0.001407,0.000435,0.065626,0.067569,0.071561,0.075244,1000,1000,1000,1000
9046,0,2.723210,1.118717,3.118928,0.03,-0.00,0.001330,0.070000,0.000000,0.000000,0.000000,0.000000,0.000000,0.000000,0.003397,-0.001382,0.000392,0.065613,0.067592,0.071623,0.075171,1000,1000,1000,1000
9056,0,2.708568,1.112474,3.120142,0.02,-0.00,0.002861,0.070000,0.000000,0.000000,0.000000,0.000000,0.000000,0.000000,0.003362,-0.001337,0.000376,0.065677,0.067600,0.071649,0.075074,1000,1000,1000,1000
9066,0,2.696854,1.107479,3.121114,0.01,-0.00,0.008807,0.070000,0.000000,0.000000,0.000000,0.000000,0.000000,0.000000,0.003332,-0.001314,0.000312,0.065666,0.067670,0.071707,0.074958,1000,1000,1000,1000
9076,0,2.687483,1.115983,3.121891,0.00,-0.00,0.009007,0.070000,0.000000,0.000000,0.000000,0.000000,0.000000,0.000000,0.003309,-0.001350,0.000306,0.065647,0.067735,0.071653,0.074965,1000,1000,1000,1000
9086,0,2.679987,1.110287,3.122513,0.00,-0.00,0.004731,0.070000,0.000000,0.000000,0.000000,0.000000,0.000000,0.000000,0.003294,-0.001333,0.000347,0.065720,0.067692,0.071615,0.074973,1000,1000,1000,1000
9096,0,2.686489,1.105729,3.123010,0.00,-0.00,-0.008257,0.070000,0.000000,0.000000,0.000000,0.000000,0.000000,0.000000,0.003310,-0.001328,0.000481,0.065843,0.067537,0.071502,0.075118,1000,1000,1000,1000
9106,0,2.704192,1.102083,3.123408,0.01,-0.00,-0.011203,0.070000,0.000000,0.000000,0.000000,0.000000,0.000000,0.000000,0.003351,-0.001329,0.000515,0.065836,0.067462,0.071507,0.075195,1000,1000,1000,1000
9116,0,2.718354,1.099167,3.123727,0.02,-0.00,-0.011486,0.070000,0.000000,0.000000,0.000000,0.000000,0.000000,0.000000,0.003377,-0.001316,0.000523,0.065831,0.067416,0.071538,0.075216,1000,1000,1000,1000
9126,0,2.717183,1.096833,3.123981,0.02,-0.00,-0.005524,0.070000,0.000000,0.000000,0.000000,0.000000,0.000000,0.000000,0.003370,-0.001287,0.000466,0.065809,0.067451,0.071617,0.075123,1000,1000,1000,1000
9136,0,2.728746,1.094967,3.124185,0.02,-0.00,-0.011217,0.070000,0.000000,0.000000,0.000000,0.000000,0.000000,0.000000,0.003397,-0.001277,0.000528,0.065854,0.067351,0.071593,0.075202,1000,1000,1000,1000
9146,0,2.737997,1.093473,3.124348,0.02,-0.01,-0.015748,0.070000,0.000000,0.000000,0.000000,0.000000,0.000000,0.000000,0.003425,-0.001262,0.000581,0.065894,0.067257,0.071582,0.075267,1000,1000,1000,1000
9162,0,2.757898,1.092279,3.124479,0.03,-0.00,-0.020573,0.070000,0.000000,0.000000,0.000000,0.000000,0.000000,0.000000,0.003456,-0.001272,0.000639,0.065910,0.067178,0.071545,0.075367,1000,1000,1000,1000
9175,0,2.773819,1.091323,3.124583,0.03,-0.00,-0.015510,0.070000,0.000000,0.000000,0.000000,0.000000,0.000000,0.000000,0.003480,-0.001280,0.000595,0.065836,0.067205,0.071605,0.075354,1000,1000,1000,1000
9186,0,2.774055,1.090558,3.124666,0.03,-0.00,-0.012896,0.070000,0.000000,0.000000,0.000000,0.000000,0.000000,0.000000,0.003476,-0.001268,0.000575,0.065830,0.067217,0.071634,0.075319,1000,1000,1000,1000
9196,0,2.774244,1.102447,3.124733,0.02,-0.00,-0.013433,0.070000,0.000000,0.000000,0.000000,0.000000,0.000000,0.000000,0.003480,-0.001331,0.000586,0.065776,0.067265,0.071563,0.075397,1000,1000,1000,1000
9206,0,2.774395,1.111957,3.124787,0.02,0.00,-0.010084,0.070000,0.000000,0.000000,0.000000,0.000000,0.000000,0.000000,0.003482,-0.001383,0.000557,0.065692,0.067343,0.071542,0.075422,1000,1000,1000,1000
9216,0,2.774517,1.119566,3.124829,0.02,0.00,-0.003530,0.070000,0.000000,0.000000,0.000000,0.000000,0.000000,0.000000,0.003485,-0.001414,0.000493,0.065595,0.067436,0.071578,0.075392,1000,1000,1000,1000
9226,0,2.762113,1.125653,3.124863,0.01,0.00,0.002194,0.070000,0.000000,0.000000,0.000000,0.000000,0.000000,0.000000,0.003457,-0.001445,0.000435,0.065532,0.067553,0.071577,0.075337,1000,1000,1000,1000
9236,0,2.752191,1.130522,3.124891,0.00,0.01,0.004991,0.070000,0.000000,0.000000,0.000000,0.000000,0.000000,0.000000,0.003434,-0.001467,0.000405,0.065504,0.067628,0.071563,0.075305,1000,1000,1000,1000
9246,0,2.744253,1.134418,3.124913,0.00,0.01,0.004413,0.070000,0.000000,0.000000,0.000000,0.000000,0.000000,0.000000,0.003414,-0.001475,0.000408,0.065519,0.067654,0.071530,0.075297,1000,1000,1000,1000
9256,0,2.737902,1.137534,3.124930,-0.00,0.01,0.003890,0.070000,0.000000,0.000000,0.000000,0.000000,0.000000,0.000000,0.003396,-0.001480,0.000412,0.065536,0.067672,0.071505,0.075288,1000,1000,1000,1000
9266,0,2.732822,1.140027,3.124944,-0.00,0.01,0.003106,0.070000,0.000000,0.000000,0.000000,0.000000,0.000000,0.000000,0.003385,-0.001489,0.000418,0.065544,0.067685,0.071479,0.075292,1000,1000,1000,1000
9276,0,2.728757,1.142022,3.124955,-0.00,0.01,-0.003096,0.070000,0.000000,0.000000,0.000000,0.000000,0.000000,0.000000,0.003378,-0.001484,0.000482,0.065620,0.067624,0.071413,0.075344,1000,1000,1000,1000
9286,0,2.738006,1.143617,3.124964,-0.00,0.00,-0.006843,0.070000,0.000000,0.000000,0.000000,0.000000,0.000000,0.000000,0.003402,-0.001477,0.000522,0.065643,0.067553,0.071402,0.075402,1000,1000,1000,1000
9296,0,2.745405,1.144894,3.124972,0.00,0.00,-0.007022,0.070000,0.000000,0.000000,0.000000,0.000000,0.000000,0.000000,0.003414,-0.001461,0.000528,0.065653,0.067520,0.071425,0.075402,1000,1000,1000,1000
9306,0,2.751324,1.145915,3.124977,0.00,0.00,-0.011744,0.070000,0.000000,0.000000,0.000000,0.000000,0.000000,0.000000,0.003424,-0.001457,0.000580,0.065699,0.067452,0.071387,0.075462,1000,1000,1000,1000
9316,0,2.768559,1.146732,3.124982,0.01,0.00,-0.016639,0.070000,0.000000,0.000000,0.000000,0.000000,0.000000,0.000000,0.003471,-0.001473,0.000637,0.065694,0.067365,0.071361,0.075580,1000,1000,1000,1000
9326,0,2.782348,1.134886,3.112485,0.02,0.00,-0.022934,0.070000,0.000000,0.000000,0.000000,0.000000,0.000000,0.000000,0.003508,-0.001454,0.000711,0.065750,0.067235,0.071343,0.075672,1000,1000,1000,1000
9336,0,2.805878,1.125409,3.102488,0.03,0.00,-0.023035,0.070000,0.000000,0.000000,0.000000,0.000000,0.000000,0.000000,0.003564,-0.001406,0.000723,0.065752,0.067119,0.071435,0.075693,1000,1000,1000,1000
9346,0,2.824703,1.117827,3.094491,0.04,-0.00,-0.019707,0.070000,0.000000,0.000000,0.000000,0.000000,0.000000,0.000000,0.003602,-0.001365,0.000698,0.065732,0.067064,0.071539,0.075665,1000,1000,1000,1000
9356,0,2.827262,1.124261,3.100592,0.03,-0.00,-0.014726,0.070000,0.000000,0.000000,0.000000,0.000000,0.000000,0.000000,0.003602,-0.001376,0.000655,0.065677,0.067119,0.071570,0.075634,1000,1000,1000,1000
9366,0,2.829310,1.129409,3.105474,0.03,-0.00,-0.007213,0.071000,0.000000,0.000000,0.000000,0.000000,0.000000,0.000000,0.003602,-0.001385,0.000584,0.066597,0.068200,0.072633,0.076570,1000,1000,1000,1000
9376,0,2.818448,1.133527,3.109379,0.02,-0.00,-0.001553,0.071000,0.000000,0.000000,0.000000,0.000000,0.000000,0.000000,0.003583,-0.001392,0.000528,0.066553,0.068281,0.072664,0.076503,1000,1000,1000,1000
9386,0,2.809759,1.136822,3.112504,0.02,0.00,0.003672,0.071000,0.000000,0.000000,0.000000,0.000000,0.000000,0.000000,0.003572,-0.001406,0.000473,0.066496,0.068361,0.072692,0.076451,1000,1000,1000,1000
9396,0,2.802807,1.139457,3.115003,0.01,0.00,0.006432,0.071000,0.000000,0.000000,0.000000,0.000000,0.000000,0.000000,0.003554,-0.001413,0.000443,0.066476,0.068416,0.072698,0.076409,1000,1000,1000,1000
9406,0,2.772246,1.141566,3.117002,-0.00,0.00,0.016599,0.071000,0.000000,0.000000,0.000000,0.000000,0.000000,0.000000,0.003477,-0.001416,0.000333,0.066440,0.068606,0.072728,0.076226,1000,1000,1000,1000
9416,0,2.747797,1.143253,3.118602,-0.02,0.00,0.023519,0.071000,0.000000,0.000000,0.000000,0.000000,0.000000,0.000000,0.003418,-0.001426,0.000253,0.066408,0.068755,0.072739,0.076097,1000,1000,1000,1000
9426,0,2.715737,1.144602,3.119881,-0.03,0.00,0.029161,0.071000,0.000000,0.000000,0.000000,0.000000,0.000000,0.000000,0.003350,-0.001428,0.000182,0.066404,0.068896,0.072739,0.075960,1000,1000,1000,1000
9436,0,2.690090,1.145682,3.120905,-0.04,0.00,0.027427,0.071000,0.000000,0.000000,0.000000,0.000000,0.000000,0.000000,0.003298,-0.001425,0.000187,0.066464,0.068940,0.072686,0.075909,1000,1000,1000,1000
9446,0,2.669572,1.146545,3.121724,-0.05,0.00,0.023267,0.071000,0.000000,0.000000,0.000000,0.000000,0.000000,0.000000,0.003253,-0.001427,0.000218,0.066538,0.068956,0.072609,0.075898,1000,1000,1000,1000
9456,0,2.665657,1.147236,3.122379,-0.04,0.00,0.013595,0.071000,0.000000,0.000000,0.000000,0.000000,0.000000,0.000000,0.003240,-0.001455,0.000308,0.066613,0.068907,0.072476,0.076003,1000,1000,1000,1000
9466,0,2.675026,1.135289,3.122904,-0.04,0.00,0.002873,0.071000,0.000000,0.000000,0.000000,0.000000,0.000000,0.000000,0.003249,-0.001416,0.000414,0.066750,0.068753,0.072419,0.076078,1000,1000,1000,1000
9483,0,2.695021,1.125731,3.123323,-0.03,-0.00,-0.008799,0.071000,0.000000,0.000000,0.000000,0.000000,0.000000,0.000000,0.003269,-0.001404,0.000535,0.066863,0.068600,0.072329,0.076208,1000,1000,1000,1000
9494,0,2.723517,1.118085,3.123658,-0.01,-0.00,-0.021746,0.071000,0.000000,0.000000,0.000000,0.000000,0.000000,0.000000,0.003325,-0.001375,0.000675,0.066975,0.068374,0.072275,0.076376,1000,1000,1000,1000
9505,0,2.758814,1.111968,3.123927,0.00,-0.00,-0.035224,0.071000,0.000000,0.000000,0.000000,0.000000,0.000000,0.000000,0.003408,-0.001359,0.000827,0.067060,0.068125,0.072221,0.076594,1000,1000,1000,1000
9517,0,2.812051,1.119574,3.124141,0.03,-0.00,-0.038199,0.071000,0.000000,0.000000,0.000000,0.000000,0.000000,0.000000,0.003506,-0.001371,0.000875,0.066998,0.067990,0.072259,0.076752,1000,1000,1000,1000
9527,0,2.854641,1.125660,3.124313,0.04,-0.00,-0.034363,0.072000,0.000000,0.000000,0.000000,0.000000,0.000000,0.000000,0.003596,-0.001394,0.000853,0.067863,0.068945,0.073349,0.077843,1000,1000,1000,1000
9537,0,2.888713,1.130528,3.124450,0.06,-0.00,-0.030788,0.071000,0.000000,0.000000,0.000000,0.000000,0.000000,0.000000,0.003674,-0.001390,0.000832,0.066767,0.067884,0.072452,0.076896,1000,1000,1000,1000
9547,0,2.903470,1.134422,3.124560,0.06,-0.00,-0.019987,0.071000,0.000000,0.000000,0.000000,0.000000,0.000000,0.000000,0.003711,-0.001383,0.000733,0.066640,0.067939,0.072594,0.076827,1000,1000,1000,1000
9557,0,2.902776,1.137538,3.124648,0.05,-0.00,-0.009487,0.072000,0.000000,0.000000,0.000000,0.000000,0.000000,0.000000,0.003713,-0.001394,0.000633,0.067525,0.069048,0.073687,0.077740,1000,1000,1000,1000
9567,0,2.889721,1.140030,3.124719,0.04,0.00,0.006337,0.072000,0.000000,0.000000,0.000000,0.000000,0.000000,0.000000,0.003683,-0.001419,0.000471,0.067369,0.069265,0.073793,0.077573,1000,1000,1000,1000
9577,0,2.866777,1.142024,3.124775,0.03,0.00,0.015165,0.072000,0.000000,0.000000,0.000000,0.000000,0.000000,0.000000,0.003634,-0.001463,0.000375,0.067278,0.069454,0.073795,0.077472,1000,1000,1000,1000
9590,0,2.835922,1.131119,3.124820,0.01,0.00,0.025124,0.072000,0.000000,0.000000,0.000000,0.000000,0.000000,0.000000,0.003582,-0.001441,0.000263,0.067240,0.069595,0.073878,0.077286,1000,1000,1000,1000
9600,0,2.798737,1.122395,3.124856,-0.00,-0.00,0.030405,0.072000,0.000000,0.000000,0.000000,0.000000,0.000000,0.000000,0.003494,-0.001403,0.000196,0.067299,0.069713,0.073896,0.077093,1000,1000,1000,1000
9611,0,2.768990,1.115416,3.124885,-0.02,-0.00,0.036325,0.072000,0.000000,0.000000,0.000000,0.000000,0.000000,0.000000,0.003427,-0.001364,0.000119,0.067328,0.069818,0.073944,0.076910,1000,1000,1000,1000
9623,0,2.732692,1.122333,3.124908,-0.04,-0.00,0.034429,0.072000,0.000000,0.000000,0.000000,0.000000,0.000000,0.000000,0.003348,-0.001372,0.000121,0.067401,0.069903,0.073854,0.076842,1000,1000,1000,1000
9635,0,2.716153,1.127866,3.124926,-0.04,-0.00,0.028982,0.072000,0.000000,0.000000,0.000000,0.000000,0.000000,0.000000,0.003318,-0.001355,0.000162,0.067489,0.069874,0.073802,0.076835,1000,1000,1000,1000
9645,0,2.702923,1.132293,3.124941,-0.04,-0.00,0.018249,0.072000,0.000000,0.000000,0.000000,0.000000,0.000000,0.000000,0.003286,-0.001364,0.000261,0.067610,0.069817,0.073661,0.076911,1000,1000,1000,1000
9656,0,2.704838,1.135834,3.124953,-0.04,0.00,0.009780,0.072000,0.000000,0.000000,0.000000,0.000000,0.000000,0.000000,0.003281,-0.001405,0.000341,0.067655,0.069782,0.073536,0.077027,1000,1000,1000,1000
9666,0,2.718871,1.138668,3.124963,-0.03,0.00,0.005224,0.072000,0.000000,0.000000,0.000000,0.000000,0.000000,0.000000,0.003309,-0.001425,0.000384,0.067651,0.069732,0.073500,0.077118,1000,1000,1000,1000
9677,0,2.742597,1.140934,3.124970,-0.02,0.00,-0.001180,0.072000,0.000000,0.000000,0.000000,0.000000,0.000000,0.000000,0.003358,-0.001451,0.000449,0.067639,0.069644,0.073458,0.077258,1000,1000,1000,1000
9687,0,2.761577,1.142747,3.124976,-0.00,0.00,-0.009254,0.072000,0.000000,0.000000,0.000000,0.000000,0.000000,0.000000,0.003408,-0.001465,0.000534,0.067661,0.069522,0.073409,0.077407,1000,1000,1000,1000
9697,0,2.776762,1.144198,3.124981,0.00,0.00,-0.012002,0.072000,0.000000,0.000000,0.000000,0.000000,0.000000,0.000000,0.003441,-0.001474,0.000568,0.067653,0.069466,0.073399,0.077482,1000,1000,1000,1000
9707,0,2.801409,1.145358,3.124985,0.02,0.00,-0.012624,0.072000,0.000000,0.000000,0.000000,0.000000,0.000000,0.000000,0.003491,-0.001475,0.000580,0.067614,0.069405,0.073435,0.077546,1000,1000,1000,1000
9717,0,2.821128,1.146287,3.124988,0.02,0.00,-0.008419,0.072000,0.000000,0.000000,0.000000,0.000000,0.000000,0.000000,0.003534,-0.001480,0.000542,0.067528,0.069404,0.073512,0.077555,1000,1000,1000,1000
9727,0,2.836902,1.147029,3.124990,0.03,0.00,-0.006790,0.073000,0.000000,0.000000,0.000000,0.000000,0.000000,0.000000,0.003573,-0.001487,0.000529,0.068469,0.070385,0.074558,0.078588,1000,1000,1000,1000
9737,0,2.837022,1.147623,3.124992,0.03,0.00,0.001316,0.076000,0.000000,0.000000,0.000000,0.000000,0.000000,0.000000,0.003575,-0.001463,0.000447,0.071409,0.073440,0.077665,0.081485,1000,1000,1000,1000
9747,0,2.837118,1.148099,3.124994,0.02,0.00,0.007927,0.076000,0.000000,0.000000,0.000000,0.000000,0.000000,0.000000,0.003576,-0.001455,0.000377,0.071345,0.073502,0.077744,0.081409,1000,1000,1000,1000
9757,0,2.812194,1.135979,3.124995,0.00,-0.00,0.017640,0.077000,0.000000,0.000000,0.000000,0.000000,0.000000,0.000000,0.003521,-0.001389,0.000271,0.072361,0.074596,0.078862,0.082181,1000,1000,1000,1000
9767,0,2.792255,1.126283,3.124996,-0.00,-0.00,0.022908,0.077000,0.000000,0.000000,0.000000,0.000000,0.000000,0.000000,0.003480,-0.001344,0.000207,0.072384,0.074657,0.078929,0.082031,1000,1000,1000,1000
9777,0,2.763804,1.118527,3.124997,-0.02,-0.01,0.026742,0.077000,0.000000,0.000000,0.000000,0.000000,0.000000,0.000000,0.003415,-0.001310,0.000156,0.072430,0.074740,0.078949,0.081881,1000,1000,1000,1000
9787,0,2.741044,1.112321,3.124998,-0.03,-0.01,0.028243,0.077000,0.000000,0.000000,0.000000,0.000000,0.000000,0.000000,0.003361,-0.001283,0.000127,0.072482,0.074796,0.078951,0.081771,1000,1000,1000,1000
9804,0,2.722835,1.107357,3.124998,-0.03,-0.01,0.026389,0.078000,0.000000,0.000000,0.000000,0.000000,0.000000,0.000000,0.003332,-0.001270,0.000132,0.073530,0.075806,0.079929,0.082735,1000,1000,1000,1000
9816,0,2.708268,1.103386,3.124999,-0.03,-0.01,0.017768,0.079000,0.000000,0.000000,0.000000,0.000000,0.000000,0.000000,0.003304,-0.001263,0.000210,0.074642,0.076749,0.080831,0.083778,1000,1000,1000,1000
9827,0,2.709114,1.100209,3.124999,-0.03,-0.01,0.008308,0.079000,0.000000,0.000000,0.000000,0.000000,0.000000,0.000000,0.003307,-0.001259,0.000301,0.074735,0.076651,0.080748,0.083867,1000,1000,1000,1000
9837,0,2.722291,1.110167,3.124999,-0.02,-0.00,0.001094,0.082000,0.000000,0.000000,0.000000,0.000000,0.000000,0.000000,0.003331,-0.001293,0.000372,0.077748,0.079589,0.083666,0.086997,1000,1000,1000,1000
9847,0,2.732833,1.118133,3.124999,-0.01,-0.00,-0.005021,0.082000,0.000000,0.000000,0.000000,0.000000,0.000000,0.000000,0.003351,-0.001332,0.000436,0.077753,0.079545,0.083583,0.087120,1000,1000,1000,1000
9857,0,2.753767,1.124507,3.125000,-0.00,-0.00,-0.007135,0.088000,0.000000,0.000000,0.000000,0.000000,0.000000,0.000000,0.003395,-0.001371,0.000461,0.083695,0.085515,0.089564,0.093227,1000,1000,1000,1000
9867,0,2.770514,1.117105,3.125000,0.00,-0.00,-0.011327,0.090000,0.000000,0.000000,0.000000,0.000000,0.000000,0.000000,0.003438,-0.001344,0.000508,0.085726,0.087397,0.091586,0.095291,1000,1000,1000,1000
9877,0,2.783911,1.111184,3.125000,0.01,-0.00,-0.011495,0.090000,0.000000,0.000000,0.000000,0.000000,0.000000,0.000000,0.003471,-0.001311,0.000516,0.085735,0.087324,0.091644,0.095297,1000,1000,1000,1000
9887,0,2.807129,1.106447,3.125000,0.02,-0.00,-0.012683,0.090000,0.000000,0.000000,0.000000,0.000000,0.000000,0.000000,0.003524,-0.001287,0.000534,0.085723,0.087229,0.091703,0.095345,1000,1000,1000,1000
9897,0,2.813203,1.102658,3.125000,0.03,-0.00,-0.008783,0.092000,0.000000,0.000000,0.000000,0.000000,0.000000,0.000000,0.003538,-0.001292,0.000499,0.087669,0.089255,0.093746,0.097330,1000,1000,1000,1000
9907,0,2.818063,1.099626,3.125000,0.02,-0.00,-0.006395,0.093000,0.000000,0.000000,0.000000,0.000000,0.000000,0.000000,0.003545,-0.001293,0.000479,0.088641,0.090269,0.094774,0.098316,1000,1000,1000,1000
9917,0,2.821950,1.097201,3.125000,0.02,-0.00,-0.003196,0.093000,0.000000,0.000000,0.000000,0.000000,0.000000,0.000000,0.003555,-0.001287,0.000448,0.088606,0.090284,0.094820,0.098290,1000,1000,1000,1000
9927,0,2.825060,1.095261,3.125000,0.02,-0.00,-0.000716,0.097000,0.000000,0.000000,0.000000,0.000000,0.000000,0.000000,0.003560,-0.001276,0.000424,0.092587,0.094293,0.098860,0.102260,1000,1000,1000,1000
9937,0,2.815048,1.093709,3.125000,0.02,-0.00,0.003911,0.098000,0.000000,0.000000,0.000000,0.000000,0.000000,0.000000,0.003543,-0.001274,0.000375,0.093559,0.095356,0.099894,0.103192,1000,1000,1000,1000
9947,0,2.807039,1.092467,3.125000,0.01,-0.00,0.007788,0.098000,0.000000,0.000000,0.000000,0.000000,0.000000,0.000000,0.003526,-0.001282,0.000333,0.093524,0.095424,0.099911,0.103141,1000,1000,1000,1000
9957,0,2.788131,1.091474,3.125000,0.00,-0.00,0.013474,0.104000,0.000000,0.000000,0.000000,0.000000,0.000000,0.000000,0.003488,-0.001267,0.000269,0.099514,0.101510,0.105952,0.109023,1000,1000,1000,1000
9967,0,2.773005,1.090679,3.125000,-0.00,-0.00,0.015510,0.106000,0.000000,0.000000,0.000000,0.000000,0.000000,0.000000,0.003451,-0.001261,0.000241,0.101528,0.103569,0.107949,0.110953,1000,1000,1000,1000
9977,0,2.760904,1.090043,3.125000,-0.01,-0.01,0.015694,0.106000,0.000000,0.000000,0.000000,0.000000,0.000000,0.000000,0.003424,-0.001238,0.000231,0.101569,0.103584,0.107954,0.110893,1000,1000,1000,1000
9987,0,2.751223,1.089535,3.125000,-0.02,-0.00,0.008711,0.106000,0.000000,0.000000,0.000000,0.000000,0.000000,0.000000,0.003399,-0.001263,0.000297,0.101635,0.103568,0.107839,0.110958,1000,1000,1000,1000
9997,0,2.743479,1.089128,3.125000,-0.02,-0.00,0.002495,0.112000,0.000000,0.000000,0.000000,0.000000,0.000000,0.000000,0.003380,-0.001254,0.000358,0.107724,0.109516,0.113769,0.116991,1000,1000,1000,1000
10007,0,2.749783,1.088802,3.125000,-0.02,-0.00,-0.002198,0.113000,0.000000,0.000000,0.000000,0.000000,0.000000,0.000000,0.003389,-0.001256,0.000406,0.108761,0.110461,0.114727,0.118051,1000,1000,1000,1000
10017,0,2.767327,1.088542,3.125000,-0.00,-0.00,-0.009243,0.113000,0.000000,0.000000,0.000000,0.000000,0.000000,0.000000,0.003428,-0.001275,0.000481,0.108778,0.110366,0.114672,0.118184,1000,1000,1000,1000
10027,0,2.781361,1.088333,3.125000,0.00,-0.00,-0.014479,0.115000,0.000000,0.000000,0.000000,0.000000,0.000000,0.000000,0.003459,-0.001289,0.000541,0.110792,0.112289,0.116629,0.120290,1000,1000,1000,1000
10037,0,2.805089,1.088167,3.125000,0.02,-0.00,-0.023363,0.115000,0.000000,0.000000,0.000000,0.000000,0.000000,0.000000,0.003516,-0.001290,0.000642,0.110835,0.112133,0.116584,0.120448,1000,1000,1000,1000
10047,0,2.824071,1.088033,3.125000,0.02,-0.00,-0.024563,0.115000,0.000000,0.000000,0.000000,0.000000,0.000000,0.000000,0.003558,-0.001288,0.000666,0.110820,0.112064,0.116605,0.120512,1000,1000,1000,1000
10057,0,2.851757,1.087927,3.125000,0.03,-0.00,-0.022852,0.119000,0.000000,0.000000,0.000000,0.000000,0.000000,0.000000,0.003620,-0.001278,0.000660,0.114762,0.115998,0.120682,0.124558,1000,1000,1000,1000
10067,0,2.861406,1.087841,3.125000,0.04,-0.00,-0.017365,0.119000,0.000000,0.000000,0.000000,0.000000,0.000000,0.000000,0.003643,-0.001284,0.000614,0.114686,0.116027,0.120745,0.124541,1000,1000,1000,1000
10077,0,2.869124,1.087773,3.125000,0.04,-0.00,-0.016440,0.119000,0.000000,0.000000,0.000000,0.000000,0.000000,0.000000,0.003665,-0.001279,0.000613,0.114669,0.116000,0.120774,0.124557,1000,1000,1000,1000
10088,0,2.875299,1.087718,3.125000,0.04,-0.00,-0.015189,0.119000,0.000000,0.000000,0.000000,0.000000,0.000000,0.000000,0.003683,-0.001276,0.000608,0.114649,0.115985,0.120799,0.124567,1000,1000,1000,1000
10098,0,2.880239,1.087675,3.125000,0.03,-0.00,-0.010223,0.125000,0.000000,0.000000,0.000000,0.000000,0.000000,0.000000,0.003692,-0.001291,0.000564,0.120581,0.122036,0.126837,0.130546,1000,1000,1000,1000
10108,0,2.871692,1.087640,3.125000,0.03,-0.00,-0.001376,0.125000,0.000000,0.000000,0.000000,0.000000,0.000000,0.000000,0.003669,-0.001279,0.000476,0.120527,0.122134,0.126915,0.130424,1000,1000,1000,1000
10124,0,2.864854,1.087612,3.125000,0.02,-0.00,0.007563,0.125000,0.000000,0.000000,0.000000,0.000000,0.000000,0.000000,0.003660,-0.001288,0.000382,0.120434,0.122245,0.126990,0.130330,1000,1000,1000,1000
10137,0,2.846883,1.087590,3.125000,0.01,-0.00,0.009539,0.125000,0.000000,0.000000,0.000000,0.000000,0.000000,0.000000,0.003635,-0.001275,0.000358,0.120448,0.122282,0.127003,0.130267,1000,1000,1000,1000
