t,is_crashed,roll,pitch,yaw,p,q,r,throttle,p_cmd,q_cmd,r_cmd,roll_cmd,pitch_cmd,yaw_cmd,roll_pid_out,pitch_pid_out,yaw_pid_out,motor_fl,motor_bl,motor_fr,motor_br,pwm_fl,pwm_bl,pwm_fr,pwm_br
6954,0,0.029452,0.031634,0.000000,0.00,0.00,-0.000036,0.006000,-0.001473,-0.001547,0.000000,0.000000,0.000698,0.000000,0.000001,-0.000006,0.000000,0.000000,0.000000,0.000000,0.000000,0,0,0,0
6965,0,0.000000,0.000000,0.000000,-0.13,-0.14,0.000016,0.006000,-0.010709,-0.007156,0.000000,0.000000,0.000698,0.000000,-0.000087,0.000553,-0.000000,0.000000,0.000000,0.000000,0.000000,819,819,819,819
6975,0,0.000000,0.000000,0.000000,0.00,0.00,0.000019,0.006000,0.000003,0.000036,0.000000,0.000000,0.000698,0.000000,-0.000004,0.000024,-0.000000,0.000000,0.000000,0.000000,0.000000,819,819,819,819
6991,0,0.000000,0.000000,0.000000,0.00,0.00,-0.000053,0.006000,0.000003,0.000038,0.000000,0.000000,0.000698,0.000000,-0.000004,0.000023,0.000000,0.000000,0.000000,0.000000,0.000000,819,819,819,819
7002,0,0.000000,0.000000,0.000000,0.00,0.00,-0.000057,0.006000,0.000004,0.000038,0.000000,0.000000,0.000698,0.000000,-0.000004,0.000023,0.000000,0.000000,0.000000,0.000000,0.000000,819,819,819,819
7012,0,0.000000,0.000000,0.000000,0.00,0.00,-0.000039,0.006000,0.000001,0.000039,0.000000,0.000000,0.000698,0.000000,-0.000004,0.000023,0.000000,0.000000,0.000000,0.000000,0.000000,819,819,819,819
7023,0,0.000000,0.000000,0.000000,0.00,0.00,-0.000092,0.006000,0.000001,0.000036,0.000000,0.000000,0.000698,0.000000,-0.000004,0.000024,0.000002,0.000000,0.000000,0.000000,0.000000,819,819,819,819
7033,0,0.000000,0.000000,0.000000,0.00,0.00,-0.000113,0.006000,0.000001,0.000036,0.000000,0.000000,0.000698,0.000000,-0.000004,0.000024,0.000002,0.000000,0.000000,0.000000,0.000000,819,819,819,819
7043,0,0.000000,0.000000,0.000000,0.00,0.00,-0.000114,0.006000,0.000003,0.000038,0.000000,0.000000,0.000698,0.000000,-0.000004,0.000023,0.000002,0.000000,0.000000,0.000000,0.000000,819,819,819,819
7053,0,0.000000,0.000000,0.000000,0.00,0.00,-0.000187,0.006000,0.000001,0.000036,0.000000,0.000000,0.000698,0.000000,-0.000004,0.000024,0.000004,0.000000,0.000000,0.000000,0.000000,819,819,819,819
7063,0,0.000000,0.000000,0.000000,0.00,0.00,-0.000118,0.006000,0.000000,0.000038,0.000000,0.000000,0.000698,0.000000,-0.000004,0.000023,0.000003,0.000000,0.000000,0.000000,0.000000,819,819,819,819
7073,0,0.000000,0.000000,0.000000,-0.00,0.00,-0.000042,0.006000,-0.000001,0.000039,0.000000,0.000000,0.000698,0.000000,-0.000004,0.000023,0.000002,0.000000,0.000000,0.000000,0.000000,819,819,819,819
7083,0,0.000000,0.000000,0.000000,0.00,0.00,-0.000056,0.006000,0.000000,0.000039,0.000000,0.000000,0.000698,0.000000,-0.000004,0.000023,0.000003,0.000000,0.000000,0.000000,0.000000,819,819,819,819
7093,0,0.000000,0.000000,0.000000,0.00,0.00,-0.000039,0.006000,0.000001,0.000035,0.000000,0.000000,0.000698,0.000000,-0.000004,0.000024,0.000002,0.000000,0.000000,0.000000,0.000000,819,819,819,819
7103,0,0.000000,0.000000,0.000000,0.00,0.00,-0.000002,0.006000,0.000003,0.000036,0.000000,0.000000,0.000698,0.000000,-0.000004,0.000024,0.000002,0.000000,0.000000,0.000000,0.000000,819,819,819,819
7113,0,0.000000,0.000000,0.000000,0.00,0.00,-0.000018,0.006000,0.000003,0.000035,0.000000,0.000000,0.000698,0.000000,-0.000004,0.000024,0.000002,0.000000,0.000000,0.000000,0.000000,819,819,819,819
7123,0,0.000000,0.000000,0.000000,0.00,0.00,-0.000000,0.006000,0.000001,0.000036,0.000000,0.000000,0.000698,0.000000,-0.000004,0.000024,0.000002,0.000000,0.000000,0.000000,0.000000,819,819,819,819
7133,0,0.000000,0.000000,0.000000,0.00,-0.00,0.000054,0.006000,0.000000,0.000032,0.000000,0.000000,0.000698,0.000000,-0.000004,0.000024,0.000001,0.000000,0.000000,0.000000,0.000000,819,819,819,819
7143,0,0.000000,0.000000,0.000000,0.00,0.00,0.000111,0.006000,0.000000,0.000036,0.000000,0.000000,0.000698,0.000000,-0.000004,0.000024,0.000000,0.000000,0.000000,0.000000,0.000000,819,819,819,819
7153,0,0.000000,0.000000,0.000000,0.00,0.00,0.000132,0.006000,0.000001,0.000035,0.000000,0.000000,0.000698,0.000000,-0.000004,0.000024,-0.000000,0.000000,0.000000,0.000000,0.000000,819,819,819,819
7163,0,0.000000,0.000000,0.000000,0.00,-0.00,0.000061,0.006000,0.000003,0.000034,0.000000,0.000000,0.000698,0.000000,-0.000004,0.000024,0.000000,0.000000,0.000000,0.000000,0.000000,819,819,819,819
7173,0,0.000000,0.000000,0.000000,0.00,0.00,0.000003,0.006000,0.000000,0.000037,0.000000,0.000000,0.000698,0.000000,-0.000004,0.000024,0.000001,0.000000,0.000000,0.000000,0.000000,819,819,819,819
7183,0,0.000000,0.000000,0.000000,0.00,-0.00,-0.000018,0.006000,0.000003,0.000034,0.000000,0.000000,0.000698,0.000000,-0.000004,0.000024,0.000001,0.000000,0.000000,0.000000,0.000000,819,819,819,819
7194,0,0.000000,0.000000,0.000000,0.00,0.00,-0.000073,0.006000,0.000004,0.000036,0.000000,0.000000,0.000698,0.000000,-0.000004,0.000024,0.000002,0.000000,0.000000,0.000000,0.000000,819,819,819,819
7204,0,0.000000,0.000000,0.000000,-0.00,0.00,-0.000022,0.006000,-0.000003,0.000035,0.000000,0.000000,0.000698,0.000000,-0.000004,0.000024,0.000002,0.000000,0.000000,0.000000,0.000000,819,819,819,819
7213,0,0.000000,0.000000,0.000000,-0.00,0.00,0.000071,0.006000,-0.000003,0.000038,0.000000,0.000000,0.000698,0.000000,-0.000004,0.000024,0.000000,0.000000,0.000000,0.000000,0.000000,819,819,819,819
7223,0,0.000000,0.000000,0.000000,0.00,0.00,0.000130,0.006000,0.000001,0.000037,0.000000,0.000000,0.000698,0.000000,-0.000004,0.000024,-0.000000,0.000000,0.000000,0.000000,0.000000,819,819,819,819
7233,0,0.000000,0.000000,0.000000,-0.00,0.00,0.000115,0.006000,-0.000001,0.000038,0.000000,0.000000,0.000698,0.000000,-0.000004,0.000024,-0.000000,0.000000,0.000000,0.000000,0.000000,819,819,819,819
7243,0,0.000000,0.000000,0.000000,-0.00,0.00,0.000060,0.006000,-0.000003,0.000037,0.000000,0.000000,0.000698,0.000000,-0.000004,0.000024,-0.000000,0.000000,0.000000,0.000000,0.000000,819,819,819,819
7253,0,0.000000,0.000000,0.000000,0.00,0.00,-0.000015,0.006000,0.000000,0.000035,0.000000,0.000000,0.000698,0.000000,-0.000004,0.000024,0.000000,0.000000,0.000000,0.000000,0.000000,819,819,819,819
7263,0,0.000000,0.000000,0.000000,-0.00,-0.00,-0.000055,0.006000,-0.000004,0.000033,0.000000,0.000000,0.000698,0.000000,-0.000004,0.000024,0.000001,0.000000,0.000000,0.000000,0.000000,819,819,819,819
7273,0,0.000000,0.000000,0.000000,0.00,-0.00,-0.000039,0.006000,0.000003,0.000033,0.000000,0.000000,0.000698,0.000000,-0.000004,0.000024,0.000001,0.000000,0.000000,0.000000,0.000000,819,819,819,819
7283,0,0.000000,0.000000,0.000000,-0.00,-0.00,-0.000020,0.006000,-0.000001,0.000031,0.000000,0.000000,0.000698,0.000000,-0.000004,0.000024,0.000001,0.000000,0.000000,0.000000,0.000000,819,819,819,819
7293,0,0.000000,0.000000,0.000000,0.00,-0.00,0.000017,0.006000,0.000004,0.000034,0.000000,0.000000,0.000698,0.000000,-0.000004,0.000024,0.000000,0.000000,0.000000,0.000000,0.000000,819,819,819,819
7311,0,0.000000,0.000000,0.000000,-0.00,0.00,0.000055,0.006000,-0.000001,0.000036,0.000000,0.000000,0.000698,0.000000,-0.000004,0.000024,0.000000,0.000000,0.000000,0.000000,0.000000,819,819,819,819
7322,0,0.000000,0.000000,0.000000,0.00,-0.00,0.000057,0.006000,0.000000,0.000034,0.000000,0.000000,0.000698,0.000000,-0.000004,0.000024,-0.000000,0.000000,0.000000,0.000000,0.000000,819,819,819,819
7333,0,0.000000,0.000000,0.000000,0.00,0.00,-0.000033,0.006000,0.000000,0.000035,0.000000,0.000000,0.000698,0.000000,-0.000004,0.000024,0.000001,0.000000,0.000000,0.000000,0.000000,819,819,819,819
7344,0,0.000000,0.000000,0.000000,-0.00,0.00,-0.000002,0.006000,-0.000001,0.000035,0.000000,0.000000,0.000698,0.000000,-0.000004,0.000024,0.000000,0.000000,0.000000,0.000000,0.000000,819,819,819,819
7354,0,0.000000,0.000000,0.000000,0.00,-0.00,0.000072,0.006000,0.000000,0.000030,0.000000,0.000000,0.000698,0.000000,-0.000004,0.000024,-0.000000,0.000000,0.000000,0.000000,0.000000,819,819,819,819
7363,0,0.000000,0.000000,0.000000,-0.00,-0.00,0.000076,0.006000,-0.000001,0.000033,0.000000,0.000000,0.000698,0.000000,-0.000004,0.000024,-0.000000,0.000000,0.000000,0.000000,0.000000,819,819,819,819
7373,0,0.000000,0.000000,0.000000,0.00,-0.00,0.000076,0.006000,0.000000,0.000033,0.000000,0.000000,0.000698,0.000000,-0.000004,0.000024,-0.000000,0.000000,0.000000,0.000000,0.000000,819,819,819,819
7384,0,0.000000,0.000000,0.000000,-0.00,-0.00,0.000076,0.006000,-0.000001,0.000028,0.000000,0.000000,0.000698,0.000000,-0.000004,0.000024,-0.000000,0.000000,0.000000,0.000000,0.000000,819,819,819,819
7393,0,0.000000,0.000000,0.000000,0.00,-0.00,0.000076,0.006000,0.000000,0.000034,0.000000,0.000000,0.000698,0.000000,-0.000004,0.000024,-0.000001,0.000000,0.000000,0.000000,0.000000,819,819,819,819
7403,0,0.000000,0.000000,0.000000,-0.00,-0.00,0.000022,0.006000,-0.000001,0.000034,0.000000,0.000000,0.000698,0.000000,-0.000004,0.000024,-0.000000,0.000000,0.000000,0.000000,0.000000,819,819,819,819
7413,0,0.000000,0.000000,0.000000,0.00,0.00,-0.000071,0.006000,0.000000,0.000037,0.000000,0.000000,0.000698,0.000000,-0.000004,0.000024,0.000000,0.000000,0.000000,0.000000,0.000000,819,819,819,819
7423,0,0.000000,0.000000,0.000000,-0.00,0.00,-0.000058,0.006000,-0.000001,0.000036,0.000000,0.000000,0.000698,0.000000,-0.000004,0.000024,0.000000,0.000000,0.000000,0.000000,0.000000,819,819,819,819
7434,0,0.000000,0.000000,0.000000,0.00,-0.00,-0.000021,0.006000,0.000001,0.000034,0.000000,0.000000,0.000698,0.000000,-0.000004,0.000024,0.000000,0.000000,0.000000,0.000000,0.000000,819,819,819,819
7444,0,0.000000,0.000000,0.000000,0.00,0.00,0.000071,0.006000,0.000001,0.000036,0.000000,0.000000,0.000698,0.000000,-0.000004,0.000024,-0.000000,0.000000,0.000000,0.000000,0.000000,819,819,819,819
7454,0,0.000000,0.000000,0.000000,0.00,-0.00,0.000166,0.006000,0.000001,0.000034,0.000000,0.000000,0.000698,0.000000,-0.000004,0.000024,-0.000002,0.000000,0.000000,0.000000,0.000000,819,819,819,819
7463,0,0.000000,0.000000,0.000000,-0.00,-0.00,0.000189,0.006000,-0.000003,0.000032,0.000000,0.000000,0.000698,0.000000,-0.000004,0.000024,-0.000003,0.000000,0.000000,0.000000,0.000000,819,819,819,819
7474,0,0.000000,0.000000,0.000000,-0.00,-0.00,0.000100,0.006000,-0.000001,0.000034,0.000000,0.000000,0.000698,0.000000,-0.000004,0.000024,-0.000002,0.000000,0.000000,0.000000,0.000000,819,819,819,819
7484,0,0.000000,0.000000,0.000000,0.00,-0.00,0.000095,0.006000,0.000000,0.000031,0.000000,0.000000,0.000698,0.000000,-0.000004,0.000024,-0.000002,0.000000,0.000000,0.000000,0.000000,819,819,819,819
7494,0,0.000000,0.000000,0.000000,0.00,-0.00,-0.000049,0.006000,0.000000,0.000030,0.000000,0.000000,0.000698,0.000000,-0.000004,0.000024,-0.000000,0.000000,0.000000,0.000000,0.000000,819,819,819,819
7504,0,0.000000,0.000000,0.000000,0.00,-0.00,-0.000075,0.006000,0.000000,0.000033,0.000000,0.000000,0.000698,0.000000,-0.000004,0.000024,-0.000000,0.000000,0.000000,0.000000,0.000000,819,819,819,819
7514,0,0.000000,0.000000,0.000000,-0.00,-0.00,-0.000112,0.006000,-0.000004,0.000032,0.000000,0.000000,0.000698,0.000000,-0.000004,0.000024,0.000000,0.000000,0.000000,0.000000,0.000000,819,819,819,819
7524,0,0.000000,0.000000,0.000000,0.00,0.00,-0.000132,0.006000,0.000001,0.000036,0.000000,0.000000,0.000698,0.000000,-0.000004,0.000024,0.000001,0.000000,0.000000,0.000000,0.000000,819,819,819,819
7534,0,0.000000,0.000000,0.000000,0.00,0.00,-0.000079,0.006000,0.000000,0.000036,0.000000,0.000000,0.000698,0.000000,-0.000004,0.000024,0.000000,0.000000,0.000000,0.000000,0.000000,819,819,819,819
7544,0,0.000000,0.000000,0.000000,-0.00,-0.00,0.000050,0.006000,-0.000001,0.000033,0.000000,0.000000,0.000698,0.000000,-0.000004,0.000024,-0.000000,0.000000,0.000000,0.000000,0.000000,819,819,819,819
7554,0,0.000000,0.000000,0.000000,0.00,-0.00,0.000075,0.006000,0.000000,0.000030,0.000000,0.000000,0.000698,0.000000,-0.000004,0.000024,-0.000001,0.000000,0.000000,0.000000,0.000000,819,819,819,819
7564,0,0.000000,0.000000,0.000000,0.00,-0.00,0.000130,0.006000,0.000001,0.000029,0.000000,0.000000,0.000698,0.000000,-0.000004,0.000025,-0.000002,0.000000,0.000000,0.000000,0.000000,819,819,819,819
7574,0,0.000000,0.000000,0.000000,-0.00,-0.00,0.000115,0.006000,-0.000001,0.000030,0.000000,0.000000,0.000698,0.000000,-0.000004,0.000024,-0.000002,0.000000,0.000000,0.000000,0.000000,819,819,819,819
7584,0,0.000000,0.000000,0.000000,-0.00,-0.00,0.000096,0.006000,-0.000001,0.000034,0.000000,0.000000,0.000698,0.000000,-0.000004,0.000024,-0.000002,0.000000,0.000000,0.000000,0.000000,819,819,819,819
7594,0,0.000000,0.000000,0.000000,0.00,-0.00,0.000005,0.006000,0.000000,0.000029,0.000000,0.000000,0.000698,0.000000,-0.000004,0.000025,-0.000001,0.000000,0.000000,0.000000,0.000000,819,819,819,819
7604,0,0.000000,0.000000,0.000000,-0.00,-0.00,0.000000,0.006000,-0.000001,0.000033,0.000000,0.000000,0.000698,0.000000,-0.000004,0.000024,-0.000001,0.000000,0.000000,0.000000,0.000000,819,819,819,819
7614,0,0.000000,0.000000,0.000000,0.00,-0.00,0.000036,0.006000,0.000000,0.000034,0.000000,0.000000,0.000698,0.000000,-0.000004,0.000024,-0.000002,0.000000,0.000000,0.000000,0.000000,819,819,819,819
7631,0,0.000000,0.000000,0.000000,-0.00,0.00,-0.000089,0.006000,-0.000001,0.000037,0.000000,0.000000,0.000698,0.000000,-0.000004,0.000024,-0.000000,0.000000,0.000000,0.000000,0.000000,819,819,819,819
7641,0,0.000000,0.000000,0.000000,0.00,0.00,-0.000095,0.006000,0.000001,0.000042,0.000000,0.000000,0.000698,0.000000,-0.000004,0.000024,0.000000,0.000000,0.000000,0.000000,0.000000,819,819,819,819
7652,0,0.000000,0.000000,0.000000,-0.00,-0.00,-0.000077,0.006000,-0.000001,0.000034,0.000000,0.000000,0.000698,0.000000,-0.000004,0.000024,0.000000,0.000000,0.000000,0.000000,0.000000,819,819,819,819
7696,0,-0.001091,0.000000,0.000000,-0.00,0.00,0.000358,0.006000,-0.000046,0.000037,0.000000,0.000000,0.000698,0.000000,-0.000005,0.000024,-0.000006,0.000000,0.000000,0.000000,0.000000,819,819,819,819
7708,0,-0.001091,0.000000,0.000000,0.00,-0.00,0.000090,0.006000,0.000056,0.000034,0.000000,0.000000,0.000698,0.000000,-0.000004,0.000024,-0.000003,0.000000,0.000000,0.000000,0.000000,819,819,819,819
7719,0,-0.001091,0.000000,0.000000,-0.00,-0.00,-0.000249,0.006000,0.000053,0.000034,0.000000,0.000000,0.000698,0.000000,-0.000004,0.000024,0.000002,0.000000,0.000000,0.000000,0.000000,819,819,819,819
7730,0,-0.001091,0.000000,0.000000,-0.00,0.00,-0.000320,0.006000,0.000053,0.000036,0.000000,0.000000,0.000698,0.000000,-0.000004,0.000024,0.000003,0.000000,0.000000,0.000000,0.000000,819,819,819,819
7739,0,0.000000,0.000000,0.000000,0.00,-0.00,-0.000287,0.006000,0.000485,0.000034,0.000000,0.000000,0.000698,0.000000,-0.000000,0.000024,0.000003,0.000000,0.000000,0.000000,0.000000,819,819,819,819
7751,0,0.000000,0.000000,0.000000,0.00,-0.00,-0.000032,0.006000,0.000001,0.000034,0.000000,0.000000,0.000698,0.000000,-0.000004,0.000024,0.000000,0.000000,0.000000,0.000000,0.000000,819,819,819,819
7762,0,-0.001091,0.000000,0.000000,-0.00,-0.00,0.000288,0.006000,-0.000342,0.000031,0.000000,0.000000,0.000698,0.000000,-0.000007,0.000024,-0.000004,0.000000,0.000000,0.000000,0.000000,819,819,819,819
7774,0,-0.001091,0.000000,0.000000,-0.00,-0.00,0.000376,0.006000,0.000052,0.000033,0.000000,0.000000,0.000698,0.000000,-0.000004,0.000024,-0.000006,0.000000,0.000000,0.000000,0.000000,819,819,819,819
7785,0,-0.001091,0.000000,0.000000,0.00,0.00,0.000163,0.006000,0.000055,0.000036,0.000000,0.000000,0.000698,0.000000,-0.000004,0.000024,-0.000004,0.000000,0.000000,0.000000,0.000000,819,819,819,819
7794,0,-0.001091,0.000000,0.000000,-0.00,0.00,-0.000046,0.006000,0.000053,0.000039,0.000000,0.000000,0.000698,0.000000,-0.000004,0.000024,-0.000001,0.000000,0.000000,0.000000,0.000000,819,819,819,819
7804,0,-0.001091,0.000000,0.000000,0.00,0.00,-0.000183,0.006000,0.000056,0.000040,0.000000,0.000000,0.000698,0.000000,-0.000004,0.000024,0.000000,0.000000,0.000000,0.000000,0.000000,819,819,819,819
7814,0,-0.001091,0.000000,0.000000,-0.00,0.00,-0.000280,0.006000,0.000050,0.000037,0.000000,0.000000,0.000698,0.000000,-0.000004,0.000024,0.000003,0.000000,0.000000,0.000000,0.000000,819,819,819,819
7824,0,-0.001091,0.000000,0.000000,-0.00,0.00,-0.000321,0.006000,0.000052,0.000037,0.000000,0.000000,0.000698,0.000000,-0.000004,0.000024,0.000004,0.000000,0.000000,0.000000,0.000000,819,819,819,819
7834,0,-0.001091,0.000000,0.000000,-0.00,0.00,-0.000305,0.006000,0.000052,0.000037,0.000000,0.000000,0.000698,0.000000,-0.000004,0.000024,0.000004,0.000000,0.000000,0.000000,0.000000,819,819,819,819
7846,0,0.000000,0.000000,0.000000,0.00,-0.00,-0.000106,0.006000,0.000362,0.000032,0.000000,0.000000,0.000698,0.000000,-0.000002,0.000024,0.000002,0.000000,0.000000,0.000000,0.000000,819,819,819,819
7856,0,0.000000,0.000000,0.000000,-0.00,-0.00,0.000013,0.006000,-0.000001,0.000034,0.000000,0.000000,0.000698,0.000000,-0.000004,0.000024,0.000001,0.000000,0.000000,0.000000,0.000000,819,819,819,819
7865,0,-0.001091,0.000000,0.000000,-0.00,0.00,0.000344,0.006000,-0.000430,0.000036,0.000000,0.000000,0.000698,0.000000,-0.000008,0.000024,-0.000004,0.000000,0.000000,0.000000,0.000000,819,819,819,819
7875,0,-0.001091,0.000000,0.000000,0.00,-0.00,0.000451,0.006000,0.000055,0.000033,0.000000,0.000000,0.000698,0.000000,-0.000004,0.000024,-0.000006,0.000000,0.000000,0.000000,0.000000,819,819,819,819
7885,0,-0.001091,0.000000,0.000000,0.00,-0.00,0.000420,0.006000,0.000056,0.000029,0.000000,0.000000,0.000698,0.000000,-0.000004,0.000025,-0.000006,0.000000,0.000000,0.000000,0.000000,819,819,819,819
7895,0,-0.001091,0.000000,0.000000,-0.00,-0.00,0.000256,0.006000,0.000053,0.000033,0.000000,0.000000,0.000698,0.000000,-0.000004,0.000024,-0.000005,0.000000,0.000000,0.000000,0.000000,819,819,819,819
7905,0,-0.001091,0.000000,0.000000,-0.00,0.00,0.000049,0.006000,0.000053,0.000037,0.000000,0.000000,0.000698,0.000000,-0.000004,0.000024,-0.000003,0.000000,0.000000,0.000000,0.000000,819,819,819,819
7915,0,-0.001091,0.000000,0.000000,0.00,0.00,-0.000197,0.006000,0.000057,0.000043,0.000000,0.000000,0.000698,0.000000,-0.000004,0.000024,0.000000,0.000000,0.000000,0.000000,0.000000,819,819,819,819
7925,0,-0.001091,0.000000,0.000000,-0.00,0.00,-0.000209,0.006000,0.000053,0.000040,0.000000,0.000000,0.000698,0.000000,-0.000004,0.000024,0.000000,0.000000,0.000000,0.000000,0.000000,819,819,819,819
7935,0,-0.001091,0.000000,0.000000,-0.00,0.00,-0.000282,0.006000,0.000053,0.000039,0.000000,0.000000,0.000698,0.000000,-0.000004,0.000024,0.000002,0.000000,0.000000,0.000000,0.000000,819,819,819,819
7945,0,-0.001091,0.000000,0.000000,0.00,0.00,-0.000358,0.006000,0.000055,0.000041,0.000000,0.000000,0.000698,0.000000,-0.000004,0.000024,0.000004,0.000000,0.000000,0.000000,0.000000,819,819,819,819
7955,0,-0.001091,0.000000,0.000000,-0.00,0.00,-0.000398,0.006000,0.000052,0.000042,0.000000,0.000000,0.000698,0.000000,-0.000004,0.000024,0.000006,0.000000,0.000000,0.000000,0.000000,819,819,819,819
7965,0,0.000000,0.000000,0.000000,0.00,0.00,-0.000400,0.006000,0.000438,0.000046,0.000000,0.000000,0.000698,0.000000,-0.000001,0.000023,0.000006,0.000000,0.000000,0.000000,0.000000,819,819,819,819
7975,0,0.000000,0.000000,-0.001091,-0.00,0.00,-0.000346,0.006000,-0.000001,0.000042,0.000000,0.000000,0.000698,0.000000,-0.000004,0.000024,0.000007,0.000000,0.000000,0.000000,0.000000,819,819,819,819
7985,0,0.000000,0.000000,-0.001091,0.00,0.00,-0.000180,0.006000,0.000000,0.000041,0.000000,0.000000,0.000698,0.000000,-0.000004,0.000024,0.000005,0.000000,0.000000,0.000000,0.000000,819,819,819,819
7995,0,0.000000,0.000000,-0.001091,0.00,0.00,-0.000136,0.006000,0.000000,0.000041,0.000000,0.000000,0.000698,0.000000,-0.000004,0.000024,0.000005,0.000000,0.000000,0.000000,0.000000,819,819,819,819
8008,0,0.000000,0.000000,-0.001091,-0.00,0.00,-0.000061,0.006000,-0.000003,0.000043,0.000000,0.000000,0.000698,0.000000,-0.000004,0.000024,0.000004,0.000000,0.000000,0.000000,0.000000,819,819,819,819
8021,0,0.000000,0.000000,-0.001091,-0.00,0.00,-0.000075,0.006000,-0.000001,0.000040,0.000000,0.000000,0.000698,0.000000,-0.000004,0.000024,0.000005,0.000000,0.000000,0.000000,0.000000,819,819,819,819
8032,0,0.000000,0.000000,-0.001091,-0.00,0.00,-0.000040,0.006000,-0.000001,0.000035,0.000000,0.000000,0.000698,0.000000,-0.000004,0.000024,0.000004,0.000000,0.000000,0.000000,0.000000,819,819,819,819
8045,0,0.000000,0.000000,-0.001091,0.00,-0.00,0.000070,0.006000,0.000000,0.000028,0.000000,0.000000,0.000698,0.000000,-0.000004,0.000025,0.000003,0.000000,0.000000,0.000000,0.000000,819,819,819,819
8055,0,0.000000,0.000000,-0.001091,0.00,-0.00,0.000166,0.006000,0.000004,0.000030,0.000000,0.000000,0.000698,0.000000,-0.000004,0.000024,0.000002,0.000000,0.000000,0.000000,0.000000,819,819,819,819
8065,0,0.000000,0.000000,-0.001091,-0.00,-0.00,0.000370,0.006000,-0.000001,0.000033,0.000000,0.000000,0.000698,0.000000,-0.000004,0.000024,-0.000002,0.000000,0.000000,0.000000,0.000000,819,819,819,819
8075,0,0.000000,0.000000,0.000000,0.00,-0.00,0.000525,0.006000,0.000001,0.000028,0.000000,0.000000,0.000698,0.000000,-0.000004,0.000025,-0.000005,0.000000,0.000000,0.000000,0.000000,819,819,819,819
8085,0,-0.001091,0.000000,0.000000,-0.00,-0.00,0.000569,0.006000,-0.000385,0.000027,0.000000,0.000000,0.000698,0.000000,-0.000007,0.000025,-0.000006,0.000000,0.000000,0.000000,0.000000,819,819,819,819
8094,0,-0.001091,0.000000,0.000000,-0.00,-0.00,0.000571,0.006000,0.000052,0.000027,0.000000,0.000000,0.000698,0.000000,-0.000004,0.000025,-0.000008,0.000000,0.000000,0.000000,0.000000,819,819,819,819
8105,0,-0.001091,0.000000,0.000000,0.00,-0.00,0.000155,0.006000,0.000056,0.000031,0.000000,0.000000,0.000698,0.000000,-0.000004,0.000025,-0.000004,0.000000,0.000000,0.000000,0.000000,819,819,819,819
8115,0,-0.001091,0.000000,0.000000,-0.00,-0.00,-0.000010,0.006000,0.000052,0.000034,0.000000,0.000000,0.000698,0.000000,-0.000004,0.000024,-0.000002,0.000000,0.000000,0.000000,0.000000,819,819,819,819
8125,0,-0.001091,0.000000,0.000000,-0.00,0.00,-0.000037,0.006000,0.000052,0.000036,0.000000,0.000000,0.000698,0.000000,-0.000004,0.000024,-0.000001,0.000000,0.000000,0.000000,0.000000,819,819,819,819
8135,0,-0.001091,0.000000,0.000000,0.00,-0.00,0.000052,0.006000,0.000056,0.000032,0.000000,0.000000,0.000698,0.000000,-0.000004,0.000025,-0.000002,0.000000,0.000000,0.000000,0.000000,819,819,819,819
8145,0,-0.001091,0.000000,0.000000,-0.00,-0.00,0.000075,0.006000,0.000053,0.000026,0.000000,0.000000,0.000698,0.000000,-0.000004,0.000025,-0.000003,0.000000,0.000000,0.000000,0.000000,819,819,819,819
8155,0,-0.001091,0.000000,0.000000,0.00,-0.00,-0.000051,0.006000,0.000056,0.000020,0.000000,0.000000,0.000698,0.000000,-0.000004,0.000025,-0.000001,0.000000,0.000000,0.000000,0.000000,819,819,819,819
8165,0,-0.001091,0.000000,0.000000,-0.00,-0.00,-0.000165,0.006000,0.000050,0.000020,0.000000,0.000000,0.000698,0.000000,-0.000004,0.000025,0.000000,0.000000,0.000000,0.000000,0.000000,819,819,819,819
8175,0,-0.001091,0.001091,0.000000,0.00,0.00,-0.000298,0.006000,0.000055,0.000247,0.000000,0.000000,0.000698,0.000000,-0.000004,0.000006,0.000002,0.000000,0.000000,0.000000,0.000000,819,819,819,819
8185,0,-0.001091,0.001091,0.000000,-0.00,-0.00,-0.000087,0.006000,0.000053,-0.000021,0.000000,0.000000,0.000698,0.000000,-0.000004,0.000023,0.000000,0.000000,0.000000,0.000000,0.000000,819,819,819,819
8195,0,-0.001091,0.001091,0.000000,-0.00,-0.00,0.000267,0.006000,0.000052,-0.000021,0.000000,0.000000,0.000698,0.000000,-0.000004,0.000023,-0.000004,0.000000,0.000000,0.000000,0.000000,819,819,819,819
8205,0,-0.001091,0.001091,0.000000,-0.00,0.00,0.000466,0.006000,0.000053,-0.000011,0.000000,0.000000,0.000698,0.000000,-0.000004,0.000023,-0.000008,0.000000,0.000000,0.000000,0.000000,819,819,819,819
8215,0,-0.001091,0.001091,0.000000,-0.00,0.00,0.000276,0.006000,0.000053,-0.000014,0.000000,0.000000,0.000698,0.000000,-0.000004,0.000023,-0.000006,0.000000,0.000000,0.000000,0.000000,819,819,819,819
8225,0,-0.001091,0.001091,0.000000,0.00,-0.00,-0.000167,0.006000,0.000055,-0.000022,0.000000,0.000000,0.000698,0.000000,-0.000004,0.000023,-0.000000,0.000000,0.000000,0.000000,0.000000,819,819,819,819
8235,0,-0.001091,0.001091,0.000000,-0.00,-0.00,-0.000714,0.006000,0.000053,-0.000022,0.000000,0.000000,0.000698,0.000000,-0.000004,0.000023,0.000007,0.000000,0.000000,0.000000,0.000000,819,819,819,819
8245,0,-0.001091,0.001091,0.000000,-0.00,-0.00,-0.000741,0.006000,0.000053,-0.000022,0.000000,0.000000,0.000698,0.000000,-0.000004,0.000023,0.000009,0.000000,0.000000,0.000000,0.000000,819,819,819,819
8254,0,0.000000,0.001091,0.000000,0.00,-0.00,-0.000941,0.006000,0.000485,-0.000022,0.000000,0.000000,0.000698,0.000000,-0.000000,0.000023,0.000014,0.000000,0.000000,0.000000,0.000000,819,819,819,819
8265,0,0.000000,0.001091,0.000000,0.00,-0.00,-0.000373,0.006000,0.000001,-0.000021,0.000000,0.000000,0.000698,0.000000,-0.000004,0.000023,0.000008,0.000000,0.000000,0.000000,0.000000,819,819,819,819
8275,0,0.000000,0.001091,-0.001091,-0.00,-0.00,0.000054,0.006000,-0.000001,-0.000024,0.000000,0.000000,0.000698,0.000000,-0.000004,0.000024,0.000003,0.000000,0.000000,0.000000,0.000000,819,819,819,819
8285,0,0.000000,0.001091,-0.001091,-0.00,-0.00,0.000274,0.006000,-0.000003,-0.000028,0.000000,0.000000,0.000698,0.000000,-0.000004,0.000024,0.000000,0.000000,0.000000,0.000000,0.000000,819,819,819,819
8295,0,0.000000,0.001091,0.000000,-0.00,-0.00,0.000303,0.006000,-0.000003,-0.000032,0.000000,0.000000,0.000698,0.000000,-0.000004,0.000024,-0.000000,0.000000,0.000000,0.000000,0.000000,819,819,819,819
8305,0,0.000000,0.001091,0.000000,0.00,-0.00,0.000088,0.006000,0.000000,-0.000024,0.000000,0.000000,0.000698,0.000000,-0.000004,0.000024,0.000001,0.000000,0.000000,0.000000,0.000000,819,819,819,819
8315,0,0.000000,0.001091,0.000000,0.00,-0.00,-0.000050,0.006000,0.000000,-0.000022,0.000000,0.000000,0.000698,0.000000,-0.000004,0.000024,0.000003,0.000000,0.000000,0.000000,0.000000,819,819,819,819
8330,0,0.000000,0.001091,0.000000,-0.00,0.00,-0.000039,0.006000,-0.000001,-0.000018,0.000000,0.000000,0.000698,0.000000,-0.000004,0.000023,0.000003,0.000000,0.000000,0.000000,0.000000,819,819,819,819
8341,0,0.000000,0.001091,0.000000,-0.00,0.00,0.000088,0.006000,-0.000001,-0.000017,0.000000,0.000000,0.000698,0.000000,-0.000004,0.000023,0.000001,0.000000,0.000000,0.000000,0.000000,819,819,819,819
8353,0,0.000000,0.001091,0.000000,0.00,0.00,0.000330,0.006000,0.000000,-0.000017,0.000000,0.000000,0.000698,0.000000,-0.000004,0.000023,-0.000002,0.000000,0.000000,0.000000,0.000000,819,819,819,819
8364,0,-0.001091,0.001091,0.000000,-0.00,0.00,0.000487,0.006000,-0.000342,-0.000018,0.000000,0.000000,0.000698,0.000000,-0.000007,0.000023,-0.000005,0.000000,0.000000,0.000000,0.000000,819,819,819,819
8375,0,-0.001091,0.001091,0.000000,0.00,-0.00,0.000386,0.006000,0.000055,-0.000021,0.000000,0.000000,0.000698,0.000000,-0.000004,0.000023,-0.000005,0.000000,0.000000,0.000000,0.000000,819,819,819,819
8385,0,-0.001091,0.001091,0.000000,0.00,-0.00,0.000055,0.006000,0.000055,-0.000030,0.000000,0.000000,0.000698,0.000000,-0.000004,0.000024,-0.000001,0.000000,0.000000,0.000000,0.000000,819,819,819,819
8395,0,-0.001091,0.001091,0.000000,0.00,-0.00,-0.000033,0.006000,0.000055,-0.000027,0.000000,0.000000,0.000698,0.000000,-0.000004,0.000024,-0.000000,0.000000,0.000000,0.000000,0.000000,819,819,819,819
8406,0,-0.001091,0.001091,0.000000,0.00,-0.00,0.000053,0.006000,0.000057,-0.000022,0.000000,0.000000,0.000698,0.000000,-0.000004,0.000024,-0.000001,0.000000,0.000000,0.000000,0.000000,819,819,819,819
8416,0,-0.001091,0.001091,0.000000,0.00,-0.00,0.000147,0.006000,0.000055,-0.000021,0.000000,0.000000,0.000698,0.000000,-0.000004,0.000023,-0.000003,0.000000,0.000000,0.000000,0.000000,819,819,819,819
8426,0,-0.001091,0.001091,0.000000,-0.00,-0.00,0.000116,0.006000,0.000050,-0.000023,0.000000,0.000000,0.000698,0.000000,-0.000004,0.000024,-0.000003,0.000000,0.000000,0.000000,0.000000,819,819,819,819
8436,0,-0.001091,0.001091,0.000000,-0.00,0.00,-0.000030,0.006000,0.000052,-0.000020,0.000000,0.000000,0.000698,0.000000,-0.000004,0.000023,-0.000001,0.000000,0.000000,0.000000,0.000000,819,819,819,819
8446,0,-0.001091,0.001091,0.000000,0.00,0.00,-0.000128,0.006000,0.000055,-0.000019,0.000000,0.000000,0.000698,0.000000,-0.000004,0.000023,0.000000,0.000000,0.000000,0.000000,0.000000,819,819,819,819
8456,0,-0.001091,0.001091,0.000000,-0.00,0.00,-0.000079,0.006000,0.000053,-0.000019,0.000000,0.000000,0.000698,0.000000,-0.000004,0.000023,-0.000000,0.000000,0.000000,0.000000,0.000000,819,819,819,819
8466,0,-0.001091,0.001091,0.000000,0.00,0.00,0.000014,0.006000,0.000055,-0.000018,0.000000,0.000000,0.000698,0.000000,-0.000004,0.000023,-0.000001,0.000000,0.000000,0.000000,0.000000,819,819,819,819
8476,0,-0.001091,0.001091,0.000000,0.00,0.00,0.000019,0.006000,0.000056,-0.000018,0.000000,0.000000,0.000698,0.000000,-0.000004,0.000023,-0.000001,0.000000,0.000000,0.000000,0.000000,819,819,819,819
8486,0,-0.001091,0.001091,0.000000,0.00,-0.00,-0.000053,0.006000,0.000055,-0.000021,0.000000,0.000000,0.000698,0.000000,-0.000004,0.000023,-0.000000,0.000000,0.000000,0.000000,0.000000,819,819,819,819
8496,0,-0.001091,0.001091,0.000000,0.00,-0.00,-0.000057,0.006000,0.000055,-0.000021,0.000000,0.000000,0.000698,0.000000,-0.000004,0.000023,-0.000000,0.000000,0.000000,0.000000,0.000000,819,819,819,819
8506,0,-0.001091,0.001091,0.000000,0.00,0.00,-0.000148,0.006000,0.000056,-0.000016,0.000000,0.000000,0.000698,0.000000,-0.000004,0.000023,0.000001,0.000000,0.000000,0.000000,0.000000,819,819,819,819
8516,0,-0.001091,0.001091,0.000000,0.00,0.00,-0.000188,0.006000,0.000056,-0.000015,0.000000,0.000000,0.000698,0.000000,-0.000004,0.000023,0.000002,0.000000,0.000000,0.000000,0.000000,819,819,819,819
8526,0,-0.001091,0.001091,0.000000,0.00,-0.00,-0.000190,0.006000,0.000056,-0.000021,0.000000,0.000000,0.000698,0.000000,-0.000004,0.000023,0.000003,0.000000,0.000000,0.000000,0.000000,819,819,819,819
8536,0,-0.001091,0.001091,0.000000,0.00,-0.00,-0.000227,0.006000,0.000055,-0.000023,0.000000,0.000000,0.000698,0.000000,-0.000004,0.000024,0.000004,0.000000,0.000000,0.000000,0.000000,819,819,819,819
8546,0,-0.001091,0.001091,0.000000,-0.00,-0.00,-0.000265,0.006000,0.000050,-0.000024,0.000000,0.000000,0.000698,0.000000,-0.000004,0.000024,0.000005,0.000000,0.000000,0.000000,0.000000,819,819,819,819
8556,0,0.000000,0.001091,0.000000,0.00,0.00,-0.000248,0.006000,0.000439,-0.000019,0.000000,0.000000,0.000698,0.000000,-0.000001,0.000023,0.000005,0.000000,0.000000,0.000000,0.000000,819,819,819,819
8566,0,0.000000,0.001091,0.000000,0.00,0.00,-0.000266,0.006000,0.000000,-0.000015,0.000000,0.000000,0.000698,0.000000,-0.000004,0.000023,0.000006,0.000000,0.000000,0.000000,0.000000,819,819,819,819
8576,0,0.000000,0.001091,0.000000,0.00,0.00,-0.000194,0.006000,0.000001,-0.000013,0.000000,0.000000,0.000698,0.000000,-0.000004,0.000023,0.000006,0.000000,0.000000,0.000000,0.000000,819,819,819,819
8586,0,0.000000,0.001091,0.000000,0.00,0.00,-0.000100,0.006000,0.000001,-0.000014,0.000000,0.000000,0.000698,0.000000,-0.000004,0.000023,0.000005,0.000000,0.000000,0.000000,0.000000,819,819,819,819
8596,0,0.000000,0.001091,0.000000,-0.00,0.00,0.000085,0.006000,-0.000001,-0.000020,0.000000,0.000000,0.000698,0.000000,-0.000004,0.000023,0.000003,0.000000,0.000000,0.000000,0.000000,819,819,819,819
8606,0,0.000000,0.001091,0.000000,0.00,-0.00,0.000221,0.006000,0.000000,-0.000025,0.000000,0.000000,0.000698,0.000000,-0.000004,0.000024,0.000000,0.000000,0.000000,0.000000,0.000000,819,819,819,819
8616,0,0.000000,0.001091,0.000000,-0.00,-0.00,0.000210,0.006000,-0.000001,-0.000025,0.000000,0.000000,0.000698,0.000000,-0.000004,0.000024,0.000000,0.000000,0.000000,0.000000,0.000000,819,819,819,819
8626,0,0.000000,0.001091,0.000000,0.00,-0.00,0.000119,0.006000,0.000000,-0.000023,0.000000,0.000000,0.000698,0.000000,-0.000004,0.000024,0.000001,0.000000,0.000000,0.000000,0.000000,819,819,819,819
8636,0,0.000000,0.001091,0.000000,0.00,-0.00,0.000006,0.006000,0.000000,-0.000023,0.000000,0.000000,0.000698,0.000000,-0.000004,0.000024,0.000002,0.000000,0.000000,0.000000,0.000000,819,819,819,819
8652,0,0.000000,0.001091,0.000000,-0.00,-0.00,0.000091,0.006000,-0.000001,-0.000021,0.000000,0.000000,0.000698,0.000000,-0.000004,0.000023,0.000001,0.000000,0.000000,0.000000,0.000000,819,819,819,819
8664,0,0.000000,0.001091,0.000000,0.00,0.00,0.000131,0.006000,0.000000,-0.000020,0.000000,0.000000,0.000698,0.000000,-0.000004,0.000023,0.000000,0.000000,0.000000,0.000000,0.000000,819,819,819,819
8675,0,0.000000,0.001091,0.000000,0.00,-0.00,0.000025,0.006000,0.000003,-0.000021,0.000000,0.000000,0.000698,0.000000,-0.000004,0.000023,0.000001,0.000000,0.000000,0.000000,0.000000,819,819,819,819
8687,0,0.000000,0.001091,0.000000,0.00,-0.00,-0.000270,0.006000,0.000000,-0.000021,0.000000,0.000000,0.000698,0.000000,-0.000004,0.000023,0.000005,0.000000,0.000000,0.000000,0.000000,819,819,819,819
8699,0,0.000000,0.001091,0.000000,-0.00,0.00,-0.000339,0.006000,-0.000004,-0.000019,0.000000,0.000000,0.000698,0.000000,-0.000004,0.000023,0.000007,0.000000,0.000000,0.000000,0.000000,819,819,819,819
8708,0,0.000000,0.001091,0.000000,-0.00,0.00,-0.000306,0.006000,-0.000001,-0.000020,0.000000,0.000000,0.000698,0.000000,-0.000004,0.000023,0.000007,0.000000,0.000000,0.000000,0.000000,819,819,819,819
8717,0,0.000000,0.001091,-0.001091,-0.00,-0.00,-0.000232,0.006000,-0.000001,-0.000022,0.000000,0.000000,0.000698,0.000000,-0.000004,0.000023,0.000007,0.000000,0.000000,0.000000,0.000000,819,819,819,819
8727,0,0.000000,0.001091,-0.001091,0.00,-0.00,-0.000012,0.006000,0.000001,-0.000022,0.000000,0.000000,0.000698,0.000000,-0.000004,0.000023,0.000005,0.000000,0.000000,0.000000,0.000000,819,819,819,819
8737,0,0.000000,0.001091,0.000000,-0.00,-0.00,0.000253,0.006000,-0.000001,-0.000024,0.000000,0.000000,0.000698,0.000000,-0.000004,0.000024,0.000001,0.000000,0.000000,0.000000,0.000000,819,819,819,819
8746,0,0.000000,0.001091,0.000000,0.00,-0.00,0.000429,0.006000,0.000000,-0.000021,0.000000,0.000000,0.000698,0.000000,-0.000004,0.000023,-0.000002,0.000000,0.000000,0.000000,0.000000,819,819,819,819
8756,0,0.000000,0.001091,0.000000,0.00,-0.00,0.000383,0.006000,0.000000,-0.000021,0.000000,0.000000,0.000698,0.000000,-0.000004,0.000023,-0.000002,0.000000,0.000000,0.000000,0.000000,819,819,819,819
8766,0,0.000000,0.001091,0.000000,-0.00,-0.00,0.000236,0.006000,-0.000001,-0.000023,0.000000,0.000000,0.000698,0.000000,-0.000004,0.000024,-0.000001,0.000000,0.000000,0.000000,0.000000,819,819,819,819
8776,0,0.000000,0.001091,0.000000,0.00,0.00,0.000066,0.006000,0.000000,-0.000019,0.000000,0.000000,0.000698,0.000000,-0.000004,0.000023,0.000000,0.000000,0.000000,0.000000,0.000000,819,819,819,819
8786,0,0.000000,0.001091,0.000000,-0.00,0.00,-0.000015,0.006000,-0.000001,-0.000018,0.000000,0.000000,0.000698,0.000000,-0.000004,0.000023,0.000001,0.000000,0.000000,0.000000,0.000000,819,819,819,819
8796,0,0.000000,0.001091,0.000000,-0.00,0.00,0.000035,0.006000,-0.000004,-0.000015,0.000000,0.000000,0.000698,0.000000,-0.000004,0.000023,0.000000,0.000000,0.000000,0.000000,0.000000,819,819,819,819
8806,0,0.000000,0.001091,0.000000,-0.00,0.00,0.000237,0.006000,-0.000001,-0.000018,0.000000,0.000000,0.000698,0.000000,-0.000004,0.000023,-0.000002,0.000000,0.000000,0.000000,0.000000,819,819,819,819
8816,0,0.000000,0.001091,0.000000,-0.00,0.00,0.000301,0.006000,-0.000001,-0.000016,0.000000,0.000000,0.000698,0.000000,-0.000004,0.000023,-0.000004,0.000000,0.000000,0.000000,0.000000,819,819,819,819
8826,0,-0.001091,0.001091,0.000000,-0.00,-0.00,0.000232,0.006000,-0.000382,-0.000021,0.000000,0.000000,0.000698,0.000000,-0.000007,0.000023,-0.000003,0.000000,0.000000,0.000000,0.000000,819,819,819,819
8837,0,-0.001091,0.001091,0.000000,-0.00,0.00,0.000030,0.006000,0.000053,-0.000020,0.000000,0.000000,0.000698,0.000000,-0.000004,0.000023,-0.000001,0.000000,0.000000,0.000000,0.000000,819,819,819,819
8847,0,-0.001091,0.001091,0.000000,-0.00,0.00,-0.000107,0.006000,0.000053,-0.000020,0.000000,0.000000,0.000698,0.000000,-0.000004,0.000023,0.000000,0.000000,0.000000,0.000000,0.000000,819,819,819,819
8857,0,-0.001091,0.001091,0.000000,0.00,0.00,-0.000168,0.006000,0.000055,-0.000018,0.000000,0.000000,0.000698,0.000000,-0.000004,0.000023,0.000001,0.000000,0.000000,0.000000,0.000000,819,819,819,819
8867,0,-0.001091,0.001091,0.000000,0.00,0.00,-0.000135,0.006000,0.000056,-0.000020,0.000000,0.000000,0.000698,0.000000,-0.000004,0.000023,0.000001,0.000000,0.000000,0.000000,0.000000,819,819,819,819
8876,0,-0.001091,0.001091,0.000000,0.00,-0.00,-0.000007,0.006000,0.000056,-0.000023,0.000000,0.000000,0.000698,0.000000,-0.000004,0.000023,0.000000,0.000000,0.000000,0.000000,0.000000,819,819,819,819
8887,0,-0.001091,0.001091,0.000000,0.00,-0.00,0.000108,0.006000,0.000056,-0.000021,0.000000,0.000000,0.000698,0.000000,-0.000004,0.000023,-0.000001,0.000000,0.000000,0.000000,0.000000,819,819,819,819
8897,0,-0.001091,0.001091,0.000000,0.00,0.00,0.000132,0.006000,0.000057,-0.000017,0.000000,0.000000,0.000698,0.000000,-0.000004,0.000023,-0.000002,0.000000,0.000000,0.000000,0.000000,819,819,819,819
8907,0,-0.001091,0.001091,0.000000,-0.00,0.00,0.000097,0.006000,0.000053,-0.000013,0.000000,0.000000,0.000698,0.000000,-0.000004,0.000023,-0.000002,0.000000,0.000000,0.000000,0.000000,819,819,819,819
8917,0,-0.001091,0.001091,0.000000,0.00,0.00,0.000005,0.006000,0.000056,-0.000017,0.000000,0.000000,0.000698,0.000000,-0.000004,0.000023,-0.000000,0.000000,0.000000,0.000000,0.000000,819,819,819,819
8927,0,-0.001091,0.001091,0.000000,-0.00,0.00,-0.000090,0.006000,0.000053,-0.000020,0.000000,0.000000,0.000698,0.000000,-0.000004,0.000023,0.000000,0.000000,0.000000,0.000000,0.000000,819,819,819,819
8937,0,-0.001091,0.001091,0.000000,-0.00,-0.00,-0.000131,0.006000,0.000050,-0.000021,0.000000,0.000000,0.000698,0.000000,-0.000005,0.000023,0.000001,0.000000,0.000000,0.000000,0.000000,819,819,819,819
8947,0,-0.001091,0.001091,0.000000,-0.00,-0.00,-0.000115,0.006000,0.000053,-0.000023,0.000000,0.000000,0.000698,0.000000,-0.000004,0.000023,0.000001,0.000000,0.000000,0.000000,0.000000,819,819,819,819
8962,0,-0.001091,0.001091,0.000000,-0.00,-0.00,-0.000096,0.006000,0.000053,-0.000023,0.000000,0.000000,0.000698,0.000000,-0.000005,0.000023,0.000001,0.000000,0.000000,0.000000,0.000000,819,819,819,819
8975,0,-0.001091,0.001091,0.000000,-0.00,-0.00,-0.000095,0.006000,0.000053,-0.000023,0.000000,0.000000,0.000698,0.000000,-0.000005,0.000023,0.000002,0.000000,0.000000,0.000000,0.000000,819,819,819,819
8987,0,-0.001091,0.001091,0.000000,-0.00,-0.00,-0.000059,0.006000,0.000053,-0.000022,0.000000,0.000000,0.000698,0.000000,-0.000005,0.000023,0.000001,0.000000,0.000000,0.000000,0.000000,819,819,819,819
8997,0,-0.001091,0.001091,0.000000,0.00,0.00,-0.000021,0.006000,0.000056,-0.000020,0.000000,0.000000,0.000698,0.000000,-0.000004,0.000023,0.000001,0.000000,0.000000,0.000000,0.000000,819,819,819,819
9007,0,-0.001091,0.001091,0.000000,-0.00,-0.00,-0.000019,0.006000,0.000052,-0.000021,0.000000,0.000000,0.000698,0.000000,-0.000005,0.000023,0.000001,0.000000,0.000000,0.000000,0.000000,819,819,819,819
9017,0,-0.001091,0.001091,0.000000,0.00,0.00,0.000035,0.006000,0.000056,-0.000020,0.000000,0.000000,0.000698,0.000000,-0.000004,0.000023,0.000000,0.000000,0.000000,0.000000,0.000000,819,819,819,819
9027,0,-0.001091,0.001091,0.000000,0.00,0.00,0.000038,0.006000,0.000055,-0.000019,0.000000,0.000000,0.000698,0.000000,-0.000005,0.000023,0.000000,0.000000,0.000000,0.000000,0.000000,819,819,819,819
9037,0,-0.001091,0.001091,0.000000,0.00,0.00,0.000074,0.006000,0.000056,-0.000019,0.000000,0.000000,0.000698,0.000000,-0.000005,0.000023,-0.000000,0.000000,0.000000,0.000000,0.000000,819,819,819,819
9047,0,-0.001091,0.001091,0.000000,-0.00,-0.00,0.000040,0.006000,0.000052,-0.000022,0.000000,0.000000,0.000698,0.000000,-0.000005,0.000023,-0.000000,0.000000,0.000000,0.000000,0.000000,819,819,819,819
9057,0,-0.001091,0.001091,0.000000,0.00,-0.00,0.000038,0.006000,0.000056,-0.000021,0.000000,0.000000,0.000698,0.000000,-0.000005,0.000023,-0.000000,0.000000,0.000000,0.000000,0.000000,819,819,819,819
9067,0,-0.001091,0.001091,0.000000,0.00,0.00,0.000038,0.006000,0.000055,-0.000015,0.000000,0.000000,0.000698,0.000000,-0.000005,0.000023,-0.000000,0.000000,0.000000,0.000000,0.000000,819,819,819,819
9077,0,-0.001091,0.001091,0.000000,0.00,0.00,0.000074,0.006000,0.000055,-0.000019,0.000000,0.000000,0.000698,0.000000,-0.000005,0.000023,-0.000000,0.000000,0.000000,0.000000,0.000000,819,819,819,819
9087,0,-0.001091,0.001091,0.000000,-0.00,-0.00,0.000040,0.006000,0.000053,-0.000021,0.000000,0.000000,0.000698,0.000000,-0.000005,0.000023,-0.000000,0.000000,0.000000,0.000000,0.000000,819,819,819,819
9097,0,-0.001091,0.001091,0.000000,0.00,-0.00,-0.000070,0.006000,0.000056,-0.000022,0.000000,0.000000,0.000698,0.000000,-0.000005,0.000023,0.000000,0.000000,0.000000,0.000000,0.000000,819,819,819,819
9107,0,-0.001091,0.001091,0.000000,0.00,-0.00,-0.000112,0.006000,0.000055,-0.000024,0.000000,0.000000,0.000698,0.000000,-0.000005,0.000023,0.000001,0.000000,0.000000,0.000000,0.000000,819,819,819,819
9117,0,-0.001091,0.001091,0.000000,-0.00,0.00,-0.000114,0.006000,0.000052,-0.000020,0.000000,0.000000,0.000698,0.000000,-0.000005,0.000023,0.000002,0.000000,0.000000,0.000000,0.000000,819,819,819,819
9127,0,-0.001091,0.001091,0.000000,0.00,0.00,-0.000078,0.006000,0.000056,-0.000014,0.000000,0.000000,0.000698,0.000000,-0.000005,0.000023,0.000002,0.000000,0.000000,0.000000,0.000000,819,819,819,819
9137,0,-0.001091,0.001091,0.000000,0.00,0.00,0.000014,0.006000,0.000055,-0.000016,0.000000,0.000000,0.000698,0.000000,-0.000005,0.000023,0.000000,0.000000,0.000000,0.000000,0.000000,819,819,819,819
9147,0,-0.001091,0.001091,0.000000,0.00,0.00,0.000037,0.006000,0.000056,-0.000019,0.000000,0.000000,0.000698,0.000000,-0.000005,0.000023,0.000000,0.000000,0.000000,0.000000,0.000000,819,819,819,819
9157,0,-0.001091,0.001091,0.000000,-0.00,-0.00,0.000002,0.006000,0.000053,-0.000022,0.000000,0.000000,0.000698,0.000000,-0.000005,0.000023,0.000000,0.000000,0.000000,0.000000,0.000000,819,819,819,819
9167,0,-0.001091,0.001091,0.000000,0.00,-0.00,-0.000072,0.006000,0.000055,-0.000023,0.000000,0.000000,0.000698,0.000000,-0.000005,0.000023,0.000002,0.000000,0.000000,0.000000,0.000000,819,819,819,819
9177,0,-0.001091,0.001091,0.000000,0.00,0.00,-0.000094,0.006000,0.000056,-0.000018,0.000000,0.000000,0.000698,0.000000,-0.000005,0.000023,0.000002,0.000000,0.000000,0.000000,0.000000,819,819,819,819
9187,0,-0.001091,0.001091,0.000000,0.00,0.00,-0.000113,0.006000,0.000059,-0.000020,0.000000,0.000000,0.000698,0.000000,-0.000005,0.000023,0.000003,0.000000,0.000000,0.000000,0.000000,819,819,819,819
9197,0,-0.001091,0.001091,0.000000,0.00,-0.00,-0.000024,0.006000,0.000056,-0.000021,0.000000,0.000000,0.000698,0.000000,-0.000005,0.000023,0.000002,0.000000,0.000000,0.000000,0.000000,819,819,819,819
9207,0,-0.001091,0.001091,0.000000,-0.00,-0.00,0.000053,0.006000,0.000053,-0.000021,0.000000,0.000000,0.000698,0.000000,-0.000005,0.000023,0.000000,0.000000,0.000000,0.000000,0.000000,819,819,819,819
9217,0,-0.001091,0.001091,0.000000,0.00,-0.00,0.000057,0.006000,0.000056,-0.000021,0.000000,0.000000,0.000698,0.000000,-0.000005,0.000023,0.000000,0.000000,0.000000,0.000000,0.000000,819,819,819,819
9227,0,-0.001091,0.001091,0.000000,-0.00,0.00,0.000039,0.006000,0.000053,-0.000020,0.000000,0.000000,0.000698,0.000000,-0.000005,0.000023,0.000000,0.000000,0.000000,0.000000,0.000000,819,819,819,819
9238,0,-0.001091,0.001091,0.000000,-0.00,0.00,0.000056,0.006000,0.000053,-0.000017,0.000000,0.000000,0.000698,0.000000,-0.000005,0.000023,0.000000,0.000000,0.000000,0.000000,0.000000,819,819,819,819
9248,0,-0.001091,0.001091,0.000000,-0.00,0.00,0.000039,0.006000,0.000052,-0.000020,0.000000,0.000000,0.000698,0.000000,-0.000005,0.000023,0.000000,0.000000,0.000000,0.000000,0.000000,819,819,819,819
9257,0,-0.001091,0.001091,0.000000,0.00,-0.00,0.000020,0.006000,0.000055,-0.000021,0.000000,0.000000,0.000698,0.000000,-0.000005,0.000023,0.000000,0.000000,0.000000,0.000000,0.000000,819,819,819,819
9268,0,-0.001091,0.001091,0.000000,0.00,-0.00,0.000001,0.006000,0.000055,-0.000021,0.000000,0.000000,0.000698,0.000000,-0.000005,0.000023,0.000000,0.000000,0.000000,0.000000,0.000000,819,819,819,819
9282,0,-0.001091,0.001091,0.000000,0.00,-0.00,0.000036,0.006000,0.000057,-0.000023,0.000000,0.000000,0.000698,0.000000,-0.000005,0.000023,0.000000,0.000000,0.000000,0.000000,0.000000,819,819,819,819
9293,0,-0.001091,0.001091,0.000000,0.00,-0.00,-0.000034,0.006000,0.000055,-0.000022,0.000000,0.000000,0.000698,0.000000,-0.000005,0.000023,0.000001,0.000000,0.000000,0.000000,0.000000,819,819,819,819
9305,0,-0.001091,0.001091,0.000000,0.00,0.00,0.000034,0.006000,0.000057,-0.000019,0.000000,0.000000,0.000698,0.000000,-0.000005,0.000023,0.000000,0.000000,0.000000,0.000000,0.000000,819,819,819,819
9317,0,-0.001091,0.001091,0.000000,-0.00,0.00,0.000038,0.006000,0.000053,-0.000020,0.000000,0.000000,0.000698,0.000000,-0.000005,0.000023,0.000000,0.000000,0.000000,0.000000,0.000000,819,819,819,819
9327,0,-0.001091,0.001091,0.000000,-0.00,0.00,0.000038,0.006000,0.000053,-0.000020,0.000000,0.000000,0.000698,0.000000,-0.000005,0.000023,0.000000,0.000000,0.000000,0.000000,0.000000,819,819,819,819
9337,0,-0.001091,0.001091,0.000000,-0.00,-0.00,0.000020,0.006000,0.000052,-0.000024,0.000000,0.000000,0.000698,0.000000,-0.000005,0.000023,0.000000,0.000000,0.000000,0.000000,0.000000,819,819,819,819
9347,0,-0.001091,0.001091,0.000000,-0.00,-0.00,0.000001,0.006000,0.000053,-0.000022,0.000000,0.000000,0.000698,0.000000,-0.000005,0.000023,0.000000,0.000000,0.000000,0.000000,0.000000,819,819,819,819
9357,0,-0.001091,0.001091,0.000000,0.00,-0.00,-0.000036,0.006000,0.000055,-0.000029,0.000000,0.000000,0.000698,0.000000,-0.000005,0.000024,0.000000,0.000000,0.000000,0.000000,0.000000,819,819,819,819
9368,0,-0.001091,0.001091,0.000000,-0.00,-0.00,-0.000020,0.006000,0.000053,-0.000029,0.000000,0.000000,0.000698,0.000000,-0.000005,0.000024,0.000000,0.000000,0.000000,0.000000,0.000000,819,819,819,819
9378,0,-0.001091,0.001091,0.000000,0.00,-0.00,-0.000001,0.006000,0.000055,-0.000027,0.000000,0.000000,0.000698,0.000000,-0.000005,0.000024,0.000000,0.000000,0.000000,0.000000,0.000000,819,819,819,819
9388,0,-0.001091,0.001091,0.000000,-0.00,-0.00,0.000018,0.006000,0.000052,-0.000023,0.000000,0.000000,0.000698,0.000000,-0.000005,0.000023,0.000000,0.000000,0.000000,0.000000,0.000000,819,819,819,819
9398,0,-0.001091,0.001091,0.000000,-0.00,0.00,-0.000053,0.006000,0.000053,-0.000017,0.000000,0.000000,0.000698,0.000000,-0.000005,0.000023,0.000001,0.000000,0.000000,0.000000,0.000000,819,819,819,819
9408,0,-0.001091,0.001091,0.000000,-0.00,0.00,-0.000021,0.006000,0.000053,-0.000017,0.000000,0.000000,0.000698,0.000000,-0.000005,0.000023,0.000001,0.000000,0.000000,0.000000,0.000000,819,819,819,819
9418,0,-0.001091,0.001091,0.000000,-0.00,0.00,0.000089,0.006000,0.000050,-0.000014,0.000000,0.000000,0.000698,0.000000,-0.000005,0.000023,-0.000000,0.000000,0.000000,0.000000,0.000000,819,819,819,819
9428,0,-0.001091,0.001091,0.000000,-0.00,0.00,0.000131,0.006000,0.000053,-0.000019,0.000000,0.000000,0.000698,0.000000,-0.000005,0.000023,-0.000001,0.000000,0.000000,0.000000,0.000000,819,819,819,819
9438,0,-0.001091,0.001091,0.000000,-0.00,0.00,0.000115,0.006000,0.000052,-0.000020,0.000000,0.000000,0.000698,0.000000,-0.000005,0.000023,-0.000001,0.000000,0.000000,0.000000,0.000000,819,819,819,819
9448,0,-0.001091,0.001091,0.000000,-0.00,-0.00,0.000060,0.006000,0.000052,-0.000024,0.000000,0.000000,0.000698,0.000000,-0.000005,0.000023,-0.000001,0.000000,0.000000,0.000000,0.000000,819,819,819,819
9458,0,-0.001091,0.001091,0.000000,0.00,-0.00,0.000003,0.006000,0.000056,-0.000022,0.000000,0.000000,0.000698,0.000000,-0.000005,0.000023,-0.000000,0.000000,0.000000,0.000000,0.000000,819,819,819,819
9468,0,-0.001091,0.001091,0.000000,-0.00,-0.00,-0.000072,0.006000,0.000052,-0.000023,0.000000,0.000000,0.000698,0.000000,-0.000005,0.000023,0.000000,0.000000,0.000000,0.000000,0.000000,819,819,819,819
9478,0,-0.001091,0.001091,0.000000,-0.00,-0.00,-0.000040,0.006000,0.000053,-0.000021,0.000000,0.000000,0.000698,0.000000,-0.000005,0.000023,0.000000,0.000000,0.000000,0.000000,0.000000,819,819,819,819
9488,0,-0.001091,0.001091,0.000000,0.00,-0.00,-0.000074,0.006000,0.000056,-0.000022,0.000000,0.000000,0.000698,0.000000,-0.000005,0.000023,0.000000,0.000000,0.000000,0.000000,0.000000,819,819,819,819
9498,0,-0.001091,0.001091,0.000000,0.00,-0.00,-0.000022,0.006000,0.000056,-0.000023,0.000000,0.000000,0.000698,0.000000,-0.000005,0.000023,0.000000,0.000000,0.000000,0.000000,0.000000,819,819,819,819
9508,0,-0.001091,0.001091,0.000000,0.00,0.00,-0.000037,0.006000,0.000056,-0.000018,0.000000,0.000000,0.000698,0.000000,-0.000005,0.000023,0.000000,0.000000,0.000000,0.000000,0.000000,819,819,819,819
9518,0,-0.001091,0.001091,0.000000,0.00,0.00,-0.000002,0.006000,0.000056,-0.000020,0.000000,0.000000,0.000698,0.000000,-0.000005,0.000023,0.000000,0.000000,0.000000,0.000000,0.000000,819,819,819,819
9530,0,-0.001091,0.001091,0.000000,0.00,-0.00,-0.000000,0.006000,0.000055,-0.000021,0.000000,0.000000,0.000698,0.000000,-0.000005,0.000023,0.000000,0.000000,0.000000,0.000000,0.000000,819,819,819,819
9539,0,-0.001091,0.001091,0.000000,0.00,0.00,-0.000000,0.006000,0.000057,-0.000020,0.000000,0.000000,0.000698,0.000000,-0.000005,0.000023,0.000000,0.000000,0.000000,0.000000,0.000000,819,819,819,819
9548,0,-0.001091,0.001091,0.000000,0.00,0.00,-0.000000,0.006000,0.000056,-0.000017,0.000000,0.000000,0.000698,0.000000,-0.000005,0.000023,0.000000,0.000000,0.000000,0.000000,0.000000,819,819,819,819
9558,0,-0.001091,0.001091,0.000000,0.00,0.00,0.000127,0.006000,0.000055,-0.000018,0.000000,0.000000,0.000698,0.000000,-0.000005,0.000023,-0.000001,0.000000,0.000000,0.000000,0.000000,819,819,819,819
9568,0,-0.001091,0.001091,0.000000,0.00,-0.00,0.000169,0.006000,0.000055,-0.000023,0.000000,0.000000,0.000698,0.000000,-0.000005,0.000023,-0.000002,0.000000,0.000000,0.000000,0.000000,819,819,819,819
9578,0,-0.001091,0.001091,0.000000,0.00,-0.00,0.000171,0.006000,0.000055,-0.000026,0.000000,0.000000,0.000698,0.000000,-0.000005,0.000024,-0.000003,0.000000,0.000000,0.000000,0.000000,819,819,819,819
9592,0,-0.001091,0.001091,0.000000,-0.00,-0.00,0.000027,0.006000,0.000053,-0.000029,0.000000,0.000000,0.000698,0.000000,-0.000005,0.000024,-0.000001,0.000000,0.000000,0.000000,0.000000,819,819,819,819
9605,0,-0.001091,0.001091,0.000000,-0.00,-0.00,-0.000125,0.006000,0.000052,-0.000024,0.000000,0.000000,0.000698,0.000000,-0.000005,0.000024,0.000000,0.000000,0.000000,0.000000,0.000000,819,819,819,819
9618,0,-0.001091,0.001091,0.000000,-0.00,0.00,-0.000115,0.006000,0.000053,-0.000012,0.000000,0.000000,0.000698,0.000000,-0.000005,0.000023,0.000000,0.000000,0.000000,0.000000,0.000000,819,819,819,819
9628,0,-0.001091,0.001091,0.000000,0.00,0.00,0.000049,0.006000,0.000055,-0.000015,0.000000,0.000000,0.000698,0.000000,-0.000005,0.000023,-0.000001,0.000000,0.000000,0.000000,0.000000,819,819,819,819
9638,0,-0.001091,0.001091,0.000000,0.00,0.00,0.000183,0.006000,0.000056,-0.000019,0.000000,0.000000,0.000698,0.000000,-0.000005,0.000023,-0.000003,0.000000,0.000000,0.000000,0.000000,819,819,819,819
9648,0,-0.001091,0.001091,0.000000,0.00,0.00,0.000262,0.006000,0.000056,-0.000019,0.000000,0.000000,0.000698,0.000000,-0.000005,0.000023,-0.000005,0.000000,0.000000,0.000000,0.000000,819,819,819,819
9658,0,-0.001091,0.001091,0.000000,0.00,0.00,0.000176,0.006000,0.000057,-0.000019,0.000000,0.000000,0.000698,0.000000,-0.000005,0.000023,-0.000004,0.000000,0.000000,0.000000,0.000000,819,819,819,819
9668,0,-0.001091,0.001091,0.000000,0.00,0.00,0.000027,0.006000,0.000055,-0.000018,0.000000,0.000000,0.000698,0.000000,-0.000005,0.000023,-0.000003,0.000000,0.000000,0.000000,0.000000,819,819,819,819
9678,0,-0.001091,0.001091,0.000000,0.00,0.00,-0.000089,0.006000,0.000055,-0.000014,0.000000,0.000000,0.000698,0.000000,-0.000005,0.000023,-0.000001,0.000000,0.000000,0.000000,0.000000,819,819,819,819
9689,0,-0.001091,0.001091,0.000000,-0.00,0.00,-0.000185,0.006000,0.000053,-0.000013,0.000000,0.000000,0.000698,0.000000,-0.000005,0.000023,0.000000,0.000000,0.000000,0.000000,0.000000,819,819,819,819
9698,0,-0.001091,0.001091,0.000000,-0.00,0.00,-0.000190,0.007000,0.000053,-0.000018,0.000000,0.000000,0.000698,0.000000,-0.000005,0.000023,0.000000,0.000000,0.000000,0.000000,0.000000,819,819,819,819
9708,0,-0.001091,0.001091,0.000000,0.00,0.00,-0.000136,0.007000,0.000055,-0.000017,0.000000,0.000000,0.000698,0.000000,-0.000005,0.000023,0.000000,0.000000,0.000000,0.000000,0.000000,819,819,819,819
9718,0,-0.001091,0.001091,0.000000,0.00,0.00,-0.000115,0.007000,0.000056,-0.000015,0.000000,0.000000,0.000698,0.000000,-0.000005,0.000023,0.000000,0.000000,0.000000,0.000000,0.000000,819,819,819,819
9728,0,-0.001091,0.001091,0.000000,0.00,0.00,-0.000078,0.007000,0.000056,-0.000011,0.000000,0.000000,0.000698,0.000000,-0.000005,0.000022,0.000000,0.000000,0.000000,0.000000,0.000000,819,819,819,819
9738,0,-0.001091,0.001091,0.000000,-0.00,0.00,-0.000040,0.007000,0.000053,-0.000012,0.000000,0.000000,0.000698,0.000000,-0.000005,0.000023,0.000000,0.000000,0.000000,0.000000,0.000000,819,819,819,819
9748,0,-0.001091,0.001091,0.000000,-0.00,0.00,-0.000002,0.007000,0.000053,-0.000017,0.000000,0.000000,0.000698,0.000000,-0.000005,0.000023,0.000000,0.000000,0.000000,0.000000,0.000000,819,819,819,819
9758,0,-0.001091,0.001091,0.000000,0.00,0.00,0.000018,0.007000,0.000055,-0.000017,0.000000,0.000000,0.000698,0.000000,-0.000005,0.000023,-0.000000,0.000000,0.000000,0.000000,0.000000,819,819,819,819
9768,0,-0.001091,0.001091,0.000000,0.00,0.00,0.000109,0.007000,0.000057,-0.000018,0.000000,0.000000,0.000698,0.000000,-0.000005,0.000023,-0.000001,0.000000,0.000000,0.000000,0.000000,819,819,819,819
9778,0,-0.001091,0.001091,0.000000,0.00,0.00,0.000114,0.007000,0.000057,-0.000015,0.000000,0.000000,0.000698,0.000000,-0.000005,0.000023,-0.000002,0.000000,0.000000,0.000000,0.000000,819,819,819,819
9789,0,-0.001091,0.001091,0.000000,0.00,0.00,0.000096,0.007000,0.000055,-0.000016,0.000000,0.000000,0.000698,0.000000,-0.000005,0.000023,-0.000002,0.000000,0.000000,0.000000,0.000000,819,819,819,819
9799,0,-0.001091,0.001091,0.000000,0.00,0.00,0.000077,0.008000,0.000055,-0.000020,0.000000,0.000000,0.000698,0.000000,-0.000005,0.000023,-0.000002,0.000000,0.000000,0.000000,0.000000,819,819,819,819
9809,0,-0.001091,0.001091,0.000000,0.00,-0.00,-0.000032,0.008000,0.000055,-0.000021,0.000000,0.000000,0.000698,0.000000,-0.000005,0.000023,-0.000000,0.000000,0.000000,0.000000,0.000000,819,819,819,819
9819,0,-0.001091,0.001091,0.000000,0.00,-0.00,-0.000074,0.008000,0.000055,-0.000022,0.000000,0.000000,0.000698,0.000000,-0.000005,0.000023,-0.000000,0.000000,0.000000,0.000000,0.000000,819,819,819,819
9829,0,-0.001091,0.001091,0.000000,0.00,0.00,-0.000094,0.008000,0.000057,-0.000019,0.000000,0.000000,0.000698,0.000000,-0.000005,0.000023,0.000000,0.000000,0.000000,0.000000,0.000000,819,819,819,819
9839,0,-0.001091,0.001091,0.000000,-0.00,0.00,-0.000059,0.008000,0.000053,-0.000019,0.000000,0.000000,0.000698,0.000000,-0.000005,0.000023,0.000000,0.000000,0.000000,0.000000,0.000000,819,819,819,819
9849,0,-0.001091,0.001091,0.000000,-0.00,0.00,0.000015,0.008000,0.000053,-0.000016,0.000000,0.000000,0.000698,0.000000,-0.000005,0.000023,-0.000000,0.000000,0.000000,0.000000,0.000000,819,819,819,819
9859,0,-0.001091,0.001091,0.000000,0.00,0.00,0.000019,0.008000,0.000055,-0.000015,0.000000,0.000000,0.000698,0.000000,-0.000005,0.000023,-0.000000,0.000000,0.000000,0.000000,0.000000,819,819,819,819
9869,0,-0.001091,0.001091,0.000000,0.00,0.00,0.000000,0.008000,0.000055,-0.000016,0.000000,0.000000,0.000698,0.000000,-0.000005,0.000023,-0.000000,0.000000,0.000000,0.000000,0.000000,819,819,819,819
9879,0,-0.001091,0.001091,0.000000,-0.00,0.00,0.000000,0.008000,0.000053,-0.000020,0.000000,0.000000,0.000698,0.000000,-0.000005,0.000023,-0.000000,0.000000,0.000000,0.000000,0.000000,819,819,819,819
9890,0,-0.001091,0.001091,0.000000,0.00,-0.00,0.000054,0.009000,0.000055,-0.000022,0.000000,0.000000,0.000698,0.000000,-0.000005,0.000023,-0.000001,0.000000,0.000000,0.000000,0.000000,819,819,819,819
9900,0,-0.001091,0.001091,0.000000,-0.00,-0.00,0.000021,0.009000,0.000053,-0.000022,0.000000,0.000000,0.000698,0.000000,-0.000005,0.000023,-0.000001,0.000000,0.000000,0.000000,0.000000,819,819,819,819
9915,0,-0.001091,0.001091,0.000000,0.00,-0.00,0.000055,0.009000,0.000056,-0.000021,0.000000,0.000000,0.000698,0.000000,-0.000005,0.000023,-0.000001,0.000000,0.000000,0.000000,0.000000,819,819,819,819
9928,0,-0.001091,0.001091,0.000000,0.00,-0.00,0.000057,0.009000,0.000057,-0.000022,0.000000,0.000000,0.000698,0.000000,-0.000005,0.000023,-0.000002,0.000000,0.000000,0.000000,0.000000,819,819,819,819
9938,0,-0.001091,0.001091,0.000000,0.00,0.00,-0.000015,0.009000,0.000055,-0.000019,0.000000,0.000000,0.000698,0.000000,-0.000005,0.000023,-0.000000,0.000000,0.000000,0.000000,0.000000,819,819,819,819
9949,0,-0.001091,0.001091,0.000000,-0.00,0.00,-0.000019,0.009000,0.000053,-0.000017,0.000000,0.000000,0.000698,0.000000,-0.000005,0.000023,-0.000000,0.000000,0.000000,0.000000,0.000000,819,819,819,819
9959,0,-0.001091,0.001091,0.000000,0.00,0.00,-0.000073,0.010000,0.000055,-0.000014,0.000000,0.000000,0.000698,0.000000,-0.000005,0.000022,-0.000000,0.000000,0.000000,0.000000,0.000000,819,819,819,819
9969,0,-0.001091,0.001091,0.000000,0.00,0.00,-0.000058,0.010000,0.000056,-0.000016,0.000000,0.000000,0.000698,0.000000,-0.000005,0.000023,-0.000000,0.000000,0.000000,0.000000,0.000000,819,819,819,819
9979,0,-0.001091,0.001091,0.000000,0.00,0.00,-0.000075,0.010000,0.000055,-0.000020,0.000000,0.000000,0.000698,0.000000,-0.000005,0.000023,0.000000,0.000000,0.000000,0.000000,0.000000,819,819,819,819
9989,0,-0.001091,0.001091,0.000000,0.00,-0.00,-0.000076,0.010000,0.000055,-0.000021,0.000000,0.000000,0.000698,0.000000,-0.000005,0.000023,0.000000,0.000000,0.000000,0.000000,0.000000,819,819,819,819
9999,0,-0.001091,0.001091,0.000000,0.00,0.00,-0.000058,0.010000,0.000055,-0.000020,0.000000,0.000000,0.000698,0.000000,-0.000005,0.000023,0.000000,0.000000,0.000000,0.000000,0.000000,819,819,819,819
10009,0,-0.001091,0.001091,0.000000,0.00,0.00,-0.000111,0.011000,0.000056,-0.000017,0.000000,0.000000,0.000698,0.000000,-0.000005,0.000023,0.000001,0.000000,0.000000,0.000000,0.000000,819,819,819,819
10019,0,-0.001091,0.001091,0.000000,0.00,0.00,-0.000132,0.011000,0.000055,-0.000017,0.000000,0.000000,0.000698,0.000000,-0.000005,0.000023,0.000002,0.000000,0.000000,0.000000,0.000000,819,819,819,819
10029,0,-0.001091,0.001091,0.000000,-0.00,0.00,-0.000115,0.011000,0.000053,-0.000015,0.000000,0.000000,0.000698,0.000000,-0.000005,0.000022,0.000002,0.000000,0.000000,0.000000,0.000000,819,819,819,819
10039,0,-0.001091,0.001091,0.000000,0.00,0.00,-0.000114,0.011000,0.000055,-0.000011,0.000000,0.000000,0.000698,0.000000,-0.000005,0.000022,0.000003,0.000000,0.000000,0.000000,0.000000,819,819,819,819
10049,0,-0.001091,0.001091,0.000000,-0.00,0.00,-0.000042,0.011000,0.000052,-0.000016,0.000000,0.000000,0.000698,0.000000,-0.000005,0.000022,0.000002,0.000000,0.000000,0.000000,0.000000,819,819,819,819
10059,0,-0.001091,0.001091,0.000000,0.00,0.00,-0.000038,0.064000,0.000055,-0.000018,0.000000,0.000000,0.000698,0.000000,-0.000005,0.000022,0.000002,0.064029,0.063980,0.064016,0.063975,871,912,887,912
10069,0,-0.001091,0.001091,0.000000,-0.00,0.00,-0.000038,0.064000,0.000053,-0.000020,0.000000,0.000000,0.000698,0.000000,-0.000005,0.000023,0.000002,0.064030,0.063980,0.064016,0.063975,871,912,887,912
