t,is_crashed,roll,pitch,yaw,p,q,r,throttle,p_cmd,q_cmd,r_cmd,roll_cmd,pitch_cmd,yaw_cmd,roll_pid_out,pitch_pid_out,yaw_pid_out,motor_fl,motor_bl,motor_fr,motor_br,pwm_fl,pwm_bl,pwm_fr,pwm_br
6967,0,0.007199,0.005236,0.000000,0.00,-0.00,0.000011,0.006000,-0.000360,-0.000262,0.000000,0.000000,0.000000,0.000000,0.000000,-0.000000,-0.000000,0.000000,0.000000,0.000000,0.000000,0,0,0,0
6979,0,0.011519,0.008378,0.000000,0.00,0.00,0.000039,0.006000,-0.000432,-0.000354,0.000000,0.000000,0.000000,0.000000,0.000002,-0.000005,-0.000000,0.000000,0.000000,0.000000,0.000000,819,819,819,819
6988,0,0.014757,0.010891,0.000000,0.00,0.00,0.000071,0.006000,-0.000464,-0.000415,0.000000,0.000000,0.000000,0.000000,0.000003,-0.000009,-0.000000,0.000000,0.000000,0.000000,0.000000,819,819,819,819
6998,0,0.017347,0.012901,0.000000,0.00,0.00,0.000092,0.006000,-0.000518,-0.000479,0.000000,0.000000,0.000000,0.000000,0.000003,-0.000011,-0.000001,0.000000,0.000000,0.000000,0.000000,819,819,819,819
7007,0,0.019419,0.014510,0.000000,0.00,0.00,0.000092,0.006000,-0.000564,-0.000532,0.000000,0.000000,0.000000,0.000000,0.000004,-0.000013,-0.000001,0.000000,0.000000,0.000000,0.000000,819,819,819,819
7017,0,0.021077,0.015797,0.000000,0.00,0.00,0.000074,0.005000,-0.000621,-0.000583,0.000000,0.000000,0.000000,0.000000,0.000004,-0.000014,-0.000000,0.000000,0.000000,0.000000,0.000000,819,819,819,819
7026,0,0.022403,0.016826,0.000000,0.00,0.00,0.000067,0.005000,-0.000672,-0.000626,0.000000,0.000000,0.000000,0.000000,0.000004,-0.000015,-0.000000,0.000000,0.000000,0.000000,0.000000,819,819,819,819
7036,0,0.023464,0.017650,0.000000,0.00,0.00,0.000093,0.005000,-0.000728,-0.000668,0.000000,0.000000,0.000000,0.000000,0.000004,-0.000015,-0.000001,0.000000,0.000000,0.000000,0.000000,819,819,819,819
7046,0,0.024312,0.018309,0.000000,0.00,0.00,0.000142,0.005000,-0.000781,-0.000705,0.000000,0.000000,0.000000,0.000000,0.000004,-0.000014,-0.000002,0.000000,0.000000,0.000000,0.000000,819,819,819,819
7056,0,0.024991,0.018836,0.000000,0.00,0.00,0.000196,0.005000,-0.000831,-0.000740,0.000000,0.000000,0.000000,0.000000,0.000004,-0.000014,-0.000002,0.000000,0.000000,0.000000,0.000000,819,819,819,819
7071,0,0.025316,0.019257,0.000000,0.00,0.00,0.000244,0.006000,-0.000880,-0.000774,0.000000,0.000000,0.000000,0.000000,0.000004,-0.000013,-0.000003,0.000000,0.000000,0.000000,0.000000,819,819,819,819
7084,0,0.025576,0.019813,0.000000,0.00,0.00,0.000264,0.006000,-0.000924,-0.000812,0.000000,0.000000,0.000000,0.000000,0.000004,-0.000013,-0.000003,0.000000,0.000000,0.000000,0.000000,819,819,819,819
7096,0,0.025784,0.020257,0.000000,0.00,0.00,0.000246,0.006000,-0.000963,-0.000844,0.000000,0.000000,0.000000,0.000000,0.000003,-0.000012,-0.000003,0.000000,0.000000,0.000000,0.000000,819,819,819,819
7105,0,0.025951,0.020613,0.000000,0.00,0.00,0.000192,0.005000,-0.000996,-0.000870,0.000000,0.000000,0.000000,0.000000,0.000003,-0.000012,-0.000002,0.000000,0.000000,0.000000,0.000000,819,819,819,819
7115,0,0.026084,0.020897,0.000000,0.00,0.00,0.000118,0.005000,-0.001028,-0.000892,0.000000,0.000000,0.000000,0.000000,0.000003,-0.000011,-0.000001,0.000000,0.000000,0.000000,0.000000,819,819,819,819
7126,0,0.026408,0.021125,0.000000,0.00,0.00,0.000071,0.006000,-0.001060,-0.000913,0.000000,0.000000,0.000000,0.000000,0.000003,-0.000011,-0.000000,0.000000,0.000000,0.000000,0.000000,819,819,819,819
7136,0,0.026668,0.021307,0.000000,0.00,0.00,0.000076,0.006000,-0.001088,-0.000933,0.000000,0.000000,0.000000,0.000000,0.000003,-0.000010,-0.000000,0.000000,0.000000,0.000000,0.000000,819,819,819,819
7146,0,0.026876,0.021452,0.000000,0.00,0.00,0.000076,0.006000,-0.001115,-0.000951,0.000000,0.000000,0.000000,0.000000,0.000003,-0.000010,-0.000000,0.000000,0.000000,0.000000,0.000000,819,819,819,819
7156,0,0.027042,0.021569,0.000000,0.00,0.00,0.000053,0.006000,-0.001139,-0.000966,0.000000,0.000000,0.000000,0.000000,0.000003,-0.000009,-0.000000,0.000000,0.000000,0.000000,0.000000,819,819,819,819
7166,0,0.027175,0.021662,0.000000,0.00,0.00,0.000023,0.005000,-0.001162,-0.000979,0.000000,0.000000,0.000000,0.000000,0.000002,-0.000009,-0.000000,0.000000,0.000000,0.000000,0.000000,819,819,819,819
7178,0,0.027282,0.021737,0.000000,0.00,0.00,0.000002,0.005000,-0.001184,-0.000991,0.000000,0.000000,0.000000,0.000000,0.000002,-0.000008,-0.000000,0.000000,0.000000,0.000000,0.000000,819,819,819,819
7187,0,0.027367,0.021796,0.000000,0.00,0.00,-0.000007,0.005000,-0.001202,-0.001002,0.000000,0.000000,0.000000,0.000000,0.000002,-0.000008,0.000000,0.000000,0.000000,0.000000,0.000000,819,819,819,819
7197,0,0.027435,0.021844,0.000000,0.00,0.00,-0.000006,0.005000,-0.001220,-0.001013,0.000000,0.000000,0.000000,0.000000,0.000002,-0.000008,0.000000,0.000000,0.000000,0.000000,0.000000,819,819,819,819
7207,0,0.027489,0.021882,0.000000,0.00,0.00,-0.000002,0.005000,-0.001235,-0.001022,0.000000,0.000000,0.000000,0.000000,0.000002,-0.000007,0.000000,0.000000,0.000000,0.000000,0.000000,819,819,819,819
7217,0,0.027533,0.021913,0.000000,0.00,0.00,-0.000002,0.006000,-0.001250,-0.001031,0.000000,0.000000,0.000000,0.000000,0.000002,-0.000007,0.000000,0.000000,0.000000,0.000000,0.000000,819,819,819,819
7227,0,0.027568,0.021937,0.000000,0.00,0.00,-0.000013,0.005000,-0.001263,-0.001038,0.000000,0.000000,0.000000,0.000000,0.000002,-0.000006,0.000000,0.000000,0.000000,0.000000,0.000000,819,819,819,819
7237,0,0.027596,0.021957,0.000000,0.00,0.00,-0.000031,0.005000,-0.001275,-0.001044,0.000000,0.000000,0.000000,0.000000,0.000002,-0.000006,0.000000,0.000000,0.000000,0.000000,0.000000,819,819,819,819
7247,0,0.027618,0.021972,0.000000,0.00,0.00,-0.000063,0.005000,-0.001286,-0.001049,0.000000,0.000000,0.000000,0.000000,0.000002,-0.000006,0.000000,0.000000,0.000000,0.000000,0.000000,819,819,819,819
7257,0,0.027636,0.021985,0.000000,0.00,0.00,-0.000091,0.005000,-0.001296,-0.001053,0.000000,0.000000,0.000000,0.000000,0.000002,-0.000006,0.000001,0.000000,0.000000,0.000000,0.000000,819,819,819,819
7267,0,0.027868,0.021995,0.000000,0.00,0.00,-0.000095,0.006000,-0.001307,-0.001057,0.000000,0.000000,0.000000,0.000000,0.000002,-0.000005,0.000001,0.000000,0.000000,0.000000,0.000000,819,819,819,819
7277,0,0.028054,0.022003,0.000000,0.00,0.00,-0.000072,0.006000,-0.001317,-0.001061,0.000000,0.000000,0.000000,0.000000,0.000002,-0.000005,0.000000,0.000000,0.000000,0.000000,0.000000,819,819,819,819
7287,0,0.028203,0.022009,0.000000,0.00,0.00,-0.000009,0.006000,-0.001327,-0.001066,0.000000,0.000000,0.000000,0.000000,0.000002,-0.000005,0.000000,0.000000,0.000000,0.000000,0.000000,819,819,819,819
7297,0,0.028104,0.022014,0.000000,0.00,0.00,0.000045,0.005000,-0.001335,-0.001070,0.000000,0.000000,0.000000,0.000000,0.000001,-0.000005,-0.000000,0.000000,0.000000,0.000000,0.000000,819,819,819,819
7307,0,0.028024,0.022018,0.000000,0.00,0.00,0.000084,0.005000,-0.001341,-0.001075,0.000000,0.000000,0.000000,0.000000,0.000001,-0.000005,-0.000001,0.000000,0.000000,0.000000,0.000000,819,819,819,819
7316,0,0.027961,0.022022,0.000000,0.00,0.00,0.000128,0.005000,-0.001347,-0.001079,0.000000,0.000000,0.000000,0.000000,0.000001,-0.000004,-0.000002,0.000000,0.000000,0.000000,0.000000,819,819,819,819
7327,0,0.027692,0.022024,0.000000,0.00,0.00,0.000167,0.006000,-0.001348,-0.001082,0.000000,0.000000,0.000000,0.000000,0.000001,-0.000004,-0.000002,0.000000,0.000000,0.000000,0.000000,819,819,819,819
7337,0,0.027477,0.022026,0.000000,0.00,0.00,0.000194,0.006000,-0.001350,-0.001083,0.000000,0.000000,0.000000,0.000000,0.000001,-0.000004,-0.000002,0.000000,0.000000,0.000000,0.000000,819,819,819,819
7347,0,0.027305,0.022028,0.000000,0.00,0.00,0.000216,0.006000,-0.001350,-0.001085,0.000000,0.000000,0.000000,0.000000,0.000001,-0.000004,-0.000003,0.000000,0.000000,0.000000,0.000000,819,819,819,819
7357,0,0.027167,0.022029,0.000000,0.00,0.00,0.000219,0.006000,-0.001351,-0.001086,0.000000,0.000000,0.000000,0.000000,0.000000,-0.000004,-0.000003,0.000000,0.000000,0.000000,0.000000,819,819,819,819
7367,0,0.027057,0.022030,0.000000,0.00,0.00,0.000232,0.005000,-0.001350,-0.001089,0.000000,0.000000,0.000000,0.000000,0.000000,-0.000004,-0.000003,0.000000,0.000000,0.000000,0.000000,819,819,819,819
7377,0,0.026751,0.022031,0.000000,-0.00,0.00,0.000201,0.005000,-0.001347,-0.001091,0.000000,0.000000,0.000000,0.000000,0.000000,-0.000004,-0.000002,0.000000,0.000000,0.000000,0.000000,819,819,819,819
7392,0,0.026724,0.022032,0.000000,-0.00,0.00,0.000144,0.006000,-0.001346,-0.001093,0.000000,0.000000,0.000000,0.000000,0.000000,-0.000004,-0.000002,0.000000,0.000000,0.000000,0.000000,819,819,819,819
7403,0,0.026702,0.022033,0.000000,-0.00,0.00,0.000082,0.005000,-0.001345,-0.001094,0.000000,0.000000,0.000000,0.000000,0.000000,-0.000003,-0.000001,0.000000,0.000000,0.000000,0.000000,819,819,819,819
7413,0,0.026685,0.022033,0.000000,-0.00,0.00,0.000025,0.005000,-0.001344,-0.001095,0.000000,0.000000,0.000000,0.000000,0.000000,-0.000003,-0.000000,0.000000,0.000000,0.000000,0.000000,819,819,819,819
7424,0,0.026671,0.022033,0.000000,-0.00,0.00,-0.000024,0.005000,-0.001343,-0.001095,0.000000,0.000000,0.000000,0.000000,0.000000,-0.000003,0.000000,0.000000,0.000000,0.000000,0.000000,819,819,819,819
7436,0,0.026878,0.022034,0.000000,-0.00,0.00,-0.000051,0.005000,-0.001345,-0.001095,0.000000,0.000000,0.000000,0.000000,0.000000,-0.000003,0.000000,0.000000,0.000000,0.000000,0.000000,819,819,819,819
7448,0,0.026826,0.022034,0.000000,-0.00,0.00,-0.000005,0.005000,-0.001344,-0.001096,0.000000,0.000000,0.000000,0.000000,0.000000,-0.000003,0.000000,0.000000,0.000000,0.000000,0.000000,819,819,819,819
7457,0,0.026784,0.022034,0.000000,-0.00,0.00,0.000043,0.005000,-0.001344,-0.001095,0.000000,0.000000,0.000000,0.000000,0.000000,-0.000003,-0.000000,0.000000,0.000000,0.000000,0.000000,819,819,819,819
7467,0,0.026751,0.022034,0.000000,-0.00,0.00,0.000073,0.005000,-0.001343,-0.001095,0.000000,0.000000,0.000000,0.000000,0.000000,-0.000003,-0.000000,0.000000,0.000000,0.000000,0.000000,819,819,819,819
7477,0,0.026724,0.022034,0.000000,-0.00,0.00,0.000101,0.005000,-0.001342,-0.001095,0.000000,0.000000,0.000000,0.000000,0.000000,-0.000003,-0.000001,0.000000,0.000000,0.000000,0.000000,819,819,819,819
7487,0,0.026702,0.022034,0.000000,-0.00,0.00,0.000066,0.005000,-0.001341,-0.001095,0.000000,0.000000,0.000000,0.000000,0.000000,-0.000003,-0.000000,0.000000,0.000000,0.000000,0.000000,819,819,819,819
7498,0,0.026685,0.022034,0.000000,-0.00,0.00,0.000027,0.005000,-0.001340,-0.001096,0.000000,0.000000,0.000000,0.000000,0.000000,-0.000003,-0.000000,0.000000,0.000000,0.000000,0.000000,819,819,819,819
7507,0,0.026671,0.022035,0.000000,-0.00,0.00,-0.000025,0.005000,-0.001339,-0.001097,0.000000,0.000000,0.000000,0.000000,0.000000,-0.000003,0.000000,0.000000,0.000000,0.000000,0.000000,819,819,819,819
7517,0,0.026660,0.022035,0.000000,-0.00,0.00,-0.000055,0.006000,-0.001339,-0.001099,0.000000,0.000000,0.000000,0.000000,0.000000,-0.000003,0.000000,0.000000,0.000000,0.000000,0.000000,819,819,819,819
7527,0,0.026651,0.022035,0.000000,-0.00,0.00,-0.000082,0.006000,-0.001339,-0.001099,0.000000,0.000000,0.000000,0.000000,0.000000,-0.000003,0.000001,0.000000,0.000000,0.000000,0.000000,819,819,819,819
7537,0,0.026863,0.022035,0.000000,0.00,0.00,-0.000080,0.006000,-0.001340,-0.001099,0.000000,0.000000,0.000000,0.000000,0.000000,-0.000003,0.000000,0.000000,0.000000,0.000000,0.000000,819,819,819,819
7548,0,0.027031,0.022035,0.000000,0.00,0.00,-0.000069,0.006000,-0.001343,-0.001098,0.000000,0.000000,0.000000,0.000000,0.000000,-0.000003,0.000000,0.000000,0.000000,0.000000,0.000000,819,819,819,819
7557,0,0.027167,0.022035,0.000000,0.00,0.00,-0.000017,0.005000,-0.001344,-0.001098,0.000000,0.000000,0.000000,0.000000,0.000001,-0.000003,0.000000,0.000000,0.000000,0.000000,0.000000,819,819,819,819
7567,0,0.027057,0.022035,0.000000,0.00,0.00,0.000023,0.005000,-0.001345,-0.001098,0.000000,0.000000,0.000000,0.000000,0.000000,-0.000003,-0.000000,0.000000,0.000000,0.000000,0.000000,819,819,819,819
7577,0,0.026968,0.022035,0.000000,0.00,0.00,0.000069,0.005000,-0.001344,-0.001098,0.000000,0.000000,0.000000,0.000000,0.000000,-0.000003,-0.000000,0.000000,0.000000,0.000000,0.000000,819,819,819,819
7587,0,0.026898,0.022035,0.000000,0.00,0.00,0.000103,0.005000,-0.001344,-0.001098,0.000000,0.000000,0.000000,0.000000,0.000000,-0.000003,-0.000001,0.000000,0.000000,0.000000,0.000000,819,819,819,819
7598,0,0.026842,0.022035,0.000000,-0.00,0.00,0.000113,0.006000,-0.001344,-0.001099,0.000000,0.000000,0.000000,0.000000,0.000000,-0.000003,-0.000001,0.000000,0.000000,0.000000,0.000000,819,819,819,819
7608,0,0.026797,0.022035,0.000000,-0.00,0.00,0.000071,0.006000,-0.001343,-0.001100,0.000000,0.000000,0.000000,0.000000,0.000000,-0.000003,-0.000000,0.000000,0.000000,0.000000,0.000000,819,819,819,819
7618,0,0.026761,0.022035,0.000000,-0.00,0.00,0.000005,0.005000,-0.001343,-0.001099,0.000000,0.000000,0.000000,0.000000,0.000000,-0.000003,-0.000000,0.000000,0.000000,0.000000,0.000000,819,819,819,819
7628,0,0.026732,0.022035,0.000000,-0.00,0.00,-0.000041,0.005000,-0.001342,-0.001099,0.000000,0.000000,0.000000,0.000000,0.000000,-0.000003,0.000000,0.000000,0.000000,0.000000,0.000000,819,819,819,819
7638,0,0.026709,0.022035,0.000000,-0.00,0.00,-0.000064,0.005000,-0.001341,-0.001099,0.000000,0.000000,0.000000,0.000000,0.000000,-0.000003,0.000000,0.000000,0.000000,0.000000,0.000000,819,819,819,819
7648,0,0.026908,0.022035,0.000000,0.00,0.00,-0.000047,0.006000,-0.001343,-0.001099,0.000000,0.000000,0.000000,0.000000,0.000000,-0.000003,0.000000,0.000000,0.000000,0.000000,0.000000,819,819,819,819
7658,0,0.026850,0.022035,0.000000,-0.00,0.00,-0.000016,0.006000,-0.001342,-0.001099,0.000000,0.000000,0.000000,0.000000,0.000000,-0.000003,0.000000,0.000000,0.000000,0.000000,0.000000,819,819,819,819
7668,0,0.026803,0.022035,0.000000,-0.00,0.00,0.000042,0.006000,-0.001342,-0.001099,0.000000,0.000000,0.000000,0.000000,0.000000,-0.000003,-0.000000,0.000000,0.000000,0.000000,0.000000,819,819,819,819
7678,0,0.026766,0.022035,0.000000,-0.00,0.00,0.000072,0.006000,-0.001341,-0.001099,0.000000,0.000000,0.000000,0.000000,0.000000,-0.000003,-0.000000,0.000000,0.000000,0.000000,0.000000,819,819,819,819
7688,0,0.026736,0.022035,0.000000,-0.00,0.00,0.000096,0.006000,-0.001341,-0.001099,0.000000,0.000000,0.000000,0.000000,0.000000,-0.000003,-0.000001,0.000000,0.000000,0.000000,0.000000,819,819,819,819
7698,0,0.026712,0.022035,0.000000,-0.00,0.00,0.000094,0.006000,-0.001340,-0.001099,0.000000,0.000000,0.000000,0.000000,0.000000,-0.000003,-0.000001,0.000000,0.000000,0.000000,0.000000,819,819,819,819
7714,0,0.026693,0.022035,0.000000,-0.00,0.00,0.000085,0.006000,-0.001339,-0.001098,0.000000,0.000000,0.000000,0.000000,0.000000,-0.000003,-0.000001,0.000000,0.000000,0.000000,0.000000,819,819,819,819
7727,0,0.026678,0.022035,0.000000,-0.00,0.00,0.000094,0.006000,-0.001338,-0.001099,0.000000,0.000000,0.000000,0.000000,0.000000,-0.000003,-0.000001,0.000000,0.000000,0.000000,0.000000,819,819,819,819
7737,0,0.026665,0.022035,0.000000,-0.00,0.00,0.000079,0.005000,-0.001337,-0.001099,0.000000,0.000000,0.000000,0.000000,0.000000,-0.000003,-0.000000,0.000000,0.000000,0.000000,0.000000,819,819,819,819
7748,0,0.026655,0.022035,0.000000,-0.00,0.00,0.000050,0.005000,-0.001337,-0.001100,0.000000,0.000000,0.000000,0.000000,0.000000,-0.000003,-0.000000,0.000000,0.000000,0.000000,0.000000,819,819,819,819
7758,0,0.026648,0.022035,0.000000,-0.00,0.00,0.000056,0.006000,-0.001336,-0.001100,0.000000,0.000000,0.000000,0.000000,0.000000,-0.000003,-0.000000,0.000000,0.000000,0.000000,0.000000,819,819,819,819
7768,0,0.026641,0.022035,0.000000,-0.00,0.00,0.000054,0.006000,-0.001336,-0.001100,0.000000,0.000000,0.000000,0.000000,0.000000,-0.000003,-0.000000,0.000000,0.000000,0.000000,0.000000,819,819,819,819
7778,0,0.026636,0.022035,0.000000,-0.00,0.00,0.000069,0.006000,-0.001335,-0.001101,0.000000,0.000000,0.000000,0.000000,0.000000,-0.000003,-0.000000,0.000000,0.000000,0.000000,0.000000,819,819,819,819
7788,0,0.026632,0.022035,0.000000,-0.00,0.00,0.000070,0.006000,-0.001335,-0.001101,0.000000,0.000000,0.000000,0.000000,0.000000,-0.000003,-0.000000,0.000000,0.000000,0.000000,0.000000,819,819,819,819
7798,0,0.026629,0.022035,0.000000,-0.00,0.00,0.000051,0.005000,-0.001334,-0.001102,0.000000,0.000000,0.000000,0.000000,0.000000,-0.000003,-0.000000,0.000000,0.000000,0.000000,0.000000,819,819,819,819
7810,0,0.026627,0.022035,0.000000,-0.00,0.00,0.000026,0.005000,-0.001334,-0.001102,0.000000,0.000000,0.000000,0.000000,0.000000,-0.000003,-0.000000,0.000000,0.000000,0.000000,0.000000,819,819,819,819
7820,0,0.026624,0.022035,0.000000,-0.00,0.00,-0.000002,0.005000,-0.001334,-0.001101,0.000000,0.000000,0.000000,0.000000,0.000000,-0.000003,0.000000,0.000000,0.000000,0.000000,0.000000,819,819,819,819
7829,0,0.026623,0.022035,0.000000,-0.00,0.00,-0.000027,0.005000,-0.001334,-0.001101,0.000000,0.000000,0.000000,0.000000,0.000000,-0.000003,0.000000,0.000000,0.000000,0.000000,0.000000,819,819,819,819
7838,0,0.026622,0.022035,0.000000,-0.00,0.00,-0.000034,0.005000,-0.001334,-0.001101,0.000000,0.000000,0.000000,0.000000,0.000000,-0.000003,0.000000,0.000000,0.000000,0.000000,0.000000,819,819,819,819
7849,0,0.026620,0.022035,0.000000,-0.00,0.00,-0.000018,0.006000,-0.001333,-0.001101,0.000000,0.000000,0.000000,0.000000,0.000000,-0.000003,0.000000,0.000000,0.000000,0.000000,0.000000,819,819,819,819
7858,0,0.026620,0.022035,0.000000,-0.00,0.00,0.000009,0.006000,-0.001333,-0.001101,0.000000,0.000000,0.000000,0.000000,0.000000,-0.000003,-0.000000,0.000000,0.000000,0.000000,0.000000,819,819,819,819
7868,0,0.026619,0.022035,0.000000,-0.00,0.00,0.000025,0.006000,-0.001333,-0.001101,0.000000,0.000000,0.000000,0.000000,0.000000,-0.000003,-0.000000,0.000000,0.000000,0.000000,0.000000,819,819,819,819
7878,0,0.026618,0.022035,0.000000,-0.00,0.00,0.000028,0.006000,-0.001333,-0.001101,0.000000,0.000000,0.000000,0.000000,0.000000,-0.000003,-0.000000,0.000000,0.000000,0.000000,0.000000,819,819,819,819
7889,0,0.026618,0.022035,0.000000,-0.00,0.00,0.000009,0.005000,-0.001333,-0.001101,0.000000,0.000000,0.000000,0.000000,0.000000,-0.000003,-0.000000,0.000000,0.000000,0.000000,0.000000,819,819,819,819
7899,0,0.026618,0.022035,0.000000,-0.00,0.00,-0.000019,0.006000,-0.001332,-0.001101,0.000000,0.000000,0.000000,0.000000,0.000000,-0.000003,0.000000,0.000000,0.000000,0.000000,0.000000,819,819,819,819
7908,0,0.026617,0.022035,0.000000,-0.00,0.00,-0.000044,0.006000,-0.001332,-0.001101,0.000000,0.000000,0.000000,0.000000,0.000000,-0.000003,0.000000,0.000000,0.000000,0.000000,0.000000,819,819,819,819
7919,0,0.026617,0.022035,0.000000,-0.00,0.00,-0.000055,0.005000,-0.001332,-0.001101,0.000000,0.000000,0.000000,0.000000,0.000000,-0.000003,0.000000,0.000000,0.000000,0.000000,0.000000,819,819,819,819
7929,0,0.026617,0.022035,0.000000,-0.00,0.00,-0.000039,0.006000,-0.001332,-0.001102,0.000000,0.000000,0.000000,0.000000,0.000000,-0.000003,0.000000,0.000000,0.000000,0.000000,0.000000,819,819,819,819
7939,0,0.026617,0.022035,0.000000,-0.00,0.00,-0.000004,0.006000,-0.001332,-0.001102,0.000000,0.000000,0.000000,0.000000,0.000000,-0.000003,0.000000,0.000000,0.000000,0.000000,0.000000,819,819,819,819
7949,0,0.026617,0.022035,0.000000,-0.00,0.00,0.000043,0.005000,-0.001332,-0.001102,0.000000,0.000000,0.000000,0.000000,0.000000,-0.000003,-0.000000,0.000000,0.000000,0.000000,0.000000,819,819,819,819
7959,0,0.026617,0.022035,0.000000,-0.00,0.00,0.000084,0.005000,-0.001332,-0.001102,0.000000,0.000000,0.000000,0.000000,0.000000,-0.000003,-0.000001,0.000000,0.000000,0.000000,0.000000,819,819,819,819
7969,0,0.026617,0.022035,0.000000,-0.00,0.00,0.000112,0.005000,-0.001332,-0.001101,0.000000,0.000000,0.000000,0.000000,0.000000,-0.000003,-0.000001,0.000000,0.000000,0.000000,0.000000,819,819,819,819
7979,0,0.026398,0.022035,0.000000,-0.00,0.00,0.000120,0.005000,-0.001330,-0.001102,0.000000,0.000000,0.000000,0.000000,0.000000,-0.000003,-0.000001,0.000000,0.000000,0.000000,0.000000,819,819,819,819
7989,0,0.026224,0.022035,0.000000,-0.00,-0.00,0.000108,0.006000,-0.001327,-0.001102,0.000000,0.000000,0.000000,0.000000,0.000000,-0.000003,-0.000001,0.000000,0.000000,0.000000,0.000000,819,819,819,819
7999,0,0.026084,0.022035,0.000000,-0.00,-0.00,0.000086,0.006000,-0.001324,-0.001102,0.000000,0.000000,0.000000,0.000000,0.000000,-0.000003,-0.000001,0.000000,0.000000,0.000000,0.000000,819,819,819,819
8009,0,0.025972,0.022035,0.000000,-0.00,-0.00,0.000059,0.006000,-0.001321,-0.001102,0.000000,0.000000,0.000000,0.000000,0.000000,-0.000003,-0.000000,0.000000,0.000000,0.000000,0.000000,819,819,819,819
8026,0,0.025883,0.022035,0.000000,-0.00,-0.00,0.000034,0.005000,-0.001317,-0.001102,0.000000,0.000000,0.000000,0.000000,0.000000,-0.000003,-0.000000,0.000000,0.000000,0.000000,0.000000,819,819,819,819
8038,0,0.025811,0.022035,0.000000,-0.00,-0.00,0.000020,0.006000,-0.001313,-0.001102,0.000000,0.000000,0.000000,0.000000,0.000000,-0.000003,-0.000000,0.000000,0.000000,0.000000,0.000000,819,819,819,819
8049,0,0.025754,0.022035,0.000000,-0.00,-0.00,0.000021,0.006000,-0.001310,-0.001103,0.000000,0.000000,0.000000,0.000000,0.000000,-0.000003,-0.000000,0.000000,0.000000,0.000000,0.000000,819,819,819,819
8060,0,0.025708,0.022035,0.000000,-0.00,-0.00,0.000030,0.006000,-0.001307,-0.001103,0.000000,0.000000,0.000000,0.000000,0.000000,-0.000003,-0.000000,0.000000,0.000000,0.000000,0.000000,819,819,819,819
8070,0,0.025672,0.022035,0.000000,-0.00,-0.00,0.000049,0.006000,-0.001304,-0.001102,0.000000,0.000000,0.000000,0.000000,0.000000,-0.000003,-0.000000,0.000000,0.000000,0.000000,0.000000,819,819,819,819
8079,0,0.025643,0.022035,0.000000,-0.00,0.00,0.000066,0.005000,-0.001302,-0.001101,0.000000,0.000000,0.000000,0.000000,0.000000,-0.000003,-0.000000,0.000000,0.000000,0.000000,0.000000,819,819,819,819
8089,0,0.025619,0.022035,0.000000,-0.00,0.00,0.000067,0.005000,-0.001300,-0.001101,0.000000,0.000000,0.000000,0.000000,0.000000,-0.000003,-0.000000,0.000000,0.000000,0.000000,0.000000,819,819,819,819
8099,0,0.025600,0.022035,0.000000,-0.00,0.00,0.000055,0.005000,-0.001298,-0.001102,0.000000,0.000000,0.000000,0.000000,0.000000,-0.000003,-0.000000,0.000000,0.000000,0.000000,0.000000,819,819,819,819
8109,0,0.025585,0.022035,0.000000,-0.00,-0.00,0.000034,0.005000,-0.001296,-0.001102,0.000000,0.000000,0.000000,0.000000,0.000000,-0.000003,-0.000000,0.000000,0.000000,0.000000,0.000000,819,819,819,819
8119,0,0.025573,0.022035,0.000000,-0.00,-0.00,0.000020,0.006000,-0.001295,-0.001103,0.000000,0.000000,0.000000,0.000000,0.000000,-0.000003,-0.000000,0.000000,0.000000,0.000000,0.000000,819,819,819,819
8129,0,0.025564,0.022035,0.000000,-0.00,-0.00,0.000018,0.005000,-0.001293,-0.001103,0.000000,0.000000,0.000000,0.000000,0.000000,-0.000003,-0.000000,0.000000,0.000000,0.000000,0.000000,819,819,819,819
8139,0,0.025556,0.022035,0.000000,-0.00,-0.00,0.000027,0.005000,-0.001292,-0.001103,0.000000,0.000000,0.000000,0.000000,0.000000,-0.000003,-0.000000,0.000000,0.000000,0.000000,0.000000,819,819,819,819
8149,0,0.025550,0.022035,0.000000,-0.00,-0.00,0.000043,0.005000,-0.001290,-0.001103,0.000000,0.000000,0.000000,0.000000,0.000000,-0.000003,-0.000000,0.000000,0.000000,0.000000,0.000000,819,819,819,819
8159,0,0.025545,0.022035,0.000000,-0.00,-0.00,0.000058,0.005000,-0.001289,-0.001103,0.000000,0.000000,0.000000,0.000000,0.000000,-0.000003,-0.000000,0.000000,0.000000,0.000000,0.000000,819,819,819,819
8169,0,0.025541,0.022035,0.000000,-0.00,-0.00,0.000071,0.005000,-0.001288,-0.001103,0.000000,0.000000,0.000000,0.000000,0.000000,-0.000003,-0.000000,0.000000,0.000000,0.000000,0.000000,819,819,819,819
8179,0,0.025538,0.022035,0.000000,-0.00,-0.00,0.000073,0.006000,-0.001287,-0.001103,0.000000,0.000000,0.000000,0.000000,0.000000,-0.000003,-0.000000,0.000000,0.000000,0.000000,0.000000,819,819,819,819
8189,0,0.025536,0.022035,0.000000,-0.00,-0.00,0.000057,0.005000,-0.001286,-0.001103,0.000000,0.000000,0.000000,0.000000,0.000000,-0.000003,-0.000000,0.000000,0.000000,0.000000,0.000000,819,819,819,819
8199,0,0.025533,0.022035,0.000000,-0.00,-0.00,0.000023,0.005000,-0.001285,-0.001103,0.000000,0.000000,0.000000,0.000000,0.000000,-0.000003,-0.000000,0.000000,0.000000,0.000000,0.000000,819,819,819,819
8209,0,0.025532,0.022035,0.000000,-0.00,-0.00,-0.000025,0.005000,-0.001284,-0.001102,0.000000,0.000000,0.000000,0.000000,0.000000,-0.000003,0.000000,0.000000,0.000000,0.000000,0.000000,819,819,819,819
8219,0,0.025531,0.022035,0.000000,-0.00,0.00,-0.000071,0.006000,-0.001283,-0.001101,0.000000,0.000000,0.000000,0.000000,0.000000,-0.000003,0.000000,0.000000,0.000000,0.000000,0.000000,819,819,819,819
8229,0,0.025748,0.022035,0.000000,0.00,0.00,-0.000102,0.005000,-0.001285,-0.001100,0.000000,0.000000,0.000000,0.000000,0.000000,-0.000003,0.000001,0.000000,0.000000,0.000000,0.000000,819,819,819,819
8239,0,0.025921,0.022035,0.000000,0.00,0.00,-0.000103,0.005000,-0.001287,-0.001100,0.000000,0.000000,0.000000,0.000000,0.000000,-0.000003,0.000001,0.000000,0.000000,0.000000,0.000000,819,819,819,819
8249,0,0.026060,0.022035,0.000000,0.00,0.00,-0.000081,0.005000,-0.001289,-0.001101,0.000000,0.000000,0.000000,0.000000,0.000000,-0.000003,0.000000,0.000000,0.000000,0.000000,0.000000,819,819,819,819
8259,0,0.026172,0.022035,0.000000,0.00,0.00,-0.000033,0.005000,-0.001292,-0.001102,0.000000,0.000000,0.000000,0.000000,0.000000,-0.000003,0.000000,0.000000,0.000000,0.000000,0.000000,819,819,819,819
8269,0,0.026261,0.022035,0.000000,0.00,0.00,0.000013,0.005000,-0.001294,-0.001101,0.000000,0.000000,0.000000,0.000000,0.000000,-0.000003,-0.000000,0.000000,0.000000,0.000000,0.000000,819,819,819,819
8279,0,0.026114,0.022035,0.000000,0.00,0.00,0.000052,0.005000,-0.001295,-0.001101,0.000000,0.000000,0.000000,0.000000,0.000000,-0.000003,-0.000000,0.000000,0.000000,0.000000,0.000000,819,819,819,819
8290,0,0.025996,0.022035,0.000000,0.00,0.00,0.000070,0.005000,-0.001294,-0.001100,0.000000,0.000000,0.000000,0.000000,0.000000,-0.000003,-0.000000,0.000000,0.000000,0.000000,0.000000,819,819,819,819
8300,0,0.025902,0.022035,0.000000,0.00,0.00,0.000062,0.005000,-0.001294,-0.001101,0.000000,0.000000,0.000000,0.000000,0.000000,-0.000003,-0.000000,0.000000,0.000000,0.000000,0.000000,819,819,819,819
8310,0,0.025827,0.022035,0.000000,-0.00,0.00,0.000029,0.005000,-0.001293,-0.001101,0.000000,0.000000,0.000000,0.000000,0.000000,-0.000003,-0.000000,0.000000,0.000000,0.000000,0.000000,819,819,819,819
8320,0,0.025766,0.022035,0.000000,-0.00,0.00,-0.000005,0.006000,-0.001292,-0.001101,0.000000,0.000000,0.000000,0.000000,0.000000,-0.000003,0.000000,0.000000,0.000000,0.000000,0.000000,819,819,819,819
8330,0,0.025718,0.022035,0.000000,-0.00,0.00,-0.000022,0.006000,-0.001291,-0.001101,0.000000,0.000000,0.000000,0.000000,0.000000,-0.000003,0.000000,0.000000,0.000000,0.000000,0.000000,819,819,819,819
8347,0,0.025680,0.022035,0.000000,-0.00,0.00,-0.000011,0.006000,-0.001290,-0.001101,0.000000,0.000000,0.000000,0.000000,0.000000,-0.000003,0.000000,0.000000,0.000000,0.000000,0.000000,819,819,819,819
8357,0,0.025649,0.022035,0.000000,-0.00,0.00,0.000026,0.006000,-0.001289,-0.001101,0.000000,0.000000,0.000000,0.000000,0.000000,-0.000003,-0.000000,0.000000,0.000000,0.000000,0.000000,819,819,819,819
8366,0,0.025624,0.022035,0.000000,-0.00,0.00,0.000076,0.005000,-0.001288,-0.001102,0.000000,0.000000,0.000000,0.000000,0.000000,-0.000003,-0.000000,0.000000,0.000000,0.000000,0.000000,819,819,819,819
8378,0,0.025604,0.022035,0.000000,-0.00,0.00,0.000121,0.005000,-0.001287,-0.001102,0.000000,0.000000,0.000000,0.000000,0.000000,-0.000003,-0.000001,0.000000,0.000000,0.000000,0.000000,819,819,819,819
8390,0,0.025370,0.022035,0.000000,-0.00,0.00,0.000128,0.005000,-0.001283,-0.001101,0.000000,0.000000,0.000000,0.000000,0.000000,-0.000003,-0.000001,0.000000,0.000000,0.000000,0.000000,819,819,819,819
8400,0,0.025183,0.022035,0.000000,-0.00,0.00,0.000112,0.005000,-0.001280,-0.001101,0.000000,0.000000,0.000000,0.000000,0.000000,-0.000003,-0.000001,0.000000,0.000000,0.000000,0.000000,819,819,819,819
8410,0,0.025034,0.022035,0.000000,-0.00,0.00,0.000083,0.005000,-0.001276,-0.001100,0.000000,0.000000,0.000000,0.000000,0.000000,-0.000003,-0.000000,0.000000,0.000000,0.000000,0.000000,819,819,819,819
8420,0,0.024914,0.022035,0.000000,-0.00,0.00,0.000059,0.005000,-0.001272,-0.001100,0.000000,0.000000,0.000000,0.000000,0.000000,-0.000003,-0.000000,0.000000,0.000000,0.000000,0.000000,819,819,819,819
8430,0,0.024818,0.022035,0.000000,-0.00,0.00,0.000048,0.006000,-0.001269,-0.001100,0.000000,0.000000,0.000000,0.000000,0.000000,-0.000003,-0.000000,0.000000,0.000000,0.000000,0.000000,819,819,819,819
8440,0,0.024741,0.022035,0.000000,-0.00,0.00,0.000038,0.006000,-0.001265,-0.001100,0.000000,0.000000,0.000000,0.000000,0.000000,-0.000003,-0.000000,0.000000,0.000000,0.000000,0.000000,819,819,819,819
8450,0,0.024680,0.022035,0.000000,-0.00,0.00,0.000020,0.006000,-0.001262,-0.001100,0.000000,0.000000,0.000000,0.000000,0.000000,-0.000003,-0.000000,0.000000,0.000000,0.000000,0.000000,819,819,819,819
8460,0,0.024631,0.022035,0.000000,-0.00,0.00,-0.000011,0.006000,-0.001259,-0.001100,0.000000,0.000000,0.000000,0.000000,0.000000,-0.000003,0.000000,0.000000,0.000000,0.000000,0.000000,819,819,819,819
8470,0,0.024810,0.022035,0.000000,-0.00,0.00,-0.000046,0.006000,-0.001258,-0.001100,0.000000,0.000000,0.000000,0.000000,0.000000,-0.000003,0.000000,0.000000,0.000000,0.000000,0.000000,819,819,819,819
8480,0,0.024953,0.022035,0.000000,-0.00,0.00,-0.000083,0.006000,-0.001257,-0.001100,0.000000,0.000000,0.000000,0.000000,0.000000,-0.000003,0.000000,0.000000,0.000000,0.000000,0.000000,819,819,819,819
8490,0,0.025067,0.022035,0.000000,-0.00,0.00,-0.000108,0.006000,-0.001258,-0.001100,0.000000,0.000000,0.000000,0.000000,0.000000,-0.000003,0.000001,0.000000,0.000000,0.000000,0.000000,819,819,819,819
8500,0,0.025159,0.022035,0.000000,-0.00,0.00,-0.000119,0.006000,-0.001258,-0.001100,0.000000,0.000000,0.000000,0.000000,0.000000,-0.000003,0.000001,0.000000,0.000000,0.000000,0.000000,819,819,819,819
8510,0,0.025232,0.022035,0.000000,0.00,0.00,-0.000130,0.006000,-0.001259,-0.001100,0.000000,0.000000,0.000000,0.000000,0.000000,-0.000003,0.000001,0.000000,0.000000,0.000000,0.000000,819,819,819,819
8520,0,0.025291,0.022035,0.000000,0.00,0.00,-0.000135,0.006000,-0.001260,-0.001100,0.000000,0.000000,0.000000,0.000000,0.000000,-0.000003,0.000001,0.000000,0.000000,0.000000,0.000000,819,819,819,819
8530,0,0.025556,0.022035,0.000000,0.00,0.00,-0.000135,0.006000,-0.001263,-0.001101,0.000000,0.000000,0.000000,0.000000,0.000000,-0.000003,0.000001,0.000000,0.000000,0.000000,0.000000,819,819,819,819
8540,0,0.025768,0.022035,0.000000,0.00,0.00,-0.000126,0.006000,-0.001267,-0.001101,0.000000,0.000000,0.000000,0.000000,0.000000,-0.000003,0.000001,0.000000,0.000000,0.000000,0.000000,819,819,819,819
8550,0,0.025938,0.022035,0.000000,0.00,0.00,-0.000103,0.006000,-0.001270,-0.001101,0.000000,0.000000,0.000000,0.000000,0.000000,-0.000003,0.000001,0.000000,0.000000,0.000000,0.000000,819,819,819,819
8560,0,0.026073,0.022035,0.000000,0.00,0.00,-0.000068,0.006000,-0.001274,-0.001101,0.000000,0.000000,0.000000,0.000000,0.000000,-0.000003,0.000000,0.000000,0.000000,0.000000,0.000000,819,819,819,819
8570,0,0.025964,0.022035,0.000000,0.00,0.00,-0.000036,0.006000,-0.001276,-0.001100,0.000000,0.000000,0.000000,0.000000,0.000000,-0.000003,0.000000,0.000000,0.000000,0.000000,0.000000,819,819,819,819
8580,0,0.025876,0.022035,0.000000,0.00,0.00,-0.000011,0.006000,-0.001277,-0.001100,0.000000,0.000000,0.000000,0.000000,0.000000,-0.000003,0.000000,0.000000,0.000000,0.000000,0.000000,819,819,819,819
8590,0,0.025806,0.022035,0.000000,0.00,0.00,-0.000001,0.006000,-0.001278,-0.001100,0.000000,0.000000,0.000000,0.000000,0.000000,-0.000003,0.000000,0.000000,0.000000,0.000000,0.000000,819,819,819,819
8600,0,0.025750,0.022035,0.000000,0.00,0.00,-0.000008,0.006000,-0.001279,-0.001101,0.000000,0.000000,0.000000,0.000000,0.000000,-0.000003,0.000000,0.000000,0.000000,0.000000,0.000000,819,819,819,819
8611,0,0.025705,0.022035,0.000000,0.00,0.00,-0.000022,0.006000,-0.001280,-0.001101,0.000000,0.000000,0.000000,0.000000,0.000000,-0.000003,0.000000,0.000000,0.000000,0.000000,0.000000,819,819,819,819
8621,0,0.025669,0.022035,0.000000,0.00,0.00,-0.000032,0.006000,-0.001280,-0.001101,0.000000,0.000000,0.000000,0.000000,0.000000,-0.000003,0.000000,0.000000,0.000000,0.000000,0.000000,819,819,819,819
8631,0,0.025640,0.022035,0.000000,0.00,0.00,-0.000037,0.006000,-0.001280,-0.001101,0.000000,0.000000,0.000000,0.000000,0.000000,-0.000003,0.000000,0.000000,0.000000,0.000000,0.000000,819,819,819,819
8641,0,0.025617,0.022035,0.000000,0.00,0.00,-0.000031,0.006000,-0.001280,-0.001101,0.000000,0.000000,0.000000,0.000000,0.000000,-0.000003,0.000000,0.000000,0.000000,0.000000,0.000000,819,819,819,819
8660,0,0.025599,0.022035,0.000000,0.00,0.00,-0.000021,0.007000,-0.001279,-0.001101,0.000000,0.000000,0.000000,0.000000,0.000000,-0.000003,0.000000,0.000000,0.000000,0.000000,0.000000,819,819,819,819
8670,0,0.025584,0.022035,0.000000,-0.00,0.00,-0.000008,0.007000,-0.001279,-0.001101,0.000000,0.000000,0.000000,0.000000,0.000000,-0.000003,0.000000,0.000000,0.000000,0.000000,0.000000,819,819,819,819
8680,0,0.025573,0.022035,0.000000,-0.00,0.00,0.000003,0.007000,-0.001279,-0.001101,0.000000,0.000000,0.000000,0.000000,0.000000,-0.000003,-0.000000,0.000000,0.000000,0.000000,0.000000,819,819,819,819
8691,0,0.025563,0.022035,0.000000,-0.00,0.00,0.000012,0.007000,-0.001279,-0.001101,0.000000,0.000000,0.000000,0.000000,0.000000,-0.000003,-0.000000,0.000000,0.000000,0.000000,0.000000,819,819,819,819
8701,0,0.025556,0.022035,0.000000,-0.00,0.00,0.000022,0.007000,-0.001279,-0.001101,0.000000,0.000000,0.000000,0.000000,0.000000,-0.000003,-0.000000,0.000000,0.000000,0.000000,0.000000,819,819,819,819
8711,0,0.025550,0.022035,0.000000,-0.00,0.00,0.000025,0.008000,-0.001278,-0.001101,0.000000,0.000000,0.000000,0.000000,0.000000,-0.000003,-0.000000,0.000000,0.000000,0.000000,0.000000,819,819,819,819
8721,0,0.025545,0.022035,0.000000,-0.00,-0.00,0.000028,0.007000,-0.001279,-0.001102,0.000000,0.000000,0.000000,0.000000,0.000000,-0.000003,-0.000000,0.000000,0.000000,0.000000,0.000000,819,819,819,819
8731,0,0.025541,0.022035,0.000000,-0.00,-0.00,0.000031,0.007000,-0.001278,-0.001102,0.000000,0.000000,0.000000,0.000000,0.000000,-0.000003,-0.000000,0.000000,0.000000,0.000000,0.000000,819,819,819,819
8741,0,0.025538,0.022035,0.000000,-0.00,-0.00,0.000033,0.007000,-0.001278,-0.001103,0.000000,0.000000,0.000000,0.000000,0.000000,-0.000003,-0.000000,0.000000,0.000000,0.000000,0.000000,819,819,819,819
8751,0,0.025535,0.022035,0.000000,-0.00,-0.00,0.000030,0.008000,-0.001278,-0.001103,0.000000,0.000000,0.000000,0.000000,0.000000,-0.000003,-0.000000,0.000000,0.000000,0.000000,0.000000,819,819,819,819
8761,0,0.025533,0.022035,0.000000,-0.00,-0.00,0.000013,0.008000,-0.001278,-0.001103,0.000000,0.000000,0.000000,0.000000,0.000000,-0.000003,-0.000000,0.000000,0.000000,0.000000,0.000000,819,819,819,819
8771,0,0.025532,0.022035,0.000000,-0.00,-0.00,-0.000008,0.008000,-0.001278,-0.001103,0.000000,0.000000,0.000000,0.000000,0.000000,-0.000003,0.000000,0.000000,0.000000,0.000000,0.000000,819,819,819,819
8781,0,0.025530,0.022035,0.000000,-0.00,-0.00,-0.000016,0.008000,-0.001278,-0.001102,0.000000,0.000000,0.000000,0.000000,0.000000,-0.000003,0.000000,0.000000,0.000000,0.000000,0.000000,819,819,819,819
8791,0,0.025529,0.022035,0.000000,-0.00,-0.00,-0.000009,0.008000,-0.001278,-0.001102,0.000000,0.000000,0.000000,0.000000,0.000000,-0.000003,0.000000,0.000000,0.000000,0.000000,0.000000,819,819,819,819
8801,0,0.025529,0.022035,0.000000,-0.00,-0.00,-0.000001,0.008000,-0.001278,-0.001103,0.000000,0.000000,0.000000,0.000000,0.000000,-0.000003,0.000000,0.000000,0.000000,0.000000,0.000000,819,819,819,819
8811,0,0.025528,0.022035,0.000000,-0.00,-0.00,0.000002,0.009000,-0.001278,-0.001103,0.000000,0.000000,0.000000,0.000000,0.000000,-0.000003,-0.000000,0.000000,0.000000,0.000000,0.000000,819,819,819,819
8821,0,0.025528,0.022035,0.000000,-0.00,-0.00,-0.000003,0.008000,-0.001278,-0.001103,0.000000,0.000000,0.000000,0.000000,0.000000,-0.000003,0.000000,0.000000,0.000000,0.000000,0.000000,819,819,819,819
8831,0,0.025527,0.022035,0.000000,-0.00,-0.00,-0.000016,0.008000,-0.001278,-0.001103,0.000000,0.000000,0.000000,0.000000,0.000000,-0.000003,0.000000,0.000000,0.000000,0.000000,0.000000,819,819,819,819
8841,0,0.025527,0.022035,0.000000,-0.00,-0.00,-0.000036,0.008000,-0.001277,-0.001103,0.000000,0.000000,0.000000,0.000000,0.000000,-0.000003,0.000000,0.000000,0.000000,0.000000,0.000000,819,819,819,819
8851,0,0.025527,0.022035,0.000000,-0.00,-0.00,-0.000047,0.009000,-0.001277,-0.001103,0.000000,0.000000,0.000000,0.000000,0.000000,-0.000003,0.000000,0.000000,0.000000,0.000000,0.000000,819,819,819,819
8861,0,0.025526,0.022035,0.000000,-0.00,-0.00,-0.000041,0.009000,-0.001277,-0.001103,0.000000,0.000000,0.000000,0.000000,0.000000,-0.000003,0.000000,0.000000,0.000000,0.000000,0.000000,819,819,819,819
8871,0,0.025526,0.022035,0.000000,-0.00,-0.00,-0.000017,0.009000,-0.001277,-0.001103,0.000000,0.000000,0.000000,0.000000,0.000000,-0.000003,0.000000,0.000000,0.000000,0.000000,0.000000,819,819,819,819
8881,0,0.025526,0.022035,0.000000,-0.00,-0.00,0.000008,0.008000,-0.001277,-0.001103,0.000000,0.000000,0.000000,0.000000,0.000000,-0.000003,-0.000000,0.000000,0.000000,0.000000,0.000000,819,819,819,819
8891,0,0.025526,0.022035,0.000000,-0.00,-0.00,0.000029,0.009000,-0.001277,-0.001102,0.000000,0.000000,0.000000,0.000000,0.000000,-0.000003,-0.000000,0.000000,0.000000,0.000000,0.000000,819,819,819,819
8901,0,0.025526,0.022035,0.000000,-0.00,-0.00,0.000039,0.009000,-0.001276,-0.001102,0.000000,0.000000,0.000000,0.000000,0.000000,-0.000003,-0.000000,0.000000,0.000000,0.000000,0.000000,819,819,819,819
8911,0,0.025526,0.022035,0.000000,-0.00,-0.00,0.000039,0.009000,-0.001276,-0.001102,0.000000,0.000000,0.000000,0.000000,0.000000,-0.000003,-0.000000,0.000000,0.000000,0.000000,0.000000,819,819,819,819
8921,0,0.025526,0.022035,0.000000,-0.00,-0.00,0.000033,0.009000,-0.001276,-0.001102,0.000000,0.000000,0.000000,0.000000,0.000000,-0.000003,-0.000000,0.000000,0.000000,0.000000,0.000000,819,819,819,819
8931,0,0.025526,0.022035,0.000000,-0.00,-0.00,0.000027,0.009000,-0.001276,-0.001102,0.000000,0.000000,0.000000,0.000000,0.000000,-0.000003,-0.000000,0.000000,0.000000,0.000000,0.000000,819,819,819,819
8941,0,0.025526,0.022035,0.000000,-0.00,-0.00,0.000026,0.009000,-0.001276,-0.001102,0.000000,0.000000,0.000000,0.000000,0.000000,-0.000003,-0.000000,0.000000,0.000000,0.000000,0.000000,819,819,819,819
8952,0,0.025526,0.022035,0.000000,-0.00,-0.00,0.000036,0.009000,-0.001277,-0.001103,0.000000,0.000000,0.000000,0.000000,0.000000,-0.000003,-0.000000,0.000000,0.000000,0.000000,0.000000,819,819,819,819
8961,0,0.025526,0.022035,0.000000,-0.00,-0.00,0.000045,0.009000,-0.001277,-0.001103,0.000000,0.000000,0.000000,0.000000,0.000000,-0.000003,-0.000000,0.000000,0.000000,0.000000,0.000000,819,819,819,819
8979,0,0.025526,0.022035,0.000000,-0.00,-0.00,0.000050,0.009000,-0.001277,-0.001103,0.000000,0.000000,0.000000,0.000000,0.000000,-0.000002,-0.000000,0.000000,0.000000,0.000000,0.000000,819,819,819,819
8990,0,0.025525,0.022035,0.000000,-0.00,-0.00,0.000051,0.009000,-0.001277,-0.001103,0.000000,0.000000,0.000000,0.000000,0.000000,-0.000002,-0.000000,0.000000,0.000000,0.000000,0.000000,819,819,819,819
9001,0,0.025525,0.022035,0.000000,-0.00,-0.00,0.000048,0.010000,-0.001277,-0.001103,0.000000,0.000000,0.000000,0.000000,0.000000,-0.000003,-0.000000,0.000000,0.000000,0.000000,0.000000,819,819,819,819
9011,0,0.025525,0.022035,0.000000,-0.00,-0.00,0.000043,0.010000,-0.001277,-0.001103,0.000000,0.000000,0.000000,0.000000,0.000000,-0.000003,-0.000000,0.000000,0.000000,0.000000,0.000000,819,819,819,819
9022,0,0.025525,0.022035,0.000000,-0.00,-0.00,0.000037,0.009000,-0.001276,-0.001103,0.000000,0.000000,0.000000,0.000000,0.000000,-0.000003,-0.000000,0.000000,0.000000,0.000000,0.000000,819,819,819,819
9032,0,0.025525,0.022035,0.000000,-0.00,-0.00,0.000027,0.009000,-0.001277,-0.001103,0.000000,0.000000,0.000000,0.000000,0.000000,-0.000003,-0.000000,0.000000,0.000000,0.000000,0.000000,819,819,819,819
9042,0,0.025525,0.022035,0.000000,-0.00,-0.00,0.000017,0.009000,-0.001277,-0.001103,0.000000,0.000000,0.000000,0.000000,0.000000,-0.000002,-0.000000,0.000000,0.000000,0.000000,0.000000,819,819,819,819
9052,0,0.025525,0.022035,0.000000,-0.00,-0.00,0.000010,0.009000,-0.001277,-0.001103,0.000000,0.000000,0.000000,0.000000,0.000000,-0.000002,-0.000000,0.000000,0.000000,0.000000,0.000000,819,819,819,819
9062,0,0.025525,0.022035,0.000000,-0.00,-0.00,0.000003,0.009000,-0.001277,-0.001103,0.000000,0.000000,0.000000,0.000000,0.000000,-0.000002,-0.000000,0.000000,0.000000,0.000000,0.000000,819,819,819,819
9072,0,0.025525,0.022035,0.000000,-0.00,-0.00,0.000007,0.009000,-0.001277,-0.001102,0.000000,0.000000,0.000000,0.000000,0.000000,-0.000003,-0.000000,0.000000,0.000000,0.000000,0.000000,819,819,819,819
9082,0,0.025525,0.022035,0.000000,-0.00,-0.00,0.000010,0.010000,-0.001277,-0.001102,0.000000,0.000000,0.000000,0.000000,0.000000,-0.000003,-0.000000,0.000000,0.000000,0.000000,0.000000,819,819,819,819
9092,0,0.025525,0.022035,0.000000,-0.00,-0.00,0.000014,0.010000,-0.001277,-0.001102,0.000000,0.000000,0.000000,0.000000,0.000000,-0.000003,-0.000000,0.000000,0.000000,0.000000,0.000000,819,819,819,819
9102,0,0.025525,0.022035,0.000000,-0.00,-0.00,0.000015,0.010000,-0.001277,-0.001102,0.000000,0.000000,0.000000,0.000000,0.000000,-0.000003,-0.000000,0.000000,0.000000,0.000000,0.000000,819,819,819,819
9112,0,0.025525,0.022035,0.000000,-0.00,-0.00,0.000011,0.010000,-0.001277,-0.001102,0.000000,0.000000,0.000000,0.000000,0.000000,-0.000003,-0.000000,0.000000,0.000000,0.000000,0.000000,819,819,819,819
9122,0,0.025525,0.022035,0.000000,-0.00,-0.00,0.000005,0.010000,-0.001277,-0.001102,0.000000,0.000000,0.000000,0.000000,0.000000,-0.000002,-0.000000,0.000000,0.000000,0.000000,0.000000,819,819,819,819
9132,0,0.025525,0.022035,0.000000,-0.00,-0.00,0.000000,0.010000,-0.001277,-0.001102,0.000000,0.000000,0.000000,0.000000,0.000000,-0.000002,-0.000000,0.000000,0.000000,0.000000,0.000000,819,819,819,819
9142,0,0.025525,0.022035,0.000000,-0.00,-0.00,0.000003,0.013000,-0.001276,-0.001102,0.000000,0.000000,0.000000,0.000000,0.000000,-0.000002,-0.000000,0.000000,0.000000,0.000000,0.000000,819,819,819,819
9152,0,0.025525,0.022035,0.000000,0.00,-0.00,0.000002,0.029000,-0.001276,-0.001102,0.000000,0.000000,0.000000,0.000000,0.000000,-0.000002,-0.000000,0.028997,0.029002,0.028998,0.029003,842,883,859,883
9162,0,0.025525,0.022035,0.000000,0.00,-0.00,0.000002,0.029000,-0.001276,-0.001102,0.000000,0.000000,0.000000,0.000000,0.000000,-0.000002,-0.000000,0.028997,0.029002,0.028998,0.029003,842,883,859,883
9172,0,0.025525,0.022035,0.000000,-0.00,-0.00,0.000000,0.074000,-0.001277,-0.001102,0.000000,0.000000,0.000000,0.000000,0.000000,-0.000002,-0.000000,0.073997,0.074002,0.073998,0.074003,879,920,896,920
9182,0,0.025525,0.022035,0.000000,-0.00,-0.00,0.000004,0.088000,-0.001277,-0.001102,0.000000,0.000000,0.000000,0.000000,0.000000,-0.000002,-0.000000,0.087997,0.088002,0.087998,0.088003,891,932,907,932
9192,0,0.025525,0.022035,0.000000,-0.00,-0.00,0.000011,0.088000,-0.001277,-0.001102,0.000000,0.000000,0.000000,0.000000,0.000000,-0.000002,-0.000000,0.087997,0.088002,0.087998,0.088003,891,932,907,932
9202,0,0.025525,0.022035,0.000000,-0.00,-0.00,0.000020,0.088000,-0.001277,-0.001103,0.000000,0.000000,0.000000,0.000000,0.000000,-0.000002,-0.000000,0.087997,0.088002,0.087998,0.088003,891,932,907,932
9212,0,0.025525,0.022035,0.000000,-0.00,-0.00,0.000031,0.126000,-0.001277,-0.001103,0.000000,0.000000,0.000000,0.000000,0.000000,-0.000002,-0.000000,0.125997,0.126002,0.125999,0.126003,922,963,938,963
9222,0,0.025525,0.022035,0.000000,-0.00,-0.00,0.000041,0.126000,-0.001276,-0.001102,0.000000,0.000000,0.000000,0.000000,0.000000,-0.000002,-0.000000,0.125996,0.126002,0.125999,0.126003,922,963,938,963
9232,0,0.025525,0.022035,0.000000,0.00,0.00,0.000046,0.126000,-0.001276,-0.001102,0.000000,0.000000,0.000000,0.000000,0.000000,-0.000002,-0.000000,0.125996,0.126002,0.125999,0.126003,922,963,938,963
9242,0,0.025525,0.022035,0.000000,-0.00,0.00,0.000074,0.132000,-0.001277,-0.001102,0.000000,0.000000,0.000000,0.000000,0.000000,-0.000003,-0.000000,0.131996,0.132003,0.131999,0.132002,927,968,943,968
9252,0,0.025525,0.022035,0.000000,-0.00,-0.00,0.000109,0.132000,-0.001279,-0.001102,0.000000,0.000000,0.000000,0.000000,0.000000,-0.000002,-0.000001,0.131996,0.132003,0.131999,0.132002,927,968,943,968
9262,0,0.025525,0.022035,0.000000,-0.00,-0.00,0.000113,0.132000,-0.001278,-0.001103,0.000000,0.000000,0.000000,0.000000,0.000000,-0.000002,-0.000001,0.131996,0.132003,0.131999,0.132002,927,968,943,968
9272,0,0.025525,0.022035,0.000000,-0.00,-0.00,0.000091,0.132000,-0.001278,-0.001103,0.000000,0.000000,0.000000,0.000000,0.000000,-0.000002,-0.000000,0.131996,0.132003,0.131999,0.132002,927,968,943,968
9282,0,0.025525,0.022035,0.000000,-0.00,-0.00,0.000099,0.132000,-0.001277,-0.001102,0.000000,0.000000,0.000000,0.000000,0.000000,-0.000002,-0.000001,0.131996,0.132003,0.131999,0.132002,927,968,943,968
9300,0,0.025525,0.022035,0.000000,-0.00,-0.00,0.000073,0.132000,-0.001277,-0.001102,0.000000,0.000000,0.000000,0.000000,0.000000,-0.000002,-0.000000,0.131996,0.132003,0.131999,0.132002,927,968,943,968
9312,0,0.025525,0.022035,0.000000,0.00,-0.00,0.000037,0.132000,-0.001276,-0.001102,0.000000,0.000000,0.000000,0.000000,0.000000,-0.000002,-0.000000,0.131996,0.132002,0.131999,0.132003,927,968,943,968
9322,0,0.025525,0.022035,0.000000,0.00,-0.00,-0.000024,0.132000,-0.001274,-0.001102,0.000000,0.000000,0.000000,0.000000,0.000000,-0.000002,0.000000,0.131997,0.132002,0.131998,0.132003,927,968,943,968
9332,0,0.025525,0.022035,0.000000,0.00,-0.00,-0.000063,0.132000,-0.001273,-0.001102,0.000000,0.000000,0.000000,0.000000,0.000000,-0.000002,0.000000,0.131998,0.132001,0.131998,0.132004,927,968,943,968
9343,0,0.025525,0.022035,0.000000,0.00,0.00,-0.000094,0.133000,-0.001271,-0.001102,0.000000,0.000000,0.000000,0.000000,0.000000,-0.000002,0.000001,0.132998,0.133001,0.132997,0.133004,928,969,944,969
9353,0,0.025744,0.022035,0.000000,0.00,0.00,-0.000056,0.133000,-0.001268,-0.001101,0.000000,0.000000,0.000000,0.000000,0.000000,-0.000003,0.000000,0.132997,0.133001,0.132998,0.133004,928,969,944,969
9362,0,0.025700,0.022035,0.000000,0.00,0.00,0.000038,0.133000,-0.001262,-0.001098,0.000000,0.000000,0.000000,0.000000,0.000000,-0.000003,-0.000000,0.132996,0.133002,0.132999,0.133003,928,969,944,969
9373,0,0.025665,0.021817,1.256419,0.00,0.00,0.000027,0.134000,-0.001261,-0.001090,0.000000,0.000000,0.000000,0.000000,0.000000,-0.000002,-0.000000,0.133996,0.134002,0.133999,0.134003,928,969,945,969
9383,0,0.025637,0.021642,2.261554,0.00,-0.00,-0.000089,0.135000,-0.001267,-0.001083,0.000000,0.000000,0.000000,0.000000,0.000000,-0.000002,0.000000,0.134998,0.135001,0.134997,0.135004,929,970,946,970
9393,0,0.025615,0.021502,3.065662,0.00,-0.00,-0.000131,0.135000,-0.001280,-0.001079,0.000000,0.000000,0.000000,0.000000,0.000000,-0.000002,0.000001,0.134998,0.135000,0.134997,0.135004,929,970,946,970
9403,0,0.025815,0.021391,2.452530,-0.00,-0.00,0.000002,0.135000,-0.001297,-0.001078,0.000000,0.000000,0.000000,0.000000,0.000000,-0.000002,-0.000000,0.134997,0.135001,0.134999,0.135003,929,970,946,970
9413,0,0.025539,0.021301,1.962460,-0.00,-0.00,0.000154,0.136000,-0.001314,-0.001076,0.000000,0.000000,0.000000,0.000000,0.000000,-0.000002,-0.000002,0.135996,0.136003,0.136000,0.136001,930,971,946,971
9423,0,0.025318,0.021230,1.570841,-0.00,-0.00,0.000165,0.136000,-0.001327,-0.001075,0.000000,0.000000,0.000000,0.000000,0.000000,-0.000002,-0.000002,0.135996,0.136003,0.136000,0.136000,930,971,946,971
9433,0,0.025141,0.021173,1.257545,-0.00,-0.00,0.000030,0.136000,-0.001331,-0.001072,0.000000,0.000000,0.000000,0.000000,0.000000,-0.000002,-0.000000,0.135998,0.136002,0.135999,0.136002,930,971,946,971
9443,0,0.025218,0.021127,1.006909,-0.00,-0.00,-0.000178,0.136000,-0.001329,-0.001070,0.000000,0.000000,0.000000,0.000000,0.000000,-0.000002,0.000002,0.136000,0.136000,0.135997,0.136004,930,971,946,971
9453,0,0.025498,0.021090,0.806618,-0.00,-0.00,-0.000316,0.136000,-0.001324,-0.001067,0.000000,0.000000,0.000000,0.000000,0.000000,-0.000002,0.000003,0.136001,0.135998,0.135995,0.136005,930,971,946,971
9463,0,0.025940,0.021061,0.646385,-0.00,-0.00,-0.000324,0.136000,-0.001323,-0.001061,0.000000,0.000000,0.000000,0.000000,0.000000,-0.000002,0.000003,0.136001,0.135998,0.135995,0.136006,930,971,946,971
9473,0,0.026293,0.021038,0.518199,-0.00,-0.00,-0.000225,0.136000,-0.001323,-0.001057,0.000000,0.000000,0.000000,0.000000,0.000000,-0.000002,0.000002,0.136000,0.135999,0.135996,0.136005,930,971,946,971
9483,0,0.026576,0.020801,0.415650,0.00,-0.00,-0.000129,0.136000,-0.001326,-0.001050,0.000000,0.000000,0.000000,0.000000,0.000000,-0.000002,0.000001,0.135999,0.136000,0.135998,0.136004,930,971,946,971
9495,0,0.026584,0.020611,0.333611,0.00,-0.00,-0.000050,0.136000,-0.001329,-0.001045,0.000000,0.000000,0.000000,0.000000,0.000000,-0.000002,0.000000,0.135998,0.136000,0.135999,0.136003,930,971,946,971
9504,0,0.026590,0.020678,0.267980,-0.00,-0.00,0.000024,0.136000,-0.001330,-0.001047,0.000000,0.000000,0.000000,0.000000,0.000000,-0.000002,-0.000000,0.135997,0.136001,0.135999,0.136002,930,971,946,971
9514,0,0.026377,0.020731,0.215475,-0.00,-0.00,0.000067,0.136000,-0.001329,-0.001047,0.000000,0.000000,0.000000,0.000000,0.000000,-0.000002,-0.000000,0.135997,0.136002,0.135999,0.136002,930,971,946,971
9523,0,0.026207,0.020555,0.173470,-0.00,-0.00,0.000046,0.136000,-0.001327,-0.001040,0.000000,0.000000,0.000000,0.000000,0.000000,-0.000002,-0.000000,0.135997,0.136002,0.135999,0.136002,930,971,946,971
9533,0,0.026071,0.020415,0.139867,-0.00,-0.00,0.000054,0.136000,-0.001325,-0.001034,0.000000,0.000000,0.000000,0.000000,0.000000,-0.000002,-0.000000,0.135997,0.136002,0.135999,0.136002,930,971,946,971
9543,0,0.025962,0.020303,0.112985,-0.00,-0.00,0.000063,0.136000,-0.001322,-0.001029,0.000000,0.000000,0.000000,0.000000,0.000000,-0.000002,-0.000000,0.135997,0.136002,0.136000,0.136002,930,971,946,971
9553,0,0.025874,0.020213,0.091479,-0.00,-0.00,0.000130,0.136000,-0.001319,-0.001025,0.000000,0.000000,0.000000,0.000000,0.000000,-0.000002,-0.000001,0.135997,0.136002,0.136000,0.136001,930,971,946,971
9563,0,0.025805,0.020141,0.074274,-0.00,-0.00,0.000188,0.136000,-0.001316,-0.001023,0.000000,0.000000,0.000000,0.000000,0.000000,-0.000002,-0.000002,0.135996,0.136003,0.136001,0.136000,930,971,946,971
9573,0,0.025749,0.020083,0.060510,-0.00,-0.00,0.000170,0.136000,-0.001313,-0.001020,0.000000,0.000000,0.000000,0.000000,0.000000,-0.000002,-0.000002,0.135996,0.136003,0.136001,0.136000,930,971,946,971
9583,0,0.025704,0.020037,0.049499,-0.00,-0.00,0.000192,0.136000,-0.001311,-0.001019,0.000000,0.000000,0.000000,0.000000,0.000000,-0.000001,-0.000002,0.135996,0.136003,0.136001,0.136000,930,971,946,971
9593,0,0.025450,0.020219,0.040690,-0.00,-0.00,0.000212,0.136000,-0.001308,-0.001021,0.000000,0.000000,0.000000,0.000000,0.000000,-0.000002,-0.000002,0.135996,0.136003,0.136001,0.136000,930,971,946,971
9608,0,0.025247,0.020145,0.033643,-0.00,-0.00,0.000197,0.136000,-0.001302,-0.001017,0.000000,0.000000,0.000000,0.000000,0.000000,-0.000002,-0.000002,0.135996,0.136003,0.136001,0.136000,930,971,946,971
9620,0,0.025085,0.020087,0.028005,-0.00,-0.00,0.000146,0.136000,-0.001296,-0.001014,0.000000,0.000000,0.000000,0.000000,0.000000,-0.000002,-0.000001,0.135996,0.136003,0.136000,0.136001,930,971,946,971
9632,0,0.025173,0.020040,0.023495,-0.00,-0.00,0.000047,0.136000,-0.001293,-0.001011,0.000000,0.000000,0.000000,0.000000,0.000000,-0.000002,-0.000000,0.135997,0.136002,0.135999,0.136002,930,971,946,971
9643,0,0.025243,0.020221,0.019887,-0.00,-0.00,-0.000001,0.136000,-0.001291,-0.001016,0.000000,0.000000,0.000000,0.000000,0.000000,-0.000002,0.000000,0.135998,0.136001,0.135998,0.136002,930,971,946,971
9653,0,0.025300,0.020366,0.017000,-0.00,-0.00,0.000008,0.136000,-0.001291,-0.001019,0.000000,0.000000,0.000000,0.000000,0.000000,-0.000002,-0.000000,0.135997,0.136002,0.135998,0.136003,930,971,946,971
9665,0,0.025563,0.020481,0.014909,-0.00,0.00,-0.000025,0.136000,-0.001294,-0.001021,0.000000,0.000000,0.000000,0.000000,0.000000,-0.000002,0.000000,0.135997,0.136002,0.135998,0.136003,930,971,946,971
9675,0,0.025774,0.020574,0.013236,-0.00,0.00,-0.000041,0.136000,-0.001295,-0.001023,0.000000,0.000000,0.000000,0.000000,0.000000,-0.000002,0.000000,0.135997,0.136001,0.135998,0.136004,930,971,946,971
9684,0,0.025942,0.020648,0.011680,0.00,0.00,-0.000026,0.136000,-0.001294,-0.001024,0.000000,0.000000,0.000000,0.000000,0.000000,-0.000003,0.000000,0.135997,0.136002,0.135998,0.136004,930,971,946,971
9694,0,0.026077,0.020489,0.010435,0.00,0.00,-0.000013,0.136000,-0.001295,-0.001019,0.000000,0.000000,0.000000,0.000000,0.000000,-0.000002,0.000000,0.135997,0.136002,0.135998,0.136003,930,971,946,971
9704,0,0.025967,0.020362,0.009439,0.00,0.00,0.000025,0.136000,-0.001295,-0.001017,0.000000,0.000000,0.000000,0.000000,0.000000,-0.000002,-0.000000,0.135997,0.136002,0.135999,0.136003,930,971,946,971
9713,0,0.025878,0.020260,0.008642,-0.00,-0.00,0.000031,0.136000,-0.001295,-0.001015,0.000000,0.000000,0.000000,0.000000,0.000000,-0.000002,-0.000000,0.135997,0.136002,0.135999,0.136002,930,971,946,971
9724,0,0.025808,0.020179,0.008004,-0.00,-0.00,0.000050,0.136000,-0.001294,-0.001013,0.000000,0.000000,0.000000,0.000000,0.000000,-0.000002,-0.000000,0.135997,0.136002,0.135999,0.136002,930,971,946,971
9734,0,0.025751,0.020114,0.007494,-0.00,-0.00,0.000049,0.136000,-0.001292,-0.001012,0.000000,0.000000,0.000000,0.000000,0.000000,-0.000002,-0.000000,0.135997,0.136002,0.135999,0.136002,930,971,946,971
9744,0,0.025706,0.020061,0.007086,-0.00,-0.00,0.000053,0.136000,-0.001292,-0.001009,0.000000,0.000000,0.000000,0.000000,0.000000,-0.000002,-0.000000,0.135997,0.136002,0.135999,0.136002,930,971,946,971
9754,0,0.025670,0.020020,0.006760,-0.00,-0.00,0.000007,0.136000,-0.001292,-0.001006,0.000000,0.000000,0.000000,0.000000,0.000000,-0.000002,-0.000000,0.135997,0.136001,0.135999,0.136002,930,971,946,971
9764,0,0.025859,0.019986,0.006717,-0.00,-0.00,-0.000007,0.136000,-0.001294,-0.001004,0.000000,0.000000,0.000000,0.000000,0.000000,-0.000002,0.000000,0.135997,0.136001,0.135999,0.136003,930,971,946,971
9774,0,0.026011,0.019960,0.006682,0.00,-0.00,-0.000080,0.136000,-0.001294,-0.001004,0.000000,0.000000,0.000000,0.000000,0.000000,-0.000002,0.000000,0.135998,0.136000,0.135998,0.136003,930,971,946,971
9784,0,0.026132,0.019938,0.006655,0.00,-0.00,-0.000118,0.136000,-0.001296,-0.001003,0.000000,0.000000,0.000000,0.000000,0.000000,-0.000002,0.000001,0.135999,0.136000,0.135998,0.136004,930,971,946,971
9794,0,0.026229,0.019921,0.006633,0.00,-0.00,-0.000148,0.136000,-0.001297,-0.001000,0.000000,0.000000,0.000000,0.000000,0.000000,-0.000002,0.000001,0.135999,0.136000,0.135997,0.136004,930,971,946,971
9804,0,0.026524,0.019908,0.006397,0.00,-0.00,-0.000167,0.136000,-0.001302,-0.000999,0.000000,0.000000,0.000000,0.000000,0.000000,-0.000002,0.000002,0.135999,0.136000,0.135997,0.136005,930,971,946,971
9814,0,0.026543,0.019897,0.006209,0.00,-0.00,-0.000122,0.136000,-0.001305,-0.000998,0.000000,0.000000,0.000000,0.000000,0.000000,-0.000002,0.000001,0.135998,0.136000,0.135998,0.136004,930,971,946,971
9824,0,0.026557,0.019888,0.006276,0.00,-0.00,-0.000058,0.136000,-0.001308,-0.000999,0.000000,0.000000,0.000000,0.000000,0.000000,-0.000002,0.000000,0.135998,0.136001,0.135998,0.136003,930,971,946,971
9834,0,0.026569,0.019881,0.006330,0.00,-0.00,-0.000016,0.136000,-0.001311,-0.000999,0.000000,0.000000,0.000000,0.000000,0.000000,-0.000002,0.000000,0.135997,0.136001,0.135999,0.136003,930,971,946,971
9844,0,0.026579,0.019875,0.006373,0.00,-0.00,0.000011,0.136000,-0.001312,-0.000995,0.000000,0.000000,0.000000,0.000000,0.000000,-0.000002,-0.000000,0.135997,0.136001,0.135999,0.136003,930,971,946,971
9854,0,0.026586,0.019871,0.006189,0.00,0.00,0.000006,0.136000,-0.001312,-0.000993,0.000000,0.000000,0.000000,0.000000,0.000000,-0.000002,-0.000000,0.135997,0.136001,0.135999,0.136003,930,971,946,971
9864,0,0.026592,0.019867,0.006042,0.00,-0.00,-0.000005,0.136000,-0.001312,-0.000994,0.000000,0.000000,0.000000,0.000000,0.000000,-0.000002,0.000000,0.135997,0.136001,0.135999,0.136003,930,971,946,971
9874,0,0.026597,0.019865,0.005924,0.00,-0.00,0.000048,0.136000,-0.001314,-0.000994,0.000000,0.000000,0.000000,0.000000,0.000000,-0.000002,-0.000000,0.135997,0.136002,0.135999,0.136002,930,971,946,971
9884,0,0.026601,0.019862,0.005830,0.00,-0.00,0.000041,0.136000,-0.001318,-0.000994,0.000000,0.000000,0.000000,0.000000,0.000000,-0.000002,-0.000000,0.135997,0.136002,0.135999,0.136002,930,971,946,971
9894,0,0.026604,0.019860,0.005755,0.00,-0.00,0.000059,0.136000,-0.001323,-0.000994,0.000000,0.000000,0.000000,0.000000,0.000000,-0.000002,-0.000000,0.135997,0.136002,0.135999,0.136002,930,971,946,971
9904,0,0.026388,0.019859,0.005913,-0.00,-0.00,0.000028,0.136000,-0.001321,-0.000994,0.000000,0.000000,0.000000,0.000000,0.000000,-0.000002,-0.000000,0.135997,0.136002,0.135999,0.136002,930,971,946,971
9914,0,0.026434,0.019858,0.006039,0.00,-0.00,-0.000065,0.136000,-0.001319,-0.000995,0.000000,0.000000,0.000000,0.000000,0.000000,-0.000002,0.000000,0.135998,0.136001,0.135998,0.136003,930,971,946,971
9931,0,0.026688,0.019857,0.005922,0.00,-0.00,-0.000144,0.136000,-0.001324,-0.000996,0.000000,0.000000,0.000000,0.000000,0.000000,-0.000002,0.000001,0.135999,0.136000,0.135997,0.136004,930,971,946,971
9943,0,0.026674,0.019856,0.005829,0.00,0.00,-0.000036,0.136000,-0.001325,-0.000992,0.000000,0.000000,0.000000,0.000000,0.000000,-0.000002,0.000000,0.135998,0.136001,0.135998,0.136003,930,971,946,971
9955,0,0.026662,0.019637,0.005754,0.00,-0.00,-0.000020,0.136000,-0.001327,-0.000987,0.000000,0.000000,0.000000,0.000000,0.000000,-0.000002,0.000000,0.135998,0.136001,0.135999,0.136003,930,971,946,971
9964,0,0.026653,0.019462,0.005694,0.00,-0.00,-0.000036,0.136000,-0.001328,-0.000985,0.000000,0.000000,0.000000,0.000000,0.000000,-0.000002,0.000000,0.135998,0.136001,0.135999,0.136003,930,971,946,971
9974,0,0.026428,0.019540,0.005646,-0.00,-0.00,-0.000011,0.137000,-0.001325,-0.000986,0.000000,0.000000,0.000000,0.000000,0.000000,-0.000002,0.000000,0.136998,0.137001,0.136999,0.137002,931,972,947,972
9984,0,0.026247,0.019603,0.005608,-0.00,-0.00,0.000113,0.137000,-0.001321,-0.000985,0.000000,0.000000,0.000000,0.000000,0.000000,-0.000002,-0.000001,0.136996,0.137002,0.137000,0.137001,931,972,947,972
9994,0,0.026103,0.019653,0.005577,-0.00,-0.00,0.000167,0.137000,-0.001319,-0.000985,0.000000,0.000000,0.000000,0.000000,0.000000,-0.000002,-0.000002,0.136996,0.137003,0.137000,0.137001,931,972,947,972
10004,0,0.025769,0.019475,0.005552,-0.00,-0.00,0.000079,0.138000,-0.001316,-0.000982,0.000000,0.000000,0.000000,0.000000,0.000000,-0.000002,-0.000000,0.137997,0.138002,0.138000,0.138001,932,973,948,973
10014,0,0.025720,0.019551,0.005533,-0.00,-0.00,-0.000017,0.138000,-0.001317,-0.000984,0.000000,0.000000,0.000000,0.000000,0.000000,-0.000002,0.000000,0.137998,0.138001,0.137999,0.138002,932,973,948,973
10024,0,0.025681,0.019611,0.005735,-0.00,-0.00,-0.000068,0.138000,-0.001314,-0.000984,0.000000,0.000000,0.000000,0.000000,0.000000,-0.000002,0.000000,0.137998,0.138001,0.137998,0.138003,932,973,948,973
10034,0,0.025868,0.019659,0.005897,-0.00,-0.00,-0.000136,0.138000,-0.001312,-0.000984,0.000000,0.000000,0.000000,0.000000,0.000000,-0.000002,0.000001,0.137999,0.138000,0.137997,0.138004,932,973,948,973
