t,is_crashed,roll,pitch,yaw,p,q,r,throttle,p_cmd,q_cmd,r_cmd,roll_cmd,pitch_cmd,yaw_cmd,roll_pid_out,pitch_pid_out,yaw_pid_out,motor_fl,motor_bl,motor_fr,motor_br,pwm_fl,pwm_bl,pwm_fr,pwm_br
6969,0,0.030543,0.034907,0.000000,-0.00,0.00,-0.000145,-1.000000,-0.005389,-0.016230,0.000000,-1.047198,-1.047198,0.000000,0.000008,-0.000226,0.000039,0.000000,0.000000,0.000000,0.000000,0,0,0,0
6981,0,0.000000,0.000000,0.000000,-0.13,-0.15,-0.000043,-1.000000,-0.006509,-0.020072,0.000000,-1.047198,-1.047198,0.000000,-0.000186,0.001727,0.000013,0.000000,0.000000,0.000000,0.000000,819,819,819,819
6991,0,0.000000,0.000000,0.000000,-0.00,-0.00,-0.000002,-1.000000,-0.005236,-0.015709,0.000000,-1.047198,-1.047198,0.000000,-0.000072,-0.000104,0.000003,0.000000,0.000000,0.000000,0.000000,819,819,819,819
7001,0,0.000000,0.000000,0.000000,0.00,-0.00,0.000054,-1.000000,-0.005236,-0.015711,0.000000,-1.047198,-1.047198,0.000000,-0.000069,-0.000119,-0.000013,0.000000,0.000000,0.000000,0.000000,819,819,819,819
7011,0,0.000000,0.000000,0.000000,0.00,-0.00,0.000057,-1.000000,-0.005236,-0.015710,0.000000,-1.047198,-1.047198,0.000000,-0.000065,-0.000136,-0.000014,0.000000,0.000000,0.000000,0.000000,819,819,819,819
7021,0,0.000000,0.000000,0.000000,0.00,0.00,0.000075,-1.000000,-0.005236,-0.015706,0.000000,-1.047198,-1.047198,0.000000,-0.000061,-0.000154,-0.000019,0.000000,0.000000,0.000000,0.000000,819,819,819,819
7031,0,0.000000,0.000000,0.000000,0.00,0.00,0.000058,-1.000000,-0.005235,-0.015705,0.000000,-1.047198,-1.047198,0.000000,-0.000058,-0.000171,-0.000015,0.000000,0.000000,0.000000,0.000000,819,819,819,819
7041,0,0.000000,0.000000,0.000000,-0.00,0.00,-0.000088,-1.000000,-0.005236,-0.015706,0.000000,-1.047198,-1.047198,0.000000,-0.000054,-0.000187,0.000023,0.000000,0.000000,0.000000,0.000000,819,819,819,819
7051,0,0.000000,0.000000,0.000000,-0.00,0.00,-0.000258,-1.000000,-0.005237,-0.015708,0.000000,-1.047198,-1.047198,0.000000,-0.000050,-0.000203,0.000069,0.000000,0.000000,0.000000,0.000000,819,819,819,819
7061,0,0.000000,0.000000,0.000000,-0.00,-0.00,-0.000194,-1.000000,-0.005236,-0.015711,0.000000,-1.047198,-1.047198,0.000000,-0.000047,-0.000219,0.000055,0.000000,0.000000,0.000000,0.000000,819,819,819,819
7071,0,0.000000,0.000000,0.000000,0.00,-0.00,0.000026,-1.000000,-0.005236,-0.015710,0.000000,-1.047198,-1.047198,0.000000,-0.000043,-0.000235,-0.000002,0.000000,0.000000,0.000000,0.000000,819,819,819,819
7081,0,0.000000,0.000000,0.000000,0.00,-0.00,0.000273,-1.000000,-0.005236,-0.015710,0.000000,-1.047198,-1.047198,0.000000,-0.000039,-0.000252,-0.000068,0.000000,0.000000,0.000000,0.000000,819,819,819,819
7091,0,0.000000,0.000000,0.000000,0.00,-0.00,0.000303,-1.000000,-0.005236,-0.015709,0.000000,-1.047198,-1.047198,0.000000,-0.000035,-0.000269,-0.000079,0.000000,0.000000,0.000000,0.000000,819,819,819,819
7101,0,0.000000,0.000000,0.000000,0.00,0.00,0.000069,-1.000000,-0.005236,-0.015706,0.000000,-1.047198,-1.047198,0.000000,-0.000032,-0.000287,-0.000020,0.000000,0.000000,0.000000,0.000000,819,819,819,819
7111,0,0.000000,0.000000,0.000000,0.00,0.00,-0.000177,-1.000000,-0.005235,-0.015704,0.000000,-1.047198,-1.047198,0.000000,-0.000028,-0.000305,0.000045,0.000000,0.000000,0.000000,0.000000,819,819,819,819
7121,0,0.000000,0.000000,0.000000,0.00,0.00,-0.000298,-1.000000,-0.005236,-0.015706,0.000000,-1.047198,-1.047198,0.000000,-0.000024,-0.000320,0.000080,0.000000,0.000000,0.000000,0.000000,819,819,819,819
7138,0,0.000000,0.000000,0.000000,-0.00,0.00,-0.000268,-1.000000,-0.005237,-0.015708,0.000000,-1.047198,-1.047198,0.000000,-0.000021,-0.000336,0.000075,0.000000,0.000000,0.000000,0.000000,819,819,819,819
7151,0,0.000000,0.000000,0.000000,-0.00,-0.00,0.000240,-1.000000,-0.005236,-0.015714,0.000000,-1.047198,-1.047198,0.000000,-0.000017,-0.000350,-0.000058,0.000000,0.000000,0.000000,0.000000,819,819,819,819
7161,0,0.000000,0.000000,0.000000,0.00,-0.00,0.000301,-1.000000,-0.005236,-0.015712,0.000000,-1.047198,-1.047198,0.000000,-0.000013,-0.000368,-0.000077,0.000000,0.000000,0.000000,0.000000,819,819,819,819
7171,0,0.000000,0.000000,0.000000,-0.00,-0.00,0.000196,-1.000000,-0.005236,-0.015711,0.000000,-1.047198,-1.047198,0.000000,-0.000009,-0.000385,-0.000052,0.000000,0.000000,0.000000,0.000000,819,819,819,819
7181,0,0.000000,0.000000,0.000000,-0.00,0.00,-0.000063,-1.000000,-0.005236,-0.015704,0.000000,-1.047198,-1.047198,0.000000,-0.000006,-0.000405,0.000015,0.000000,0.000000,0.000000,0.000000,819,819,819,819
7191,0,0.000000,0.000000,0.000000,0.00,0.00,-0.000256,-1.000000,-0.005236,-0.015703,0.000000,-1.047198,-1.047198,0.000000,-0.000002,-0.000423,0.000067,0.000000,0.000000,0.000000,0.000000,819,819,819,819
7201,0,0.000000,0.000000,0.000000,0.00,0.00,-0.000284,-1.000000,-0.005236,-0.015704,0.000000,-1.047198,-1.047198,0.000000,0.000002,-0.000439,0.000078,0.000000,0.000000,0.000000,0.000000,819,819,819,819
7211,0,0.000000,0.000000,0.000000,-0.00,0.00,-0.000123,-1.000000,-0.005236,-0.015706,0.000000,-1.047198,-1.047198,0.000000,0.000006,-0.000455,0.000037,0.000000,0.000000,0.000000,0.000000,819,819,819,819
7221,0,0.000000,0.000000,0.000000,-0.00,-0.00,0.000084,-1.000000,-0.005236,-0.015712,0.000000,-1.047198,-1.047198,0.000000,0.000009,-0.000469,-0.000017,0.000000,0.000000,0.000000,0.000000,819,819,819,819
7231,0,0.000000,0.000000,0.000000,-0.00,-0.00,0.000257,-1.000000,-0.005236,-0.015712,0.000000,-1.047198,-1.047198,0.000000,0.000013,-0.000486,-0.000064,0.000000,0.000000,0.000000,0.000000,819,819,819,819
7241,0,0.000000,0.000000,0.000000,-0.00,-0.00,0.000266,-1.000000,-0.005236,-0.015709,0.000000,-1.047198,-1.047198,0.000000,0.000017,-0.000505,-0.000069,0.000000,0.000000,0.000000,0.000000,819,819,819,819
7251,0,0.000000,0.000000,0.000000,-0.00,-0.00,0.000104,-1.000000,-0.005237,-0.015709,0.000000,-1.047198,-1.047198,0.000000,0.000021,-0.000522,-0.000029,0.000000,0.000000,0.000000,0.000000,819,819,819,819
7261,0,0.000000,0.000000,0.000000,0.00,0.00,-0.000067,-1.000000,-0.005236,-0.015707,0.000000,-1.047198,-1.047198,0.000000,0.000025,-0.000539,0.000016,0.000000,0.000000,0.000000,0.000000,819,819,819,819
7271,0,0.000000,0.000000,0.000000,-0.00,-0.00,-0.000148,-1.000000,-0.005236,-0.015709,0.000000,-1.047198,-1.047198,0.000000,0.000028,-0.000556,0.000039,0.000000,0.000000,0.000000,0.000000,819,819,819,819
7281,0,0.000000,0.000000,0.000000,0.00,0.00,-0.000116,-1.000000,-0.005236,-0.015703,0.000000,-1.047198,-1.047198,0.000000,0.000032,-0.000575,0.000032,0.000000,0.000000,0.000000,0.000000,819,819,819,819
7291,0,0.000000,0.000000,0.000000,0.00,-0.00,0.000012,-1.000000,-0.005236,-0.015709,0.000000,-1.047198,-1.047198,0.000000,0.000036,-0.000590,-0.000002,0.000000,0.000000,0.000000,0.000000,819,819,819,819
7301,0,0.000000,0.000000,0.000000,-0.00,-0.00,0.000127,-1.000000,-0.005236,-0.015713,0.000000,-1.047198,-1.047198,0.000000,0.000040,-0.000605,-0.000032,0.000000,0.000000,0.000000,0.000000,819,819,819,819
7311,0,0.000000,0.000000,0.000000,0.00,-0.00,0.000314,-1.000000,-0.005236,-0.015713,0.000000,-1.047198,-1.047198,0.000000,0.000044,-0.000622,-0.000084,0.000000,0.000000,0.000000,0.000000,819,819,819,819
7321,0,0.000000,0.000000,0.000000,0.00,-0.00,0.000052,-1.000000,-0.005236,-0.015710,0.000000,-1.047198,-1.047198,0.000000,0.000047,-0.000641,-0.000017,0.000000,0.000000,0.000000,0.000000,819,819,819,819
7331,0,0.000000,0.000000,0.000000,-0.00,-0.00,-0.000160,-1.000000,-0.005236,-0.015710,0.000000,-1.047198,-1.047198,0.000000,0.000051,-0.000658,0.000039,0.000000,0.000000,0.000000,0.000000,819,819,819,819
7341,0,0.000000,0.000000,0.000000,0.00,0.00,-0.000334,-1.000000,-0.005236,-0.015706,0.000000,-1.047198,-1.047198,0.000000,0.000055,-0.000677,0.000087,0.000000,0.000000,0.000000,0.000000,819,819,819,819
7351,0,0.000000,0.000000,0.000000,-0.00,0.00,-0.000342,-1.000000,-0.005236,-0.015702,0.000000,-1.047198,-1.047198,0.000000,0.000059,-0.000696,0.000093,0.000000,0.000000,0.000000,0.000000,819,819,819,819
7361,0,0.000000,0.000000,0.000000,0.00,0.00,-0.000216,-1.000000,-0.005236,-0.015707,0.000000,-1.047198,-1.047198,0.000000,0.000063,-0.000711,0.000063,0.000000,0.000000,0.000000,0.000000,819,819,819,819
7371,0,0.000000,0.000000,0.000000,0.00,0.00,0.000025,-1.000000,-0.005236,-0.015708,0.000000,-1.047198,-1.047198,0.000000,0.000067,-0.000728,0.000001,0.000000,0.000000,0.000000,0.000000,819,819,819,819
7381,0,0.000000,0.000000,0.000000,0.00,-0.00,0.000291,-1.000000,-0.005236,-0.015713,0.000000,-1.047198,-1.047198,0.000000,0.000071,-0.000743,-0.000070,0.000000,0.000000,0.000000,0.000000,819,819,819,819
7392,0,0.000000,0.000000,0.000000,-0.00,-0.00,0.000268,-1.000000,-0.005236,-0.015710,0.000000,-1.047198,-1.047198,0.000000,0.000074,-0.000762,-0.000067,0.000000,0.000000,0.000000,0.000000,819,819,819,819
7401,0,0.000000,0.000000,0.000000,-0.00,0.00,0.000212,-1.000000,-0.005236,-0.015705,0.000000,-1.047198,-1.047198,0.000000,0.000078,-0.000781,-0.000056,0.000000,0.000000,0.000000,0.000000,819,819,819,819
7411,0,0.000000,0.000000,0.000000,0.00,0.00,0.000065,-1.000000,-0.005236,-0.015703,0.000000,-1.047198,-1.047198,0.000000,0.000082,-0.000800,-0.000018,0.000000,0.000000,0.000000,0.000000,819,819,819,819
7421,0,0.000000,0.000000,0.000000,-0.00,-0.00,0.000003,-1.000000,-0.005236,-0.015709,0.000000,-1.047198,-1.047198,0.000000,0.000086,-0.000815,-0.000003,0.000000,0.000000,0.000000,0.000000,819,819,819,819
7431,0,0.000000,0.000000,0.000000,-0.00,0.00,-0.000235,-1.000000,-0.005236,-0.015708,0.000000,-1.047198,-1.047198,0.000000,0.000090,-0.000833,0.000061,0.000000,0.000000,0.000000,0.000000,819,819,819,819
7442,0,0.000000,0.000000,0.000000,0.00,-0.00,-0.000337,-1.000000,-0.005236,-0.015710,0.000000,-1.047198,-1.047198,0.000000,0.000094,-0.000849,0.000091,0.000000,0.000000,0.000000,0.000000,819,819,819,819
7460,0,0.000000,0.000000,0.000000,-0.00,-0.00,-0.000071,-1.000000,-0.005236,-0.015709,0.000000,-1.047198,-1.047198,0.000000,0.000098,-0.000867,0.000024,0.000000,0.000000,0.000000,0.000000,819,819,819,819
7471,0,0.000000,0.000000,0.000000,-0.00,0.00,-0.000076,-1.000000,-0.005237,-0.015707,0.000000,-1.047198,-1.047198,0.000000,0.000101,-0.000885,0.000026,0.000000,0.000000,0.000000,0.000000,819,819,819,819
7481,0,0.000000,0.000000,0.000000,-0.00,0.00,-0.000022,-1.000000,-0.005236,-0.015707,0.000000,-1.047198,-1.047198,0.000000,0.000105,-0.000903,0.000012,0.000000,0.000000,0.000000,0.000000,819,819,819,819
7492,0,0.000000,0.000000,0.000000,0.00,-0.00,0.000053,-1.000000,-0.005236,-0.015710,0.000000,-1.047198,-1.047198,0.000000,0.000109,-0.000919,-0.000008,0.000000,0.000000,0.000000,0.000000,819,819,819,819
7502,0,0.000000,0.000000,0.000000,-0.00,-0.00,0.000057,0.005000,-0.000000,-0.000004,0.000000,0.000000,0.000000,0.000000,0.000105,-0.000719,-0.000009,0.000000,0.000000,0.000000,0.000000,819,819,819,819
7512,0,0.000000,0.000000,0.000000,-0.00,-0.00,0.000111,0.005000,-0.000000,-0.000002,0.000000,0.000000,0.000000,0.000000,0.000105,-0.000720,-0.000025,0.000000,0.000000,0.000000,0.000000,819,819,819,819
7522,0,0.000000,0.000000,0.000000,0.00,-0.00,0.000132,0.005000,0.000000,-0.000003,0.000000,0.000000,0.000000,0.000000,0.000105,-0.000720,-0.000031,0.000000,0.000000,0.000000,0.000000,819,819,819,819
7532,0,0.000000,0.000000,0.000000,0.00,0.00,0.000097,0.005000,0.000000,0.000002,0.000000,0.000000,0.000000,0.000000,0.000105,-0.000722,-0.000023,0.000000,0.000000,0.000000,0.000000,819,819,819,819
7542,0,0.000000,0.000000,0.000000,-0.00,0.00,-0.000158,0.005000,-0.000000,0.000004,0.000000,0.000000,0.000000,0.000000,0.000105,-0.000723,0.000044,0.000000,0.000000,0.000000,0.000000,819,819,819,819
7552,0,0.000000,0.000000,0.000000,0.00,0.00,-0.000207,0.005000,0.000000,0.000005,0.000000,0.000000,0.000000,0.000000,0.000105,-0.000723,0.000059,0.000000,0.000000,0.000000,0.000000,819,819,819,819
7562,0,0.000000,0.000000,0.000000,0.00,-0.00,-0.000119,0.005000,0.000000,-0.000000,0.000000,0.000000,0.000000,0.000000,0.000105,-0.000721,0.000037,0.000000,0.000000,0.000000,0.000000,819,819,819,819
7572,0,0.000000,0.000000,0.000000,0.00,-0.00,-0.000024,0.005000,0.000000,-0.000002,0.000000,0.000000,0.000000,0.000000,0.000105,-0.000720,0.000013,0.000000,0.000000,0.000000,0.000000,819,819,819,819
7582,0,0.000000,0.000000,0.000000,-0.00,-0.00,0.000053,0.005000,-0.000000,-0.000003,0.000000,0.000000,0.000000,0.000000,0.000105,-0.000720,-0.000007,0.000000,0.000000,0.000000,0.000000,819,819,819,819
7592,0,0.000000,0.000000,0.000000,0.00,-0.00,0.000147,0.005000,0.000000,-0.000001,0.000000,0.000000,0.000000,0.000000,0.000105,-0.000721,-0.000033,0.000000,0.000000,0.000000,0.000000,819,819,819,819
7602,0,0.000000,0.000000,0.000000,-0.00,0.00,0.000170,0.005000,-0.000000,0.000000,0.000000,0.000000,0.000000,0.000000,0.000105,-0.000721,-0.000041,0.000000,0.000000,0.000000,0.000000,819,819,819,819
7612,0,0.000000,0.000000,0.000000,0.00,0.00,0.000081,0.005000,0.000000,0.000002,0.000000,0.000000,0.000000,0.000000,0.000105,-0.000722,-0.000019,0.000000,0.000000,0.000000,0.000000,819,819,819,819
7622,0,0.000000,0.000000,0.000000,0.00,0.00,0.000058,0.005000,0.000000,0.000003,0.000000,0.000000,0.000000,0.000000,0.000105,-0.000722,-0.000014,0.000000,0.000000,0.000000,0.000000,819,819,819,819
7632,0,0.000000,0.000000,0.000000,0.00,-0.00,0.000057,0.005000,0.000000,-0.000002,0.000000,0.000000,0.000000,0.000000,0.000105,-0.000720,-0.000014,0.000000,0.000000,0.000000,0.000000,819,819,819,819
7642,0,0.000000,0.000000,0.000000,0.00,0.00,-0.000160,0.005000,0.000000,0.000000,0.000000,0.000000,0.000000,0.000000,0.000105,-0.000721,0.000044,0.000000,0.000000,0.000000,0.000000,819,819,819,819
7652,0,0.000000,0.000000,0.000000,-0.00,-0.00,-0.000062,0.005000,-0.000000,-0.000002,0.000000,0.000000,0.000000,0.000000,0.000105,-0.000720,0.000019,0.000000,0.000000,0.000000,0.000000,819,819,819,819
7662,0,0.000000,0.000000,0.000000,0.00,-0.00,-0.000184,0.005000,0.000000,-0.000001,0.000000,0.000000,0.000000,0.000000,0.000105,-0.000721,0.000053,0.000000,0.000000,0.000000,0.000000,819,819,819,819
7672,0,0.000000,0.000000,0.000000,-0.00,0.00,0.000045,0.005000,-0.000000,0.000000,0.000000,0.000000,0.000000,0.000000,0.000105,-0.000721,-0.000007,0.000000,0.000000,0.000000,0.000000,819,819,819,819
7682,0,0.000000,0.000000,0.000000,-0.00,0.00,0.000002,0.005000,-0.000000,0.000002,0.000000,0.000000,0.000000,0.000000,0.000105,-0.000722,0.000004,0.000000,0.000000,0.000000,0.000000,819,819,819,819
7692,0,0.000000,0.000000,0.000000,0.00,-0.00,0.000109,0.005000,0.000000,-0.000000,0.000000,0.000000,0.000000,0.000000,0.000105,-0.000721,-0.000024,0.000000,0.000000,0.000000,0.000000,819,819,819,819
7702,0,0.000000,0.000000,0.000000,0.00,0.00,0.000060,0.005000,0.000000,0.000000,0.000000,0.000000,0.000000,0.000000,0.000105,-0.000721,-0.000012,0.000000,0.000000,0.000000,0.000000,819,819,819,819
7712,0,0.000000,0.000000,0.000000,0.00,-0.00,0.000039,0.005000,0.000000,-0.000000,0.000000,0.000000,0.000000,0.000000,0.000105,-0.000721,-0.000008,0.000000,0.000000,0.000000,0.000000,819,819,819,819
7722,0,0.000000,0.000000,0.000000,0.00,-0.00,0.000038,0.005000,0.000000,-0.000004,0.000000,0.000000,0.000000,0.000000,0.000105,-0.000719,-0.000008,0.000000,0.000000,0.000000,0.000000,819,819,819,819
7732,0,0.000000,0.000000,0.000000,-0.00,-0.00,0.000020,0.005000,-0.000000,-0.000000,0.000000,0.000000,0.000000,0.000000,0.000105,-0.000721,-0.000003,0.000000,0.000000,0.000000,0.000000,819,819,819,819
7742,0,0.000000,0.000000,0.000000,0.00,0.00,0.000001,0.005000,0.000000,0.000000,0.000000,0.000000,0.000000,0.000000,0.000105,-0.000721,0.000001,0.000000,0.000000,0.000000,0.000000,819,819,819,819
7752,0,0.000000,0.000000,0.000000,0.00,0.00,-0.000181,0.005000,0.000000,0.000000,0.000000,0.000000,0.000000,0.000000,0.000105,-0.000721,0.000050,0.000000,0.000000,0.000000,0.000000,819,819,819,819
7762,0,0.000000,0.000000,0.000000,0.00,-0.00,-0.000244,0.005000,0.000000,-0.000002,0.000000,0.000000,0.000000,0.000000,0.000105,-0.000720,0.000069,0.000000,0.000000,0.000000,0.000000,819,819,819,819
7779,0,0.000000,0.000000,0.000000,0.00,0.00,-0.000103,0.005000,0.000000,0.000000,0.000000,0.000000,0.000000,0.000000,0.000105,-0.000721,0.000034,0.000000,0.000000,0.000000,0.000000,819,819,819,819
7790,0,0.000000,0.000000,0.000000,0.00,0.00,-0.000059,0.005000,0.000000,0.000001,0.000000,0.000000,0.000000,0.000000,0.000105,-0.000721,0.000024,0.000000,0.000000,0.000000,0.000000,819,819,819,819
7805,0,0.000000,0.000000,0.000000,-0.00,0.00,0.000124,0.005000,-0.000000,0.000000,0.000000,0.000000,0.000000,0.000000,0.000105,-0.000721,-0.000025,0.000000,0.000000,0.000000,0.000000,819,819,819,819
7814,0,0.000000,0.000000,0.000000,-0.00,0.00,0.000060,0.005000,-0.000000,0.000001,0.000000,0.000000,0.000000,0.000000,0.000105,-0.000721,-0.000009,0.000000,0.000000,0.000000,0.000000,819,819,819,819
7823,0,0.000000,0.000000,0.000000,0.00,0.00,0.000057,0.005000,0.000000,0.000000,0.000000,0.000000,0.000000,0.000000,0.000105,-0.000721,-0.000009,0.000000,0.000000,0.000000,0.000000,819,819,819,819
7832,0,0.000000,0.000000,0.000000,0.00,-0.00,0.000039,0.005000,0.000000,-0.000001,0.000000,0.000000,0.000000,0.000000,0.000105,-0.000720,-0.000005,0.000000,0.000000,0.000000,0.000000,819,819,819,819
7842,0,0.000000,0.000000,0.000000,0.00,0.00,-0.000052,0.005000,0.000000,0.000000,0.000000,0.000000,0.000000,0.000000,0.000105,-0.000721,0.000019,0.000000,0.000000,0.000000,0.000000,819,819,819,819
7852,0,0.000000,0.000000,0.000000,0.00,-0.00,-0.000093,0.005000,0.000000,-0.000000,0.000000,0.000000,0.000000,0.000000,0.000105,-0.000721,0.000031,0.000000,0.000000,0.000000,0.000000,819,819,819,819
7862,0,0.000000,0.000000,0.000000,0.00,0.00,-0.000113,0.005000,0.000000,0.000000,0.000000,0.000000,0.000000,0.000000,0.000105,-0.000721,0.000037,0.000000,0.000000,0.000000,0.000000,819,819,819,819
7872,0,0.000000,0.000000,0.000000,-0.00,-0.00,-0.000042,0.005000,-0.000000,-0.000000,0.000000,0.000000,0.000000,0.000000,0.000105,-0.000721,0.000020,0.000000,0.000000,0.000000,0.000000,819,819,819,819
7882,0,0.000000,0.000000,0.000000,0.00,-0.00,-0.000002,0.005000,0.000000,-0.000000,0.000000,0.000000,0.000000,0.000000,0.000105,-0.000721,0.000009,0.000000,0.000000,0.000000,0.000000,819,819,819,819
7892,0,0.000000,0.000000,0.000000,0.00,0.00,0.000054,0.005000,0.000000,0.000000,0.000000,0.000000,0.000000,0.000000,0.000105,-0.000721,-0.000006,0.000000,0.000000,0.000000,0.000000,819,819,819,819
7902,0,0.000000,0.000000,0.000000,-0.00,0.00,0.000057,0.005000,-0.000000,0.000000,0.000000,0.000000,0.000000,0.000000,0.000105,-0.000721,-0.000007,0.000000,0.000000,0.000000,0.000000,819,819,819,819
7912,0,0.000000,0.000000,0.000000,-0.00,0.00,0.000093,0.005000,-0.000000,0.000001,0.000000,0.000000,0.000000,0.000000,0.000105,-0.000721,-0.000017,0.000000,0.000000,0.000000,0.000000,819,819,819,819
7922,0,0.000000,0.000000,0.000000,0.00,0.00,0.000023,0.005000,0.000000,0.000000,0.000000,0.000000,0.000000,0.000000,0.000105,-0.000721,0.000000,0.000000,0.000000,0.000000,0.000000,819,819,819,819
7932,0,0.000000,0.000000,0.000000,0.00,-0.00,0.000037,0.005000,0.000000,-0.000000,0.000000,0.000000,0.000000,0.000000,0.000105,-0.000721,-0.000004,0.000000,0.000000,0.000000,0.000000,819,819,819,819
7942,0,0.000000,0.000000,0.000000,0.00,-0.00,-0.000070,0.005000,0.000000,-0.000001,0.000000,0.000000,0.000000,0.000000,0.000105,-0.000720,0.000025,0.000000,0.000000,0.000000,0.000000,819,819,819,819
7952,0,0.000000,0.000000,0.000000,0.00,-0.00,-0.000094,0.005000,0.000000,-0.000000,0.000000,0.000000,0.000000,0.000000,0.000105,-0.000721,0.000032,0.000000,0.000000,0.000000,0.000000,819,819,819,819
7962,0,0.000000,0.000000,0.000000,0.00,0.00,-0.000113,0.005000,0.000000,0.000000,0.000000,0.000000,0.000000,0.000000,0.000105,-0.000721,0.000038,0.000000,0.000000,0.000000,0.000000,819,819,819,819
7972,0,0.000000,0.000000,0.000000,0.00,-0.00,-0.000078,0.005000,0.000000,-0.000000,0.000000,0.000000,0.000000,0.000000,0.000105,-0.000721,0.000030,0.000000,0.000000,0.000000,0.000000,819,819,819,819
7982,0,0.000000,0.000000,0.000000,-0.00,-0.00,-0.000058,0.005000,-0.000000,-0.000002,0.000000,0.000000,0.000000,0.000000,0.000105,-0.000720,0.000026,0.000000,0.000000,0.000000,0.000000,819,819,819,819
7992,0,0.000000,0.000000,0.000000,0.00,-0.00,-0.000003,0.005000,0.000000,-0.000002,0.000000,0.000000,0.000000,0.000000,0.000105,-0.000720,0.000011,0.000000,0.000000,0.000000,0.000000,819,819,819,819
8002,0,0.000000,0.000000,0.000000,0.00,-0.00,0.000036,0.005000,0.000000,-0.000002,0.000000,0.000000,0.000000,0.000000,0.000105,-0.000720,0.000001,0.000000,0.000000,0.000000,0.000000,819,819,819,819
8012,0,0.000000,0.000000,0.000000,0.00,0.00,0.000128,0.005000,0.000000,0.000000,0.000000,0.000000,0.000000,0.000000,0.000105,-0.000721,-0.000024,0.000000,0.000000,0.000000,0.000000,819,819,819,819
8022,0,0.000000,0.000000,0.000000,0.00,0.00,0.000043,0.005000,0.000000,0.000002,0.000000,0.000000,0.000000,0.000000,0.000105,-0.000722,-0.000003,0.000000,0.000000,0.000000,0.000000,819,819,819,819
8032,0,0.000000,0.000000,0.000000,0.00,0.00,-0.000052,0.005000,0.000000,0.000002,0.000000,0.000000,0.000000,0.000000,0.000105,-0.000721,0.000022,0.000000,0.000000,0.000000,0.000000,819,819,819,819
8042,0,0.000000,0.000000,0.000000,0.00,0.00,-0.000111,0.005000,0.000000,0.000000,0.000000,0.000000,0.000000,0.000000,0.000105,-0.000721,0.000039,0.000000,0.000000,0.000000,0.000000,819,819,819,819
8052,0,0.000000,0.000000,0.000000,-0.00,-0.00,-0.000132,0.005000,-0.000000,-0.000001,0.000000,0.000000,0.000000,0.000000,0.000105,-0.000720,0.000046,0.000000,0.000000,0.000000,0.000000,819,819,819,819
8062,0,0.000000,0.000000,0.000000,0.00,-0.00,-0.000097,0.005000,0.000000,-0.000000,0.000000,0.000000,0.000000,0.000000,0.000105,-0.000720,0.000038,0.000000,0.000000,0.000000,0.000000,819,819,819,819
8072,0,0.000000,0.000000,0.000000,-0.00,-0.00,-0.000023,0.005000,-0.000000,-0.000001,0.000000,0.000000,0.000000,0.000000,0.000105,-0.000720,0.000019,0.000000,0.000000,0.000000,0.000000,819,819,819,819
8090,0,0.000000,0.000000,0.000000,0.00,0.00,-0.000001,0.005000,0.000000,0.000000,0.000000,0.000000,0.000000,0.000000,0.000105,-0.000721,0.000014,0.000000,0.000000,0.000000,0.000000,819,819,819,819
8102,0,0.000000,0.000000,0.000000,-0.00,0.00,0.000054,0.005000,-0.000000,0.000000,0.000000,0.000000,0.000000,0.000000,0.000105,-0.000721,-0.000001,0.000000,0.000000,0.000000,0.000000,819,819,819,819
8112,0,0.000000,0.000000,0.000000,0.00,-0.00,0.000003,0.005000,0.000000,-0.000002,0.000000,0.000000,0.000000,0.000000,0.000105,-0.000720,0.000012,0.000000,0.000000,0.000000,0.000000,819,819,819,819
8122,0,0.000000,0.000000,0.000000,-0.00,-0.00,0.000018,0.005000,-0.000000,-0.000002,0.000000,0.000000,0.000000,0.000000,0.000105,-0.000720,0.000008,0.000000,0.000000,0.000000,0.000000,819,819,819,819
8132,0,0.000000,0.000000,0.000000,0.00,0.00,0.000000,0.005000,0.000000,0.000000,0.000000,0.000000,0.000000,0.000000,0.000105,-0.000720,0.000012,0.000000,0.000000,0.000000,0.000000,819,819,819,819
8142,0,0.000000,0.000000,0.000000,0.00,0.00,-0.000036,0.005000,0.000000,0.000000,0.000000,0.000000,0.000000,0.000000,0.000105,-0.000721,0.000022,0.000000,0.000000,0.000000,0.000000,819,819,819,819
8153,0,0.000000,0.000000,0.000000,0.00,0.00,-0.000092,0.005000,0.000000,0.000000,0.000000,0.000000,0.000000,0.000000,0.000105,-0.000721,0.000037,0.000000,0.000000,0.000000,0.000000,819,819,819,819
8163,0,0.000000,0.000000,0.000000,0.00,-0.00,-0.000095,0.005000,0.000000,-0.000002,0.000000,0.000000,0.000000,0.000000,0.000105,-0.000720,0.000039,0.000000,0.000000,0.000000,0.000000,819,819,819,819
8173,0,0.000000,0.000000,0.000000,-0.00,-0.00,-0.000041,0.005000,-0.000000,-0.000002,0.000000,0.000000,0.000000,0.000000,0.000105,-0.000720,0.000026,0.000000,0.000000,0.000000,0.000000,819,819,819,819
8182,0,0.000000,0.000000,0.000000,0.00,-0.00,-0.000002,0.005000,0.000000,-0.000002,0.000000,0.000000,0.000000,0.000000,0.000105,-0.000720,0.000016,0.000000,0.000000,0.000000,0.000000,819,819,819,819
8193,0,0.000000,0.000000,0.000000,0.00,0.00,0.000054,0.005000,0.000000,0.000000,0.000000,0.000000,0.000000,0.000000,0.000105,-0.000720,0.000001,0.000000,0.000000,0.000000,0.000000,819,819,819,819
8203,0,0.000000,0.000000,0.000000,-0.00,0.00,0.000021,0.005000,-0.000000,0.000000,0.000000,0.000000,0.000000,0.000000,0.000105,-0.000721,0.000009,0.000000,0.000000,0.000000,0.000000,819,819,819,819
8213,0,0.000000,0.000000,0.000000,0.00,0.00,0.000019,0.005000,0.000000,0.000000,0.000000,0.000000,0.000000,0.000000,0.000105,-0.000720,0.000010,0.000000,0.000000,0.000000,0.000000,819,819,819,819
8222,0,0.000000,0.000000,0.000000,0.00,-0.00,0.000019,0.005000,0.000000,-0.000000,0.000000,0.000000,0.000000,0.000000,0.000105,-0.000720,0.000009,0.000000,0.000000,0.000000,0.000000,819,819,819,819
8233,0,0.000000,0.000000,0.000000,0.00,0.00,-0.000017,0.005000,0.000000,0.000000,0.000000,0.000000,0.000000,0.000000,0.000105,-0.000721,0.000019,0.000000,0.000000,0.000000,0.000000,819,819,819,819
8243,0,0.000000,0.000000,0.000000,0.00,0.00,0.000017,0.005000,0.000000,0.000003,0.000000,0.000000,0.000000,0.000000,0.000105,-0.000722,0.000010,0.000000,0.000000,0.000000,0.000000,819,819,819,819
8253,0,0.000000,0.000000,0.000000,0.00,0.00,0.000000,0.005000,0.000000,0.000002,0.000000,0.000000,0.000000,0.000000,0.000105,-0.000721,0.000014,0.000000,0.000000,0.000000,0.000000,819,819,819,819
8263,0,0.000000,0.000000,0.000000,-0.00,-0.00,0.000000,0.005000,-0.000000,-0.000000,0.000000,0.000000,0.000000,0.000000,0.000105,-0.000720,0.000014,0.000000,0.000000,0.000000,0.000000,819,819,819,819
8273,0,0.000000,0.000000,0.000000,-0.00,0.00,-0.000054,0.005000,-0.000000,0.000000,0.000000,0.000000,0.000000,0.000000,0.000105,-0.000721,0.000029,0.000000,0.000000,0.000000,0.000000,819,819,819,819
8283,0,0.000000,0.000000,0.000000,-0.00,-0.00,-0.000093,0.005000,-0.000000,-0.000002,0.000000,0.000000,0.000000,0.000000,0.000105,-0.000720,0.000040,0.000000,0.000000,0.000000,0.000000,819,819,819,819
8293,0,0.000000,0.000000,0.000000,0.00,-0.00,-0.000023,0.005000,0.000000,-0.000002,0.000000,0.000000,0.000000,0.000000,0.000105,-0.000720,0.000022,0.000000,0.000000,0.000000,0.000000,819,819,819,819
8303,0,0.000000,0.000000,0.000000,-0.00,-0.00,-0.000001,0.005000,-0.000000,-0.000002,0.000000,0.000000,0.000000,0.000000,0.000105,-0.000720,0.000017,0.000000,0.000000,0.000000,0.000000,819,819,819,819
8313,0,0.000000,0.000000,0.000000,0.00,0.00,0.000036,0.005000,0.000000,0.000001,0.000000,0.000000,0.000000,0.000000,0.000105,-0.000721,0.000007,0.000000,0.000000,0.000000,0.000000,819,819,819,819
8323,0,0.000000,0.000000,0.000000,0.00,0.00,0.000002,0.005000,0.000000,0.000000,0.000000,0.000000,0.000000,0.000000,0.000105,-0.000721,0.000015,0.000000,0.000000,0.000000,0.000000,819,819,819,819
8333,0,0.000000,0.000000,0.000000,-0.00,0.00,-0.000018,0.005000,-0.000000,0.000000,0.000000,0.000000,0.000000,0.000000,0.000105,-0.000721,0.000021,0.000000,0.000000,0.000000,0.000000,819,819,819,819
8343,0,0.000000,0.000000,0.000000,-0.00,-0.00,-0.000055,0.005000,-0.000000,-0.000000,0.000000,0.000000,0.000000,0.000000,0.000105,-0.000720,0.000031,0.000000,0.000000,0.000000,0.000000,819,819,819,819
8353,0,0.000000,0.000000,0.000000,0.00,-0.00,-0.000021,0.005000,0.000000,-0.000002,0.000000,0.000000,0.000000,0.000000,0.000105,-0.000719,0.000022,0.000000,0.000000,0.000000,0.000000,819,819,819,819
8363,0,0.000000,0.000000,0.000000,-0.00,-0.00,-0.000001,0.005000,-0.000000,-0.000002,0.000000,0.000000,0.000000,0.000000,0.000105,-0.000720,0.000017,0.000000,0.000000,0.000000,0.000000,819,819,819,819
8373,0,0.000000,0.000000,0.000000,0.00,-0.00,-0.000000,0.005000,0.000000,-0.000002,0.000000,0.000000,0.000000,0.000000,0.000105,-0.000720,0.000017,0.000000,0.000000,0.000000,0.000000,819,819,819,819
8383,0,0.000000,0.000000,0.000000,-0.00,-0.00,-0.000000,0.005000,-0.000000,-0.000002,0.000000,0.000000,0.000000,0.000000,0.000105,-0.000719,0.000017,0.000000,0.000000,0.000000,0.000000,819,819,819,819
8393,0,0.000000,0.000000,0.000000,0.00,0.00,0.000018,0.005000,0.000000,0.000000,0.000000,0.000000,0.000000,0.000000,0.000105,-0.000720,0.000012,0.000000,0.000000,0.000000,0.000000,819,819,819,819
8410,0,0.000000,0.000000,0.000000,0.00,-0.00,-0.000035,0.005000,0.000000,-0.000000,0.000000,0.000000,0.000000,0.000000,0.000105,-0.000720,0.000026,0.000000,0.000000,0.000000,0.000000,819,819,819,819
8422,0,0.000000,0.000000,0.000000,-0.00,-0.00,-0.000002,0.005000,-0.000000,-0.000001,0.000000,0.000000,0.000000,0.000000,0.000105,-0.000720,0.000018,0.000000,0.000000,0.000000,0.000000,819,819,819,819
8432,0,0.000000,0.000000,0.000000,-0.00,-0.00,-0.000000,0.005000,-0.000000,-0.000002,0.000000,0.000000,0.000000,0.000000,0.000105,-0.000719,0.000017,0.000000,0.000000,0.000000,0.000000,819,819,819,819
8443,0,0.000000,0.000000,0.000000,0.00,-0.00,0.000018,0.005000,0.000000,-0.000001,0.000000,0.000000,0.000000,0.000000,0.000105,-0.000720,0.000012,0.000000,0.000000,0.000000,0.000000,819,819,819,819
8454,0,0.000000,0.000000,0.000000,-0.00,0.00,-0.000017,0.005000,-0.000000,0.000000,0.000000,0.000000,0.000000,0.000000,0.000105,-0.000720,0.000022,0.000000,0.000000,0.000000,0.000000,819,819,819,819
8463,0,0.000000,0.000000,0.000000,0.00,0.00,-0.000000,0.005000,0.000000,0.000000,0.000000,0.000000,0.000000,0.000000,0.000105,-0.000720,0.000017,0.000000,0.000000,0.000000,0.000000,819,819,819,819
8473,0,0.000000,0.000000,0.000000,0.00,0.00,-0.000018,0.005000,0.000000,0.000000,0.000000,0.000000,0.000000,0.000000,0.000105,-0.000720,0.000022,0.000000,0.000000,0.000000,0.000000,819,819,819,819
8483,0,0.000000,0.000000,0.000000,0.00,-0.00,-0.000037,0.005000,0.000000,-0.000002,0.000000,0.000000,0.000000,0.000000,0.000105,-0.000719,0.000027,0.000000,0.000000,0.000000,0.000000,819,819,819,819
8493,0,0.000000,0.000000,0.000000,0.00,-0.00,-0.000020,0.005000,0.000000,-0.000000,0.000000,0.000000,0.000000,0.000000,0.000105,-0.000720,0.000023,0.000000,0.000000,0.000000,0.000000,819,819,819,819
8503,0,0.000000,0.000000,0.000000,0.00,-0.00,-0.000001,0.005000,0.000000,-0.000000,0.000000,0.000000,0.000000,0.000000,0.000105,-0.000720,0.000018,0.000000,0.000000,0.000000,0.000000,819,819,819,819
8513,0,0.000000,0.000000,0.000000,0.00,0.00,-0.000000,0.005000,0.000000,0.000002,0.000000,0.000000,0.000000,0.000000,0.000105,-0.000721,0.000018,0.000000,0.000000,0.000000,0.000000,819,819,819,819
8523,0,0.000000,0.000000,0.000000,-0.00,0.00,0.000018,0.005000,-0.000000,0.000001,0.000000,0.000000,0.000000,0.000000,0.000105,-0.000720,0.000013,0.000000,0.000000,0.000000,0.000000,819,819,819,819
8533,0,0.000000,0.000000,0.000000,-0.00,0.00,0.000055,0.005000,-0.000000,0.000001,0.000000,0.000000,0.000000,0.000000,0.000105,-0.000720,0.000003,0.000000,0.000000,0.000000,0.000000,819,819,819,819
8543,0,0.000000,0.000000,0.000000,0.00,0.00,-0.000015,0.005000,0.000000,0.000000,0.000000,0.000000,0.000000,0.000000,0.000105,-0.000720,0.000021,0.000000,0.000000,0.000000,0.000000,819,819,819,819
8553,0,0.000000,0.000000,0.000000,-0.00,-0.00,-0.000000,0.005000,-0.000000,-0.000001,0.000000,0.000000,0.000000,0.000000,0.000105,-0.000720,0.000018,0.000000,0.000000,0.000000,0.000000,819,819,819,819
8563,0,0.000000,0.000000,0.000000,0.00,-0.00,-0.000018,0.005000,0.000000,-0.000001,0.000000,0.000000,0.000000,0.000000,0.000105,-0.000719,0.000022,0.000000,0.000000,0.000000,0.000000,819,819,819,819
8573,0,0.000000,0.000000,0.000000,0.00,0.00,0.000017,0.005000,0.000000,0.000001,0.000000,0.000000,0.000000,0.000000,0.000105,-0.000720,0.000013,0.000000,0.000000,0.000000,0.000000,819,819,819,819
8583,0,0.000000,0.000000,0.000000,0.00,0.00,0.000000,0.005000,0.000000,0.000002,0.000000,0.000000,0.000000,0.000000,0.000105,-0.000721,0.000017,0.000000,0.000000,0.000000,0.000000,819,819,819,819
8593,0,0.000000,0.000000,0.000000,0.00,0.00,0.000000,0.005000,0.000000,0.000000,0.000000,0.000000,0.000000,0.000000,0.000105,-0.000720,0.000017,0.000000,0.000000,0.000000,0.000000,819,819,819,819
8603,0,0.000000,0.000000,0.000000,-0.00,0.00,0.000000,0.005000,-0.000000,0.000000,0.000000,0.000000,0.000000,0.000000,0.000105,-0.000720,0.000017,0.000000,0.000000,0.000000,0.000000,819,819,819,819
8613,0,0.000000,0.000000,0.000000,0.00,-0.00,0.000018,0.005000,0.000000,-0.000000,0.000000,0.000000,0.000000,0.000000,0.000105,-0.000720,0.000013,0.000000,0.000000,0.000000,0.000000,819,819,819,819
8623,0,0.000000,0.000000,0.000000,-0.00,-0.00,-0.000017,0.005000,-0.000000,-0.000002,0.000000,0.000000,0.000000,0.000000,0.000105,-0.000719,0.000022,0.000000,0.000000,0.000000,0.000000,819,819,819,819
8633,0,0.000000,0.000000,0.000000,-0.00,0.00,0.000017,0.005000,-0.000000,0.000002,0.000000,0.000000,0.000000,0.000000,0.000105,-0.000721,0.000013,0.000000,0.000000,0.000000,0.000000,819,819,819,819
8643,0,0.000000,0.000000,0.000000,-0.00,-0.00,0.000037,0.005000,-0.000000,-0.000001,0.000000,0.000000,0.000000,0.000000,0.000105,-0.000720,0.000007,0.000000,0.000000,0.000000,0.000000,819,819,819,819
8656,0,0.000000,0.000000,0.000000,0.00,0.00,0.000020,0.005000,0.000000,0.000002,0.000000,0.000000,0.000000,0.000000,0.000105,-0.000721,0.000011,0.000000,0.000000,0.000000,0.000000,819,819,819,819
8665,0,0.000000,0.000000,0.000000,0.00,0.00,0.000001,0.005000,0.000000,0.000002,0.000000,0.000000,0.000000,0.000000,0.000105,-0.000721,0.000016,0.000000,0.000000,0.000000,0.000000,819,819,819,819
8674,0,0.000000,0.000000,0.000000,0.00,0.00,-0.000018,0.005000,0.000000,0.000001,0.000000,0.000000,0.000000,0.000000,0.000105,-0.000721,0.000021,0.000000,0.000000,0.000000,0.000000,819,819,819,819
8684,0,0.000000,0.000000,0.000000,0.00,0.00,-0.000019,0.005000,0.000000,0.000001,0.000000,0.000000,0.000000,0.000000,0.000105,-0.000721,0.000022,0.000000,0.000000,0.000000,0.000000,819,819,819,819
8694,0,0.000000,0.000000,0.000000,0.00,-0.00,-0.000019,0.005000,0.000000,-0.000001,0.000000,0.000000,0.000000,0.000000,0.000105,-0.000720,0.000022,0.000000,0.000000,0.000000,0.000000,819,819,819,819
8704,0,0.000000,0.000000,0.000000,0.00,0.00,-0.000001,0.005000,0.000000,0.000000,0.000000,0.000000,0.000000,0.000000,0.000105,-0.000720,0.000017,0.000000,0.000000,0.000000,0.000000,819,819,819,819
8721,0,0.000000,0.000000,0.000000,0.00,0.00,-0.000000,0.005000,0.000000,0.000000,0.000000,0.000000,0.000000,0.000000,0.000105,-0.000720,0.000017,0.000000,0.000000,0.000000,0.000000,819,819,819,819
8732,0,0.000000,0.000000,0.000000,0.00,0.00,-0.000018,0.005000,0.000000,0.000001,0.000000,0.000000,0.000000,0.000000,0.000105,-0.000721,0.000022,0.000000,0.000000,0.000000,0.000000,819,819,819,819
8744,0,0.000000,0.000000,0.000000,-0.00,-0.00,0.000035,0.005000,-0.000000,-0.000001,0.000000,0.000000,0.000000,0.000000,0.000105,-0.000720,0.000008,0.000000,0.000000,0.000000,0.000000,819,819,819,819
8754,0,0.000000,0.000000,0.000000,-0.00,-0.00,0.000020,0.005000,-0.000000,-0.000000,0.000000,0.000000,0.000000,0.000000,0.000105,-0.000720,0.000012,0.000000,0.000000,0.000000,0.000000,819,819,819,819
8764,0,0.000000,0.000000,0.000000,0.00,-0.00,0.000055,0.005000,0.000000,-0.000002,0.000000,0.000000,0.000000,0.000000,0.000105,-0.000719,0.000002,0.000000,0.000000,0.000000,0.000000,819,819,819,819
8774,0,0.000000,0.000000,0.000000,0.00,0.00,-0.000015,0.005000,0.000000,0.000000,0.000000,0.000000,0.000000,0.000000,0.000105,-0.000720,0.000020,0.000000,0.000000,0.000000,0.000000,819,819,819,819
8783,0,0.000000,0.000000,0.000000,-0.00,0.00,-0.000000,0.005000,-0.000000,0.000001,0.000000,0.000000,0.000000,0.000000,0.000105,-0.000721,0.000016,0.000000,0.000000,0.000000,0.000000,819,819,819,819
8794,0,0.000000,0.000000,0.000000,-0.00,0.00,-0.000054,0.005000,-0.000000,0.000002,0.000000,0.000000,0.000000,0.000000,0.000105,-0.000721,0.000031,0.000000,0.000000,0.000000,0.000000,819,819,819,819
8804,0,0.000000,0.000000,0.000000,0.00,0.00,-0.000075,0.005000,0.000000,0.000000,0.000000,0.000000,0.000000,0.000000,0.000105,-0.000720,0.000037,0.000000,0.000000,0.000000,0.000000,819,819,819,819
8814,0,0.000000,0.000000,0.000000,-0.00,-0.00,-0.000022,0.005000,-0.000000,-0.000002,0.000000,0.000000,0.000000,0.000000,0.000105,-0.000720,0.000024,0.000000,0.000000,0.000000,0.000000,819,819,819,819
8824,0,0.000000,0.000000,0.000000,-0.00,-0.00,0.000089,0.005000,-0.000000,-0.000001,0.000000,0.000000,0.000000,0.000000,0.000105,-0.000720,-0.000006,0.000000,0.000000,0.000000,0.000000,819,819,819,819
8834,0,0.000000,0.000000,0.000000,-0.00,-0.00,0.000095,0.005000,-0.000000,-0.000002,0.000000,0.000000,0.000000,0.000000,0.000105,-0.000719,-0.000008,0.000000,0.000000,0.000000,0.000000,819,819,819,819
8844,0,0.000000,0.000000,0.000000,0.00,0.00,0.000041,0.005000,0.000000,0.000000,0.000000,0.000000,0.000000,0.000000,0.000105,-0.000720,0.000005,0.000000,0.000000,0.000000,0.000000,819,819,819,819
8854,0,0.000000,0.000000,0.000000,-0.00,0.00,-0.000016,0.005000,-0.000000,0.000000,0.000000,0.000000,0.000000,0.000000,0.000105,-0.000720,0.000020,0.000000,0.000000,0.000000,0.000000,819,819,819,819
8864,0,0.000000,0.000000,0.000000,-0.00,0.00,-0.000000,0.005000,-0.000000,0.000000,0.000000,0.000000,0.000000,0.000000,0.000105,-0.000720,0.000016,0.000000,0.000000,0.000000,0.000000,819,819,819,819
8874,0,0.000000,0.000000,0.000000,0.00,0.00,-0.000036,0.005000,0.000000,0.000001,0.000000,0.000000,0.000000,0.000000,0.000105,-0.000721,0.000025,0.000000,0.000000,0.000000,0.000000,819,819,819,819
8884,0,0.000000,0.000000,0.000000,0.00,0.00,-0.000038,0.005000,0.000000,0.000001,0.000000,0.000000,0.000000,0.000000,0.000105,-0.000721,0.000026,0.000000,0.000000,0.000000,0.000000,819,819,819,819
8894,0,0.000000,0.000000,0.000000,0.00,0.00,-0.000020,0.005000,0.000000,0.000000,0.000000,0.000000,0.000000,0.000000,0.000105,-0.000720,0.000022,0.000000,0.000000,0.000000,0.000000,819,819,819,819
8904,0,0.000000,0.000000,0.000000,0.00,0.00,0.000035,0.005000,0.000000,0.000001,0.000000,0.000000,0.000000,0.000000,0.000105,-0.000721,0.000007,0.000000,0.000000,0.000000,0.000000,819,819,819,819
8914,0,0.000000,0.000000,0.000000,-0.00,-0.00,0.000020,0.005000,-0.000000,-0.000000,0.000000,0.000000,0.000000,0.000000,0.000105,-0.000720,0.000011,0.000000,0.000000,0.000000,0.000000,819,819,819,819
8924,0,0.000000,0.000000,0.000000,0.00,0.00,0.000055,0.005000,0.000000,0.000002,0.000000,0.000000,0.000000,0.000000,0.000105,-0.000721,0.000001,0.000000,0.000000,0.000000,0.000000,819,819,819,819
8934,0,0.000000,0.000000,0.000000,-0.00,0.00,0.000021,0.005000,-0.000000,0.000000,0.000000,0.000000,0.000000,0.000000,0.000105,-0.000720,0.000010,0.000000,0.000000,0.000000,0.000000,819,819,819,819
8944,0,0.000000,0.000000,0.000000,0.00,0.00,0.000001,0.005000,0.000000,0.000002,0.000000,0.000000,0.000000,0.000000,0.000105,-0.000721,0.000015,0.000000,0.000000,0.000000,0.000000,819,819,819,819
8954,0,0.000000,0.000000,0.000000,-0.00,-0.00,-0.000018,0.005000,-0.000000,-0.000002,0.000000,0.000000,0.000000,0.000000,0.000105,-0.000720,0.000020,0.000000,0.000000,0.000000,0.000000,819,819,819,819
8964,0,0.000000,0.000000,0.000000,-0.00,-0.00,-0.000037,0.005000,-0.000000,-0.000000,0.000000,0.000000,0.000000,0.000000,0.000105,-0.000720,0.000025,0.000000,0.000000,0.000000,0.000000,819,819,819,819
8974,0,0.000000,0.000000,0.000000,0.00,-0.00,-0.000038,0.005000,0.000000,-0.000001,0.000000,0.000000,0.000000,0.000000,0.000105,-0.000720,0.000026,0.000000,0.000000,0.000000,0.000000,819,819,819,819
8984,0,0.000000,0.000000,0.000000,-0.00,-0.00,-0.000020,0.005000,-0.000000,-0.000000,0.000000,0.000000,0.000000,0.000000,0.000105,-0.000720,0.000022,0.000000,0.000000,0.000000,0.000000,819,819,819,819
8994,0,0.000000,0.000000,0.000000,-0.00,-0.00,-0.000019,0.005000,-0.000000,-0.000002,0.000000,0.000000,0.000000,0.000000,0.000105,-0.000719,0.000022,0.000000,0.000000,0.000000,0.000000,819,819,819,819
9004,0,0.000000,0.000000,0.000000,0.00,-0.00,-0.000001,0.005000,0.000000,-0.000000,0.000000,0.000000,0.000000,0.000000,0.000105,-0.000720,0.000017,0.000000,0.000000,0.000000,0.000000,819,819,819,819
9014,0,0.000000,0.000000,0.000000,0.00,0.00,0.000090,0.005000,0.000000,0.000000,0.000000,0.000000,0.000000,0.000000,0.000105,-0.000720,-0.000008,0.000000,0.000000,0.000000,0.000000,819,819,819,819
9024,0,0.000000,0.000000,0.000000,-0.00,-0.00,0.000059,0.005000,-0.000000,-0.000001,0.000000,0.000000,0.000000,0.000000,0.000105,-0.000720,-0.000000,0.000000,0.000000,0.000000,0.000000,819,819,819,819
9041,0,0.000000,0.000000,0.000000,-0.00,0.00,0.000039,0.005000,-0.000000,0.000002,0.000000,0.000000,0.000000,0.000000,0.000105,-0.000721,0.000004,0.000000,0.000000,0.000000,0.000000,819,819,819,819
9054,0,0.000000,0.000000,0.000000,-0.00,-0.00,-0.000034,0.005000,-0.000000,-0.000000,0.000000,0.000000,0.000000,0.000000,0.000105,-0.000720,0.000023,0.000000,0.000000,0.000000,0.000000,819,819,819,819
9064,0,0.000000,0.000000,0.000000,-0.00,0.00,-0.000002,0.005000,-0.000000,0.000000,0.000000,0.000000,0.000000,0.000000,0.000105,-0.000720,0.000015,0.000000,0.000000,0.000000,0.000000,819,819,819,819
9074,0,0.000000,0.000000,0.000000,0.00,0.00,-0.000000,0.005000,0.000000,0.000000,0.000000,0.000000,0.000000,0.000000,0.000105,-0.000720,0.000015,0.000000,0.000000,0.000000,0.000000,819,819,819,819
9084,0,0.000000,0.000000,0.000000,-0.00,0.00,-0.000018,0.005000,-0.000000,0.000000,0.000000,0.000000,0.000000,0.000000,0.000104,-0.000720,0.000020,0.000000,0.000000,0.000000,0.000000,819,819,819,819
9094,0,0.000000,0.000000,0.000000,-0.00,-0.00,-0.000019,0.005000,-0.000000,-0.000001,0.000000,0.000000,0.000000,0.000000,0.000104,-0.000720,0.000020,0.000000,0.000000,0.000000,0.000000,819,819,819,819
9104,0,0.000000,0.000000,0.000000,0.00,0.00,-0.000000,0.005000,0.000000,0.000000,0.000000,0.000000,0.000000,0.000000,0.000104,-0.000720,0.000015,0.000000,0.000000,0.000000,0.000000,819,819,819,819
9114,0,0.000000,0.000000,0.000000,0.00,0.00,-0.000018,0.005000,0.000000,0.000001,0.000000,0.000000,0.000000,0.000000,0.000105,-0.000721,0.000020,0.000000,0.000000,0.000000,0.000000,819,819,819,819
9124,0,0.000000,0.000000,0.000000,0.00,0.00,0.000035,0.005000,0.000000,0.000002,0.000000,0.000000,0.000000,0.000000,0.000105,-0.000721,0.000006,0.000000,0.000000,0.000000,0.000000,819,819,819,819
9134,0,0.000000,0.000000,0.000000,0.00,0.00,0.000074,0.005000,0.000000,0.000001,0.000000,0.000000,0.000000,0.000000,0.000105,-0.000721,-0.000005,0.000000,0.000000,0.000000,0.000000,819,819,819,819
9144,0,0.000000,0.000000,0.000000,0.00,0.00,0.000040,0.005000,0.000000,0.000000,0.000000,0.000000,0.000000,0.000000,0.000105,-0.000720,0.000003,0.000000,0.000000,0.000000,0.000000,819,819,819,819
9154,0,0.000000,0.000000,0.000000,-0.00,-0.00,0.000020,0.005000,-0.000000,-0.000001,0.000000,0.000000,0.000000,0.000000,0.000104,-0.000720,0.000008,0.000000,0.000000,0.000000,0.000000,819,819,819,819
9164,0,0.000000,0.000000,0.000000,-0.00,-0.00,0.000001,0.005000,-0.000000,-0.000000,0.000000,0.000000,0.000000,0.000000,0.000104,-0.000720,0.000013,0.000000,0.000000,0.000000,0.000000,819,819,819,819
9174,0,0.000000,0.000000,0.000000,-0.00,-0.00,-0.000036,0.005000,-0.000000,-0.000001,0.000000,0.000000,0.000000,0.000000,0.000104,-0.000720,0.000023,0.000000,0.000000,0.000000,0.000000,819,819,819,819
9184,0,0.000000,0.000000,0.000000,0.00,0.00,-0.000020,0.005000,0.000000,0.000002,0.000000,0.000000,0.000000,0.000000,0.000104,-0.000721,0.000019,0.000000,0.000000,0.000000,0.000000,819,819,819,819
9194,0,0.000000,0.000000,0.000000,0.00,0.00,0.000017,0.005000,0.000000,0.000002,0.000000,0.000000,0.000000,0.000000,0.000105,-0.000721,0.000009,0.000000,0.000000,0.000000,0.000000,819,819,819,819
9204,0,0.000000,0.000000,0.000000,0.00,-0.00,0.000019,0.005000,0.000000,-0.000001,0.000000,0.000000,0.000000,0.000000,0.000105,-0.000720,0.000009,0.000000,0.000000,0.000000,0.000000,819,819,819,819
9214,0,0.000000,0.000000,0.000000,0.00,-0.00,0.000019,0.005000,0.000000,-0.000001,0.000000,0.000000,0.000000,0.000000,0.000105,-0.000720,0.000008,0.000000,0.000000,0.000000,0.000000,819,819,819,819
9224,0,0.000000,0.000000,0.000000,0.00,0.00,-0.000017,0.005000,0.000000,0.000000,0.000000,0.000000,0.000000,0.000000,0.000105,-0.000720,0.000018,0.000000,0.000000,0.000000,0.000000,819,819,819,819
9234,0,0.000000,0.000000,0.000000,0.00,-0.00,-0.000019,0.005000,0.000000,-0.000000,0.000000,0.000000,0.000000,0.000000,0.000105,-0.000720,0.000018,0.000000,0.000000,0.000000,0.000000,819,819,819,819
9245,0,0.000000,0.000000,0.000000,-0.00,0.00,0.000017,0.005000,-0.000000,0.000000,0.000000,0.000000,0.000000,0.000000,0.000105,-0.000720,0.000009,0.000000,0.000000,0.000000,0.000000,819,819,819,819
9254,0,0.000000,0.000000,0.000000,0.00,-0.00,-0.000017,0.005000,0.000000,-0.000001,0.000000,0.000000,0.000000,0.000000,0.000105,-0.000720,0.000018,0.000000,0.000000,0.000000,0.000000,819,819,819,819
9264,0,0.000000,0.000000,0.000000,0.00,0.00,0.000071,0.005000,0.000000,0.000000,0.000000,0.000000,0.000000,0.000000,0.000105,-0.000720,-0.000006,0.000000,0.000000,0.000000,0.000000,819,819,819,819
9274,0,0.000000,0.000000,0.000000,-0.00,0.00,0.000058,0.005000,-0.000000,0.000000,0.000000,0.000000,0.000000,0.000000,0.000104,-0.000720,-0.000003,0.000000,0.000000,0.000000,0.000000,819,819,819,819
9285,0,0.000000,0.000000,0.000000,0.00,0.00,0.000021,0.005000,0.000000,0.000001,0.000000,0.000000,0.000000,0.000000,0.000105,-0.000721,0.000006,0.000000,0.000000,0.000000,0.000000,819,819,819,819
9295,0,0.000000,0.000000,0.000000,0.00,0.00,0.000001,0.005000,0.000000,0.000000,0.000000,0.000000,0.000000,0.000000,0.000105,-0.000720,0.000011,0.000000,0.000000,0.000000,0.000000,819,819,819,819
9304,0,0.000000,0.000000,0.000000,0.00,-0.00,0.000000,0.005000,0.000000,-0.000002,0.000000,0.000000,0.000000,0.000000,0.000105,-0.000719,0.000012,0.000000,0.000000,0.000000,0.000000,819,819,819,819
9314,0,0.000000,0.000000,0.000000,0.00,-0.00,0.000018,0.005000,0.000000,-0.000002,0.000000,0.000000,0.000000,0.000000,0.000105,-0.000719,0.000007,0.000000,0.000000,0.000000,0.000000,819,819,819,819
9324,0,0.000000,0.000000,0.000000,0.00,0.00,0.000000,0.005000,0.000000,0.000002,0.000000,0.000000,0.000000,0.000000,0.000105,-0.000721,0.000011,0.000000,0.000000,0.000000,0.000000,819,819,819,819
9334,0,0.000000,0.000000,0.000000,0.00,0.00,-0.000018,0.005000,0.000000,0.000000,0.000000,0.000000,0.000000,0.000000,0.000105,-0.000720,0.000016,0.000000,0.000000,0.000000,0.000000,819,819,819,819
9345,0,0.000000,0.000000,0.000000,0.00,0.00,-0.000055,0.005000,0.000000,0.000000,0.000000,0.000000,0.000000,0.000000,0.000105,-0.000720,0.000026,0.000000,0.000000,0.000000,0.000000,819,819,819,819
9362,0,0.000000,0.000000,0.000000,-0.00,-0.00,-0.000021,0.005000,-0.000000,-0.000003,0.000000,0.000000,0.000000,0.000000,0.000105,-0.000719,0.000018,0.000000,0.000000,0.000000,0.000000,819,819,819,819
9373,0,0.000000,0.000000,0.000000,-0.00,-0.00,-0.000019,0.005000,-0.000000,-0.000003,0.000000,0.000000,0.000000,0.000000,0.000105,-0.000719,0.000018,0.000000,0.000000,0.000000,0.000000,819,819,819,819
9384,0,0.000000,0.000000,0.000000,0.00,0.00,0.000053,0.005000,0.000000,0.000000,0.000000,0.000000,0.000000,0.000000,0.000105,-0.000720,-0.000002,0.000000,0.000000,0.000000,0.000000,819,819,819,819
9394,0,0.000000,0.000000,0.000000,0.00,0.00,0.000093,0.005000,0.000000,0.000002,0.000000,0.000000,0.000000,0.000000,0.000105,-0.000721,-0.000013,0.000000,0.000000,0.000000,0.000000,819,819,819,819
9405,0,0.000000,0.000000,0.000000,-0.00,0.00,0.000149,0.005000,-0.000000,0.000000,0.000000,0.000000,0.000000,0.000000,0.000105,-0.000720,-0.000029,0.000000,0.000000,0.000000,0.000000,819,819,819,819
9414,0,0.000000,0.000000,0.000000,0.00,-0.00,0.000062,0.005000,0.000000,-0.000002,0.000000,0.000000,0.000000,0.000000,0.000105,-0.000719,-0.000008,0.000000,0.000000,0.000000,0.000000,819,819,819,819
9424,0,0.000000,0.000000,0.000000,0.00,-0.00,0.000003,0.005000,0.000000,-0.000002,0.000000,0.000000,0.000000,0.000000,0.000105,-0.000719,0.000007,0.000000,0.000000,0.000000,0.000000,819,819,819,819
9434,0,0.000000,0.000000,0.000000,0.00,-0.00,0.000000,0.005000,0.000000,-0.000001,0.000000,0.000000,0.000000,0.000000,0.000105,-0.000719,0.000008,0.000000,0.000000,0.000000,0.000000,819,819,819,819
9445,0,0.000000,0.000000,0.000000,0.00,0.00,-0.000054,0.005000,0.000000,0.000001,0.000000,0.000000,0.000000,0.000000,0.000105,-0.000720,0.000022,0.000000,0.000000,0.000000,0.000000,819,819,819,819
9455,0,0.000000,0.000000,0.000000,0.00,0.00,-0.000003,0.005000,0.000000,0.000000,0.000000,0.000000,0.000000,0.000000,0.000105,-0.000720,0.000009,0.000000,0.000000,0.000000,0.000000,819,819,819,819
9465,0,0.000000,0.000000,0.000000,0.00,-0.00,-0.000018,0.005000,0.000000,-0.000000,0.000000,0.000000,0.000000,0.000000,0.000105,-0.000720,0.000013,0.000000,0.000000,0.000000,0.000000,819,819,819,819
9475,0,0.000000,0.000000,0.000000,0.00,-0.00,0.000053,0.005000,0.000000,-0.000000,0.000000,0.000000,0.000000,0.000000,0.000105,-0.000720,-0.000006,0.000000,0.000000,0.000000,0.000000,819,819,819,819
9485,0,0.000000,0.000000,0.000000,-0.00,0.00,0.000093,0.005000,-0.000000,0.000000,0.000000,0.000000,0.000000,0.000000,0.000105,-0.000720,-0.000017,0.000000,0.000000,0.000000,0.000000,819,819,819,819
9495,0,0.000000,0.000000,0.000000,-0.00,0.00,0.000095,0.005000,-0.000000,0.000000,0.000000,0.000000,0.000000,0.000000,0.000104,-0.000720,-0.000019,0.000000,0.000000,0.000000,0.000000,819,819,819,819
9507,0,0.000000,0.000000,0.000000,0.00,0.00,0.000023,0.005000,0.000000,0.000001,0.000000,0.000000,0.000000,0.000000,0.000105,-0.000720,-0.000000,0.000000,0.000000,0.000000,0.000000,819,819,819,819
9516,0,0.000000,0.000000,0.000000,-0.00,0.00,-0.000017,0.005000,-0.000000,0.000000,0.000000,0.000000,0.000000,0.000000,0.000104,-0.000720,0.000010,0.000000,0.000000,0.000000,0.000000,819,819,819,819
9525,0,0.000000,0.000000,0.000000,-0.00,0.00,-0.000091,0.005000,-0.000000,0.000000,0.000000,0.000000,0.000000,0.000000,0.000104,-0.000720,0.000030,0.000000,0.000000,0.000000,0.000000,819,819,819,819
9535,0,0.000000,0.000000,0.000000,-0.00,0.00,-0.000059,0.005000,-0.000000,0.000000,0.000000,0.000000,0.000000,0.000000,0.000104,-0.000720,0.000022,0.000000,0.000000,0.000000,0.000000,819,819,819,819
9545,0,0.000000,0.000000,0.000000,0.00,0.00,-0.000021,0.005000,0.000000,0.000001,0.000000,0.000000,0.000000,0.000000,0.000104,-0.000720,0.000013,0.000000,0.000000,0.000000,0.000000,819,819,819,819
9555,0,0.000000,0.000000,0.000000,-0.00,0.00,0.000017,0.005000,-0.000000,0.000000,0.000000,0.000000,0.000000,0.000000,0.000104,-0.000720,0.000003,0.000000,0.000000,0.000000,0.000000,819,819,819,819
9565,0,0.000000,0.000000,0.000000,0.00,0.00,0.000019,0.005000,0.000000,0.000000,0.000000,0.000000,0.000000,0.000000,0.000104,-0.000720,0.000002,0.000000,0.000000,0.000000,0.000000,819,819,819,819
9575,0,0.000000,0.000000,0.000000,0.00,0.00,-0.000017,0.005000,0.000000,0.000002,0.000000,0.000000,0.000000,0.000000,0.000104,-0.000721,0.000012,0.000000,0.000000,0.000000,0.000000,819,819,819,819
9585,0,0.000000,0.000000,0.000000,-0.00,0.00,0.000035,0.005000,-0.000000,0.000001,0.000000,0.000000,0.000000,0.000000,0.000104,-0.000721,-0.000002,0.000000,0.000000,0.000000,0.000000,819,819,819,819
9595,0,0.000000,0.000000,0.000000,-0.00,0.00,0.000020,0.005000,-0.000000,0.000002,0.000000,0.000000,0.000000,0.000000,0.000104,-0.000721,0.000002,0.000000,0.000000,0.000000,0.000000,819,819,819,819
9605,0,0.000000,0.000000,0.000000,-0.00,-0.00,-0.000017,0.005000,-0.000000,-0.000001,0.000000,0.000000,0.000000,0.000000,0.000104,-0.000720,0.000011,0.000000,0.000000,0.000000,0.000000,819,819,819,819
9615,0,0.000000,0.000000,0.000000,-0.00,-0.00,-0.000019,0.005000,-0.000000,-0.000001,0.000000,0.000000,0.000000,0.000000,0.000104,-0.000720,0.000012,0.000000,0.000000,0.000000,0.000000,819,819,819,819
9625,0,0.000000,0.000000,0.000000,-0.00,-0.00,-0.000055,0.005000,-0.000000,-0.000001,0.000000,0.000000,0.000000,0.000000,0.000104,-0.000720,0.000022,0.000000,0.000000,0.000000,0.000000,819,819,819,819
9635,0,0.000000,0.000000,0.000000,-0.00,0.00,-0.000057,0.005000,-0.000000,0.000000,0.000000,0.000000,0.000000,0.000000,0.000104,-0.000720,0.000023,0.000000,0.000000,0.000000,0.000000,819,819,819,819
9645,0,0.000000,0.000000,0.000000,-0.00,0.00,-0.000057,0.005000,-0.000000,0.000001,0.000000,0.000000,0.000000,0.000000,0.000104,-0.000721,0.000024,0.000000,0.000000,0.000000,0.000000,819,819,819,819
9655,0,0.000000,0.000000,0.000000,-0.00,0.00,0.000015,0.005000,-0.000000,0.000001,0.000000,0.000000,0.000000,0.000000,0.000104,-0.000721,0.000006,0.000000,0.000000,0.000000,0.000000,819,819,819,819
9673,0,0.000000,0.000000,0.000000,-0.00,0.00,0.000019,0.005000,-0.000000,0.000001,0.000000,0.000000,0.000000,0.000000,0.000104,-0.000721,0.000004,0.000000,0.000000,0.000000,0.000000,819,819,819,819
9684,0,0.000000,0.000000,0.000000,0.00,0.00,0.000000,0.005000,0.000000,0.000000,0.000000,0.000000,0.000000,0.000000,0.000104,-0.000721,0.000009,0.000000,0.000000,0.000000,0.000000,819,819,819,819
9696,0,0.000000,0.000000,0.000000,0.00,0.00,0.000054,0.005000,0.000000,0.000000,0.000000,0.000000,0.000000,0.000000,0.000104,-0.000720,-0.000005,0.000000,0.000000,0.000000,0.000000,819,819,819,819
9705,0,0.000000,0.000000,0.000000,0.00,0.00,-0.000033,0.005000,0.000000,0.000000,0.000000,0.000000,0.000000,0.000000,0.000104,-0.000721,0.000017,0.000000,0.000000,0.000000,0.000000,819,819,819,819
9715,0,0.000000,0.000000,0.000000,0.00,0.00,-0.000038,0.005000,0.000000,0.000000,0.000000,0.000000,0.000000,0.000000,0.000104,-0.000721,0.000019,0.000000,0.000000,0.000000,0.000000,819,819,819,819
9725,0,0.000000,0.000000,0.000000,0.00,-0.00,-0.000110,0.005000,0.000000,-0.000000,0.000000,0.000000,0.000000,0.000000,0.000104,-0.000720,0.000039,0.000000,0.000000,0.000000,0.000000,819,819,819,819
9735,0,0.000000,0.000000,0.000000,-0.00,0.00,-0.000024,0.005000,-0.000000,0.000000,0.000000,0.000000,0.000000,0.000000,0.000104,-0.000720,0.000017,0.000000,0.000000,0.000000,0.000000,819,819,819,819
9745,0,0.000000,0.000000,0.000000,-0.00,0.00,0.000035,0.005000,-0.000000,0.000000,0.000000,0.000000,0.000000,0.000000,0.000104,-0.000721,0.000002,0.000000,0.000000,0.000000,0.000000,819,819,819,819
9755,0,0.000000,0.000000,0.000000,-0.00,0.00,0.000074,0.005000,-0.000000,0.000000,0.000000,0.000000,0.000000,0.000000,0.000104,-0.000720,-0.000009,0.000000,0.000000,0.000000,0.000000,819,819,819,819
9765,0,0.000000,0.000000,0.000000,0.00,0.00,0.000004,0.005000,0.000000,0.000001,0.000000,0.000000,0.000000,0.000000,0.000104,-0.000721,0.000009,0.000000,0.000000,0.000000,0.000000,819,819,819,819
9775,0,0.000000,0.000000,0.000000,-0.00,-0.00,0.000000,0.005000,-0.000000,-0.000000,0.000000,0.000000,0.000000,0.000000,0.000104,-0.000720,0.000010,0.000000,0.000000,0.000000,0.000000,819,819,819,819
9785,0,0.000000,0.000000,0.000000,0.00,-0.00,-0.000036,0.005000,0.000000,-0.000000,0.000000,0.000000,0.000000,0.000000,0.000104,-0.000720,0.000019,0.000000,0.000000,0.000000,0.000000,819,819,819,819
9795,0,0.000000,0.000000,0.000000,-0.00,-0.00,-0.000056,0.005000,-0.000000,-0.000000,0.000000,0.000000,0.000000,0.000000,0.000104,-0.000720,0.000025,0.000000,0.000000,0.000000,0.000000,819,819,819,819
9805,0,0.000000,0.000000,0.000000,-0.00,0.00,-0.000057,0.005000,-0.000000,0.000000,0.000000,0.000000,0.000000,0.000000,0.000104,-0.000721,0.000026,0.000000,0.000000,0.000000,0.000000,819,819,819,819
9815,0,0.000000,0.000000,0.000000,0.00,-0.00,-0.000057,0.005000,0.000000,-0.000000,0.000000,0.000000,0.000000,0.000000,0.000104,-0.000720,0.000027,0.000000,0.000000,0.000000,0.000000,819,819,819,819
9825,0,0.000000,0.000000,0.000000,0.00,-0.00,-0.000039,0.005000,0.000000,-0.000000,0.000000,0.000000,0.000000,0.000000,0.000104,-0.000720,0.000023,0.000000,0.000000,0.000000,0.000000,819,819,819,819
9835,0,0.000000,0.000000,0.000000,0.00,-0.00,-0.000002,0.005000,0.000000,-0.000000,0.000000,0.000000,0.000000,0.000000,0.000104,-0.000720,0.000014,0.000000,0.000000,0.000000,0.000000,819,819,819,819
9845,0,0.000000,0.000000,0.000000,0.00,-0.00,-0.000000,0.005000,0.000000,-0.000000,0.000000,0.000000,0.000000,0.000000,0.000104,-0.000720,0.000013,0.000000,0.000000,0.000000,0.000000,819,819,819,819
9855,0,0.000000,0.000000,0.000000,-0.00,-0.00,-0.000018,0.005000,-0.000000,-0.000001,0.000000,0.000000,0.000000,0.000000,0.000104,-0.000720,0.000018,0.000000,0.000000,0.000000,0.000000,819,819,819,819
9865,0,0.000000,0.000000,0.000000,0.00,0.00,0.000035,0.005000,0.000000,0.000000,0.000000,0.000000,0.000000,0.000000,0.000104,-0.000720,0.000004,0.000000,0.000000,0.000000,0.000000,819,819,819,819
9875,0,0.000000,0.000000,0.000000,0.00,0.00,0.000020,0.005000,0.000000,0.000000,0.000000,0.000000,0.000000,0.000000,0.000104,-0.000720,0.000008,0.000000,0.000000,0.000000,0.000000,819,819,819,819
9885,0,0.000000,0.000000,0.000000,-0.00,-0.00,0.000019,0.005000,-0.000000,-0.000002,0.000000,0.000000,0.000000,0.000000,0.000104,-0.000720,0.000008,0.000000,0.000000,0.000000,0.000000,819,819,819,819
9895,0,0.000000,0.000000,0.000000,0.00,-0.00,0.000037,0.005000,0.000000,-0.000001,0.000000,0.000000,0.000000,0.000000,0.000104,-0.000720,0.000002,0.000000,0.000000,0.000000,0.000000,819,819,819,819
9905,0,0.000000,0.000000,0.000000,0.00,0.00,-0.000034,0.005000,0.000000,0.000000,0.000000,0.000000,0.000000,0.000000,0.000104,-0.000720,0.000021,0.000000,0.000000,0.000000,0.000000,819,819,819,819
9915,0,0.000000,0.000000,0.000000,-0.00,-0.00,-0.000002,0.005000,-0.000000,-0.000001,0.000000,0.000000,0.000000,0.000000,0.000104,-0.000720,0.000013,0.000000,0.000000,0.000000,0.000000,819,819,819,819
9925,0,0.000000,0.000000,0.000000,0.00,0.00,-0.000054,0.005000,0.000000,0.000000,0.000000,0.000000,0.000000,0.000000,0.000104,-0.000720,0.000027,0.000000,0.000000,0.000000,0.000000,819,819,819,819
9935,0,0.000000,0.000000,0.000000,0.00,0.00,-0.000039,0.005000,0.000000,0.000000,0.000000,0.000000,0.000000,0.000000,0.000104,-0.000720,0.000024,0.000000,0.000000,0.000000,0.000000,819,819,819,819
9945,0,0.000000,0.000000,0.000000,-0.00,0.00,-0.000020,0.005000,-0.000000,0.000000,0.000000,0.000000,0.000000,0.000000,0.000104,-0.000720,0.000019,0.000000,0.000000,0.000000,0.000000,819,819,819,819
9955,0,0.000000,0.000000,0.000000,-0.00,0.00,0.000053,0.005000,-0.000000,0.000000,0.000000,0.000000,0.000000,0.000000,0.000104,-0.000720,-0.000000,0.000000,0.000000,0.000000,0.000000,819,819,819,819
9965,0,0.000000,0.000000,0.000000,0.00,0.00,0.000039,0.005000,0.000000,0.000001,0.000000,0.000000,0.000000,0.000000,0.000104,-0.000721,0.000003,0.000000,0.000000,0.000000,0.000000,819,819,819,819
9975,0,0.000000,0.000000,0.000000,0.00,0.00,0.000020,0.005000,0.000000,0.000000,0.000000,0.000000,0.000000,0.000000,0.000104,-0.000720,0.000007,0.000000,0.000000,0.000000,0.000000,819,819,819,819
9993,0,0.000000,0.000000,0.000000,0.00,-0.00,0.000019,0.005000,0.000000,-0.000002,0.000000,0.000000,0.000000,0.000000,0.000104,-0.000719,0.000007,0.000000,0.000000,0.000000,0.000000,819,819,819,819
10002,0,0.000000,0.000000,0.000000,0.00,-0.00,-0.000035,0.005000,0.000000,-0.000000,0.000000,0.000000,0.000000,0.000000,0.000104,-0.000720,0.000022,0.000000,0.000000,0.000000,0.000000,819,819,819,819
10014,0,0.000000,0.000000,0.000000,-0.00,-0.00,-0.000002,0.005000,-0.000000,-0.000002,0.000000,0.000000,0.000000,0.000000,0.000104,-0.000719,0.000013,0.000000,0.000000,0.000000,0.000000,819,819,819,819
10026,0,0.000000,0.000000,0.000000,-0.00,0.00,-0.000018,0.005000,-0.000000,0.000000,0.000000,0.000000,0.000000,0.000000,0.000104,-0.000720,0.000018,0.000000,0.000000,0.000000,0.000000,819,819,819,819
10036,0,0.000000,0.000000,0.000000,-0.00,0.00,-0.000055,0.005000,-0.000000,0.000001,0.000000,0.000000,0.000000,0.000000,0.000104,-0.000721,0.000028,0.000000,0.000000,0.000000,0.000000,819,819,819,819
10046,0,0.000000,0.000000,0.000000,0.00,0.00,-0.000003,0.005000,0.000000,0.000001,0.000000,0.000000,0.000000,0.000000,0.000104,-0.000721,0.000015,0.000000,0.000000,0.000000,0.000000,819,819,819,819
