t,is_crashed,roll,pitch,yaw,throttle,roll_pid_out,pitch_pid_out,yaw_pid_out,motor_fl,motor_bl,motor_fr,motor_br,pwm_fl,pwm_bl,pwm_fr,pwm_br
8118,0,-0.29,-0.98,-0.38,-1.00,0.03,0.11,0.04,0.00,0.00,0.00,0.00,819,819,819,819
8125,0,-0.28,-0.99,-0.39,-1.00,0.20,0.20,0.20,0.00,0.00,0.00,0.00,819,819,819,819
8131,0,-0.28,-0.99,-0.39,-1.00,0.20,0.20,0.20,0.00,0.00,0.00,0.00,819,819,819,819
8137,0,-0.27,-1.00,-0.39,-1.00,0.20,0.20,0.20,0.00,0.00,0.00,0.00,819,819,819,819
8142,0,-0.27,-1.00,-0.39,-1.00,0.20,0.20,0.20,0.00,0.00,0.00,0.00,819,819,819,819
8147,0,-0.27,-1.01,-0.40,-1.00,0.20,0.20,0.20,0.00,0.00,0.00,0.00,819,819,819,819
8152,0,-0.27,-1.01,-0.40,-1.00,0.20,0.20,0.20,0.00,0.00,0.00,0.00,819,819,819,819
8158,0,-0.26,-1.02,-0.40,-1.00,0.20,0.20,0.20,0.00,0.00,0.00,0.00,819,819,819,819
8165,0,-0.26,-1.02,-0.40,-1.00,0.20,0.20,0.20,0.00,0.00,0.00,0.00,819,819,819,819
8171,0,-0.25,-1.02,-0.40,-1.00,0.20,0.20,0.20,0.00,0.00,0.00,0.00,819,819,819,819
8176,0,-0.24,-1.03,-0.40,-1.00,0.20,0.20,0.20,0.00,0.00,0.00,0.00,819,819,819,819
8183,0,-0.24,-1.03,-0.40,-1.00,0.20,0.20,0.20,0.00,0.00,0.00,0.00,819,819,819,819
8188,0,-0.23,-1.04,-0.40,-1.00,0.20,0.20,0.20,0.00,0.00,0.00,0.00,819,819,819,819
8200,0,-0.22,-1.04,-0.40,-1.00,0.20,0.20,0.20,0.00,0.00,0.00,0.00,819,819,819,819
8205,0,-0.20,-1.05,-0.40,-1.00,0.20,0.20,0.20,0.00,0.00,0.00,0.00,819,819,819,819
8212,0,-0.20,-1.05,-0.40,-1.00,0.20,0.20,0.20,0.00,0.00,0.00,0.00,819,819,819,819
8217,0,-0.18,-1.05,-0.41,-1.00,0.20,0.20,0.20,0.00,0.00,0.00,0.00,819,819,819,819
8224,0,-0.18,-1.05,-0.41,-1.00,0.20,0.20,0.20,0.00,0.00,0.00,0.00,819,819,819,819
8230,0,-0.16,-1.06,-0.41,-1.00,0.20,0.20,0.20,0.00,0.00,0.00,0.00,819,819,819,819
8236,0,-0.14,-1.07,-0.41,-1.00,0.20,0.20,0.20,0.00,0.00,0.00,0.00,819,819,819,819
8241,0,-0.14,-1.07,-0.41,-1.00,0.20,0.20,0.20,0.00,0.00,0.00,0.00,819,819,819,819
8246,0,-0.12,-1.07,-0.42,-1.00,0.20,0.20,0.20,0.00,0.00,0.00,0.00,819,819,819,819
8252,0,-0.12,-1.07,-0.42,-1.00,0.20,0.20,0.20,0.00,0.00,0.00,0.00,819,819,819,819
8257,0,-0.10,-1.08,-0.42,-1.00,0.20,0.20,0.20,0.00,0.00,0.00,0.00,819,819,819,819
8264,0,-0.10,-1.08,-0.42,-1.00,0.20,0.20,0.20,0.00,0.00,0.00,0.00,819,819,819,819
8270,0,-0.09,-1.09,-0.43,-1.00,0.20,0.20,0.20,0.00,0.00,0.00,0.00,819,819,819,819
8276,0,-0.07,-1.09,-0.44,-1.00,0.20,0.20,0.20,0.00,0.00,0.00,0.00,819,819,819,819
8282,0,-0.07,-1.09,-0.44,-1.00,0.20,0.20,0.20,0.00,0.00,0.00,0.00,819,819,819,819
8288,0,-0.06,-1.10,-0.44,-1.00,0.20,0.20,0.20,0.00,0.00,0.00,0.00,819,819,819,819
8293,0,-0.06,-1.10,-0.44,-1.00,0.20,0.20,0.20,0.00,0.00,0.00,0.00,819,819,819,819
8299,0,-0.04,-1.11,-0.45,-1.00,0.20,0.20,0.20,0.00,0.00,0.00,0.00,819,819,819,819
8305,0,-0.04,-1.11,-0.45,-1.00,0.20,0.20,0.20,0.00,0.00,0.00,0.00,819,819,819,819
8311,0,-0.02,-1.12,-0.45,-1.00,0.16,0.20,0.20,0.00,0.00,0.00,0.00,819,819,819,819
8317,0,0.00,-1.13,-0.46,-1.00,-0.03,0.20,0.20,0.00,0.00,0.00,0.00,819,819,819,819
8323,0,0.00,-1.13,-0.46,-1.00,-0.03,0.20,0.20,0.00,0.00,0.00,0.00,819,819,819,819
8330,0,0.03,-1.13,-0.47,-1.00,-0.20,0.20,0.20,0.00,0.00,0.00,0.00,819,819,819,819
8335,0,0.06,-1.14,-0.48,-1.00,-0.20,0.20,0.20,0.00,0.00,0.00,0.00,819,819,819,819
8341,0,0.06,-1.14,-0.48,-1.00,-0.20,0.20,0.20,0.00,0.00,0.00,0.00,819,819,819,819
8346,0,0.08,-1.14,-0.48,-1.00,-0.20,0.20,0.20,0.00,0.00,0.00,0.00,819,819,819,819
8352,0,0.08,-1.14,-0.48,-1.00,-0.20,0.20,0.20,0.00,0.00,0.00,0.00,819,819,819,819
8357,0,0.10,-1.14,-0.49,-1.00,-0.20,0.20,0.20,0.00,0.00,0.00,0.00,819,819,819,819
8364,0,0.10,-1.14,-0.49,-1.00,-0.20,0.20,0.20,0.00,0.00,0.00,0.00,819,819,819,819
8370,0,0.12,-1.14,-0.49,-1.00,-0.20,0.20,0.20,0.00,0.00,0.00,0.00,819,819,819,819
8375,0,0.13,-1.14,-0.50,-1.00,-0.20,0.20,0.20,0.00,0.00,0.00,0.00,819,819,819,819
8384,0,0.13,-1.14,-0.50,-1.00,-0.20,0.20,0.20,0.00,0.00,0.00,0.00,819,819,819,819
8389,0,0.14,-1.13,-0.51,-1.00,-0.20,0.20,0.20,0.00,0.00,0.00,0.00,819,819,819,819
8394,0,0.14,-1.13,-0.51,-1.00,-0.20,0.20,0.20,0.00,0.00,0.00,0.00,819,819,819,819
8399,0,0.15,-1.12,-0.51,-1.00,-0.20,0.20,0.20,0.00,0.00,0.00,0.00,819,819,819,819
8405,0,0.17,-1.12,-0.52,-1.00,-0.20,0.20,0.20,0.00,0.00,0.00,0.00,819,819,819,819
8412,0,0.17,-1.12,-0.52,-1.00,-0.20,0.20,0.20,0.00,0.00,0.00,0.00,819,819,819,819
8417,0,0.18,-1.11,-0.53,-1.00,-0.20,0.20,0.20,0.00,0.00,0.00,0.00,819,819,819,819
8423,0,0.18,-1.11,-0.53,-1.00,-0.20,0.20,0.20,0.00,0.00,0.00,0.00,819,819,819,819
8428,0,0.20,-1.10,-0.54,-1.00,-0.20,0.20,0.20,0.00,0.00,0.00,0.00,819,819,819,819
8434,0,0.20,-1.10,-0.54,-1.00,-0.20,0.20,0.20,0.00,0.00,0.00,0.00,819,819,819,819
8440,0,0.22,-1.09,-0.55,-1.00,-0.20,0.20,0.20,0.00,0.00,0.00,0.00,819,819,819,819
8445,0,0.22,-1.09,-0.55,-1.00,-0.20,0.20,0.20,0.00,0.00,0.00,0.00,819,819,819,819
8451,0,0.25,-1.08,-0.56,-1.00,-0.20,0.20,0.20,0.00,0.00,0.00,0.00,819,819,819,819
8456,0,0.27,-1.08,-0.57,-1.00,-0.20,0.20,0.20,0.00,0.00,0.00,0.00,819,819,819,819
8463,0,0.27,-1.08,-0.57,-1.00,-0.20,0.20,0.20,0.00,0.00,0.00,0.00,819,819,819,819
8468,0,0.30,-1.07,-0.58,-1.00,-0.20,0.20,0.20,0.00,0.00,0.00,0.00,819,819,819,819
8475,0,0.30,-1.07,-0.58,-1.00,-0.20,0.20,0.20,0.00,0.00,0.00,0.00,819,819,819,819
8481,0,0.33,-1.07,-0.58,-1.00,-0.20,0.20,0.20,0.00,0.00,0.00,0.00,819,819,819,819
8487,0,0.35,-1.07,-0.59,-1.00,-0.20,0.20,0.20,0.00,0.00,0.00,0.00,819,819,819,819
8492,0,0.35,-1.07,-0.59,-1.00,-0.20,0.20,0.20,0.00,0.00,0.00,0.00,819,819,819,819
8498,0,0.36,-1.07,-0.60,-1.00,-0.20,0.20,0.20,0.00,0.00,0.00,0.00,819,819,819,819
8503,0,0.36,-1.07,-0.60,-1.00,-0.20,0.20,0.20,0.00,0.00,0.00,0.00,819,819,819,819
8509,0,0.37,-1.06,-0.61,-1.00,-0.20,0.20,0.20,0.00,0.00,0.00,0.00,819,819,819,819
8515,0,0.37,-1.06,-0.61,-1.00,-0.20,0.20,0.20,0.00,0.00,0.00,0.00,819,819,819,819
8522,0,0.37,-1.05,-0.62,-1.00,-0.20,0.20,0.20,0.00,0.00,0.00,0.00,819,819,819,819
8527,0,0.37,-1.05,-0.62,-1.00,-0.20,0.20,0.20,0.00,0.00,0.00,0.00,819,819,819,819
8534,0,0.37,-1.05,-0.62,-1.00,-0.20,0.20,0.20,0.00,0.00,0.00,0.00,819,819,819,819
8539,0,0.36,-1.04,-0.63,-1.00,-0.20,0.20,0.20,0.00,0.00,0.00,0.00,819,819,819,819
8545,0,0.36,-1.04,-0.63,-1.00,-0.20,0.20,0.20,0.00,0.00,0.00,0.00,819,819,819,819
8550,0,0.36,-1.03,-0.64,-1.00,-0.20,0.20,0.20,0.00,0.00,0.00,0.00,819,819,819,819
8556,0,0.35,-1.02,-0.64,-1.00,-0.20,0.20,0.20,0.00,0.00,0.00,0.00,819,819,819,819
8566,0,0.35,-1.01,-0.65,-1.00,-0.20,0.20,0.20,0.00,0.00,0.00,0.00,819,819,819,819
8572,0,0.35,-1.01,-0.65,-1.00,-0.20,0.20,0.20,0.00,0.00,0.00,0.00,819,819,819,819
8577,0,0.36,-1.01,-0.65,-1.00,-0.20,0.20,0.20,0.00,0.00,0.00,0.00,819,819,819,819
8584,0,0.36,-1.01,-0.65,-1.00,-0.20,0.20,0.20,0.00,0.00,0.00,0.00,819,819,819,819
8589,0,0.36,-1.01,-0.66,-1.00,-0.20,0.20,0.20,0.00,0.00,0.00,0.00,819,819,819,819
8595,0,0.36,-1.01,-0.66,-1.00,-0.20,0.20,0.20,0.00,0.00,0.00,0.00,819,819,819,819
8601,0,0.37,-1.00,-0.67,-1.00,-0.20,0.20,0.20,0.00,0.00,0.00,0.00,819,819,819,819
8606,0,0.38,-1.00,-0.67,-1.00,-0.20,0.20,0.20,0.00,0.00,0.00,0.00,819,819,819,819
8613,0,0.38,-1.00,-0.67,-1.00,-0.20,0.20,0.20,0.00,0.00,0.00,0.00,819,819,819,819
8618,0,0.40,-1.00,-0.68,-1.00,-0.20,0.20,0.20,0.00,0.00,0.00,0.00,819,819,819,819
8625,0,0.40,-1.00,-0.68,-1.00,-0.20,0.20,0.20,0.00,0.00,0.00,0.00,819,819,819,819
8631,0,0.41,-0.99,-0.69,-1.00,-0.20,0.20,0.20,0.00,0.00,0.00,0.00,819,819,819,819
8637,0,0.42,-0.99,-0.69,-1.00,-0.20,0.20,0.20,0.00,0.00,0.00,0.00,819,819,819,819
8642,0,0.42,-0.99,-0.69,-1.00,-0.20,0.20,0.20,0.00,0.00,0.00,0.00,819,819,819,819
8648,0,0.43,-0.99,-0.70,-1.00,-0.20,0.20,0.20,0.00,0.00,0.00,0.00,819,819,819,819
8653,0,0.43,-0.99,-0.70,-1.00,-0.20,0.20,0.20,0.00,0.00,0.00,0.00,819,819,819,819
8659,0,0.44,-0.98,-0.71,-1.00,-0.20,0.20,0.20,0.00,0.00,0.00,0.00,819,819,819,819
8665,0,0.44,-0.98,-0.71,-1.00,-0.20,0.20,0.20,0.00,0.00,0.00,0.00,819,819,819,819
8671,0,0.44,-0.97,-0.71,-1.00,-0.20,0.20,0.20,0.00,0.00,0.00,0.00,819,819,819,819
8677,0,0.44,-0.96,-0.72,-1.00,-0.20,0.20,0.20,0.00,0.00,0.00,0.00,819,819,819,819
8683,0,0.44,-0.96,-0.72,-1.00,-0.20,0.20,0.20,0.00,0.00,0.00,0.00,819,819,819,819
8688,0,0.44,-0.95,-0.72,-1.00,-0.20,0.20,0.20,0.00,0.00,0.00,0.00,819,819,819,819
8694,0,0.44,-0.95,-0.72,-1.00,-0.20,0.20,0.20,0.00,0.00,0.00,0.00,819,819,819,819
8698,0,0.43,-0.95,-0.73,-1.00,-0.20,0.20,0.20,0.00,0.00,0.00,0.00,819,819,819,819
8704,0,0.43,-0.95,-0.73,-1.00,-0.20,0.20,0.20,0.00,0.00,0.00,0.00,819,819,819,819
8709,0,0.43,-0.94,-0.73,-1.00,-0.20,0.20,0.20,0.00,0.00,0.00,0.00,819,819,819,819
8715,0,0.43,-0.94,-0.73,-1.00,-0.20,0.20,0.20,0.00,0.00,0.00,0.00,819,819,819,819
8721,0,0.41,-0.93,-0.73,-1.00,-0.20,0.20,0.20,0.00,0.00,0.00,0.00,819,819,819,819
8727,0,0.40,-0.92,-0.74,-1.00,-0.20,0.20,0.20,0.00,0.00,0.00,0.00,819,819,819,819
8733,0,0.40,-0.92,-0.74,-1.00,-0.20,0.20,0.20,0.00,0.00,0.00,0.00,819,819,819,819
8738,0,0.38,-0.91,-0.74,-1.00,-0.20,0.20,0.20,0.00,0.00,0.00,0.00,819,819,819,819
8746,0,0.38,-0.91,-0.74,-1.00,-0.20,0.20,0.20,0.00,0.00,0.00,0.00,819,819,819,819
8751,0,0.36,-0.89,-0.74,-1.00,-0.20,0.20,0.20,0.00,0.00,0.00,0.00,819,819,819,819
8757,0,0.34,-0.88,-0.74,-1.00,-0.20,0.20,0.20,0.00,0.00,0.00,0.00,819,819,819,819
8763,0,0.34,-0.88,-0.74,-1.00,-0.20,0.20,0.20,0.00,0.00,0.00,0.00,819,819,819,819
8769,0,0.33,-0.86,-0.74,-1.00,-0.20,0.20,0.20,0.00,0.00,0.00,0.00,819,819,819,819
8775,0,0.33,-0.86,-0.74,-1.00,-0.20,0.20,0.20,0.00,0.00,0.00,0.00,819,819,819,819
8782,0,0.30,-0.85,-0.74,-1.00,-0.20,0.20,0.20,0.00,0.00,0.00,0.00,819,819,819,819
8787,0,0.28,-0.83,-0.73,-1.00,-0.20,0.20,0.20,0.00,0.00,0.00,0.00,819,819,819,819
8793,0,0.28,-0.83,-0.73,-1.00,-0.20,0.20,0.20,0.00,0.00,0.00,0.00,819,819,819,819
8798,0,0.26,-0.81,-0.73,-1.00,-0.20,0.20,0.20,0.00,0.00,0.00,0.00,819,819,819,819
8804,0,0.26,-0.81,-0.73,-1.00,-0.20,0.20,0.20,0.00,0.00,0.00,0.00,819,819,819,819
8809,0,0.23,-0.79,-0.73,-1.00,-0.20,0.20,0.20,0.00,0.00,0.00,0.00,819,819,819,819
8816,0,0.23,-0.79,-0.73,-1.00,-0.20,0.20,0.20,0.00,0.00,0.00,0.00,819,819,819,819
8822,0,0.21,-0.77,-0.72,-1.00,-0.20,0.20,0.20,0.00,0.00,0.00,0.00,819,819,819,819
8828,0,0.19,-0.74,-0.72,-1.00,-0.20,0.20,0.20,0.00,0.00,0.00,0.00,819,819,819,819
8834,0,0.19,-0.74,-0.72,-1.00,-0.20,0.20,0.20,0.00,0.00,0.00,0.00,819,819,819,819
8840,0,0.17,-0.72,-0.72,-1.00,-0.20,0.20,0.20,0.00,0.00,0.00,0.00,819,819,819,819
8845,0,0.17,-0.72,-0.72,-1.00,-0.20,0.20,0.20,0.00,0.00,0.00,0.00,819,819,819,819
8851,0,0.16,-0.69,-0.72,-1.00,-0.20,0.20,0.20,0.00,0.00,0.00,0.00,819,819,819,819
8856,0,0.16,-0.69,-0.72,-1.00,-0.20,0.20,0.20,0.00,0.00,0.00,0.00,819,819,819,819
8863,0,0.14,-0.65,-0.72,-1.00,-0.20,0.20,0.20,0.00,0.00,0.00,0.00,819,819,819,819
8868,0,0.13,-0.62,-0.72,-1.00,-0.20,0.20,0.20,0.00,0.00,0.00,0.00,819,819,819,819
8875,0,0.13,-0.62,-0.72,-1.00,-0.20,0.20,0.20,0.00,0.00,0.00,0.00,819,819,819,819
8881,0,0.11,-0.58,-0.73,-1.00,-0.20,0.20,0.20,0.00,0.00,0.00,0.00,819,819,819,819
8887,0,0.09,-0.55,-0.73,-1.00,-0.20,0.20,0.20,0.00,0.00,0.00,0.00,819,819,819,819
8892,0,0.09,-0.55,-0.73,-1.00,-0.20,0.20,0.20,0.00,0.00,0.00,0.00,819,819,819,819
8898,0,0.07,-0.52,-0.73,-1.00,-0.20,0.20,0.20,0.00,0.00,0.00,0.00,819,819,819,819
8903,0,0.07,-0.52,-0.73,-1.00,-0.20,0.20,0.20,0.00,0.00,0.00,0.00,819,819,819,819
8909,0,0.05,-0.49,-0.72,-1.00,-0.20,0.20,0.20,0.00,0.00,0.00,0.00,819,819,819,819
8915,0,0.05,-0.49,-0.72,-1.00,-0.20,0.20,0.20,0.00,0.00,0.00,0.00,819,819,819,819
8922,0,0.03,-0.47,-0.72,-1.00,-0.20,0.20,0.20,0.00,0.00,0.00,0.00,819,819,819,819
8929,0,0.01,-0.45,-0.71,-1.00,-0.09,0.20,0.20,0.00,0.00,0.00,0.00,819,819,819,819
8936,0,0.01,-0.45,-0.71,-1.00,-0.10,0.20,0.20,0.00,0.00,0.00,0.00,819,819,819,819
8941,0,-0.00,-0.42,-0.70,-1.00,0.04,0.20,0.20,0.00,0.00,0.00,0.00,819,819,819,819
8947,0,-0.00,-0.42,-0.70,-1.00,0.04,0.20,0.20,0.00,0.00,0.00,0.00,819,819,819,819
8952,0,-0.02,-0.40,-0.70,-1.00,0.20,0.20,0.20,0.00,0.00,0.00,0.00,819,819,819,819
8958,0,-0.03,-0.37,-0.69,-1.00,0.20,0.20,0.20,0.00,0.00,0.00,0.00,819,819,819,819
8964,0,-0.03,-0.37,-0.69,-1.00,0.20,0.20,0.20,0.00,0.00,0.00,0.00,819,819,819,819
8969,0,-0.05,-0.34,-0.69,-1.00,0.20,0.20,0.20,0.00,0.00,0.00,0.00,819,819,819,819
8976,0,-0.05,-0.34,-0.69,-1.00,0.20,0.20,0.20,0.00,0.00,0.00,0.00,819,819,819,819
8982,0,-0.06,-0.32,-0.68,-1.00,0.20,0.20,0.20,0.00,0.00,0.00,0.00,819,819,819,819
8988,0,-0.07,-0.29,-0.68,-1.00,0.20,0.20,0.20,0.00,0.00,0.00,0.00,819,819,819,819
8993,0,-0.07,-0.29,-0.68,-1.00,0.20,0.20,0.20,0.00,0.00,0.00,0.00,819,819,819,819
8998,0,-0.07,-0.27,-0.67,-1.00,0.20,0.20,0.20,0.00,0.00,0.00,0.00,819,819,819,819
9003,0,-0.07,-0.27,-0.67,-1.00,0.20,0.20,0.20,0.00,0.00,0.00,0.00,819,819,819,819
9009,0,-0.07,-0.24,-0.66,-1.00,0.20,0.20,0.20,0.00,0.00,0.00,0.00,819,819,819,819
9015,0,-0.07,-0.24,-0.66,-1.00,0.20,0.20,0.20,0.00,0.00,0.00,0.00,819,819,819,819
9020,0,-0.07,-0.23,-0.66,-1.00,0.20,0.20,0.20,0.00,0.00,0.00,0.00,819,819,819,819
9026,0,-0.07,-0.23,-0.66,-1.00,0.20,0.20,0.20,0.00,0.00,0.00,0.00,819,819,819,819
9033,0,-0.08,-0.21,-0.66,-1.00,0.20,0.20,0.20,0.00,0.00,0.00,0.00,819,819,819,819
9038,0,-0.09,-0.19,-0.65,-1.00,0.20,0.20,0.20,0.00,0.00,0.00,0.00,819,819,819,819
9044,0,-0.09,-0.19,-0.65,-1.00,0.20,0.20,0.20,0.00,0.00,0.00,0.00,819,819,819,819
9050,0,-0.09,-0.17,-0.65,-1.00,0.20,0.20,0.20,0.00,0.00,0.00,0.00,819,819,819,819
9055,0,-0.09,-0.17,-0.65,-1.00,0.20,0.20,0.20,0.00,0.00,0.00,0.00,819,819,819,819
9061,0,-0.10,-0.15,-0.65,-1.00,0.20,0.20,0.20,0.00,0.00,0.00,0.00,819,819,819,819
9067,0,-0.11,-0.13,-0.64,-1.00,0.20,0.20,0.20,0.00,0.00,0.00,0.00,819,819,819,819
9073,0,-0.11,-0.13,-0.64,-1.00,0.20,0.20,0.20,0.00,0.00,0.00,0.00,819,819,819,819
9079,0,-0.11,-0.11,-0.64,-1.00,0.20,0.20,0.20,0.00,0.00,0.00,0.00,819,819,819,819
9085,0,-0.11,-0.11,-0.64,-1.00,0.20,0.20,0.20,0.00,0.00,0.00,0.00,819,819,819,819
9091,0,-0.11,-0.10,-0.64,-1.00,0.20,0.20,0.20,0.00,0.00,0.00,0.00,819,819,819,819
9097,0,-0.11,-0.10,-0.64,-1.00,0.20,0.20,0.20,0.00,0.00,0.00,0.00,819,819,819,819
9102,0,-0.10,-0.08,-0.64,-1.00,0.20,0.20,0.20,0.00,0.00,0.00,0.00,819,819,819,819
9109,0,-0.10,-0.06,-0.64,-1.00,0.20,0.20,0.20,0.00,0.00,0.00,0.00,819,819,819,819
9116,0,-0.10,-0.06,-0.64,-1.00,0.20,0.20,0.20,0.00,0.00,0.00,0.00,819,819,819,819
9122,0,-0.11,-0.05,-0.64,-1.00,0.20,0.20,0.20,0.00,0.00,0.00,0.00,819,819,819,819
9128,0,-0.11,-0.03,-0.63,-1.00,0.20,0.20,0.20,0.00,0.00,0.00,0.00,819,819,819,819
9134,0,-0.11,-0.03,-0.63,-1.00,0.20,0.20,0.20,0.00,0.00,0.00,0.00,819,819,819,819
9140,0,-0.12,-0.01,-0.62,-1.00,0.20,0.09,0.20,0.00,0.00,0.00,0.00,819,819,819,819
9145,0,-0.12,-0.01,-0.62,-1.00,0.20,0.09,0.20,0.00,0.00,0.00,0.00,819,819,819,819
9151,0,-0.14,0.01,-0.61,-1.00,0.20,-0.10,0.20,0.00,0.00,0.00,0.00,819,819,819,819
9157,0,-0.14,0.01,-0.61,-1.00,0.20,-0.10,0.20,0.00,0.00,0.00,0.00,819,819,819,819
9163,0,-0.15,0.04,-0.60,-1.00,0.20,-0.20,0.20,0.00,0.00,0.00,0.00,819,819,819,819
9169,0,-0.17,0.06,-0.60,-1.00,0.20,-0.20,0.20,0.00,0.00,0.00,0.00,819,819,819,819
9175,0,-0.17,0.06,-0.60,-1.00,0.20,-0.20,0.20,0.00,0.00,0.00,0.00,819,819,819,819
9181,0,-0.18,0.09,-0.59,-1.00,0.20,-0.20,0.20,0.00,0.00,0.00,0.00,819,819,819,819
9187,0,-0.18,0.09,-0.59,-1.00,0.20,-0.20,0.20,0.00,0.00,0.00,0.00,819,819,819,819
9193,0,-0.19,0.13,-0.58,-1.00,0.20,-0.20,0.20,0.00,0.00,0.00,0.00,819,819,819,819
9198,0,-0.19,0.15,-0.58,-1.00,0.20,-0.20,0.20,0.00,0.00,0.00,0.00,819,819,819,819
9204,0,-0.19,0.15,-0.58,-1.00,0.20,-0.20,0.20,0.00,0.00,0.00,0.00,819,819,819,819
9209,0,-0.19,0.18,-0.57,-1.00,0.20,-0.20,0.20,0.00,0.00,0.00,0.00,819,819,819,819
9216,0,-0.19,0.18,-0.57,-1.00,0.20,-0.20,0.20,0.00,0.00,0.00,0.00,819,819,819,819
9222,0,-0.18,0.21,-0.57,-1.00,0.20,-0.20,0.20,0.00,0.00,0.00,0.00,819,819,819,819
9228,0,-0.17,0.24,-0.57,-1.00,0.20,-0.20,0.20,0.00,0.00,0.00,0.00,819,819,819,819
9234,0,-0.17,0.24,-0.57,-1.00,0.20,-0.20,0.20,0.00,0.00,0.00,0.00,819,819,819,819
9239,0,-0.16,0.27,-0.57,-1.00,0.20,-0.20,0.20,0.00,0.00,0.00,0.00,819,819,819,819
9245,0,-0.16,0.27,-0.57,-1.00,0.20,-0.20,0.20,0.00,0.00,0.00,0.00,819,819,819,819
9250,0,-0.16,0.29,-0.56,-1.00,0.20,-0.20,0.20,0.00,0.00,0.00,0.00,819,819,819,819
9255,0,-0.16,0.29,-0.56,-1.00,0.20,-0.20,0.20,0.00,0.00,0.00,0.00,819,819,819,819
9261,0,-0.17,0.32,-0.56,-1.00,0.20,-0.20,0.20,0.00,0.00,0.00,0.00,819,819,819,819
9267,0,-0.17,0.32,-0.56,-1.00,0.20,-0.20,0.20,0.00,0.00,0.00,0.00,819,819,819,819
9276,0,-0.18,0.34,-0.55,-1.00,0.20,-0.20,0.20,0.00,0.00,0.00,0.00,819,819,819,819
9282,0,-0.19,0.37,-0.54,-1.00,0.20,-0.20,0.20,0.00,0.00,0.00,0.00,819,819,819,819
9289,0,-0.20,0.39,-0.54,-1.00,0.20,-0.20,0.20,0.00,0.00,0.00,0.00,819,819,819,819
9294,0,-0.20,0.39,-0.54,-1.00,0.20,-0.20,0.20,0.00,0.00,0.00,0.00,819,819,819,819
9299,0,-0.21,0.42,-0.53,-1.00,0.20,-0.20,0.20,0.00,0.00,0.00,0.00,819,819,819,819
9305,0,-0.21,0.42,-0.53,-1.00,0.20,-0.20,0.20,0.00,0.00,0.00,0.00,819,819,819,819
9310,0,-0.21,0.45,-0.53,-1.00,0.20,-0.20,0.20,0.00,0.00,0.00,0.00,819,819,819,819
9316,0,-0.21,0.45,-0.53,-1.00,0.20,-0.20,0.20,0.00,0.00,0.00,0.00,819,819,819,819
9323,0,-0.22,0.48,-0.53,-1.00,0.20,-0.20,0.20,0.00,0.00,0.00,0.00,819,819,819,819
9329,0,-0.22,0.51,-0.53,-1.00,0.20,-0.20,0.20,0.00,0.00,0.00,0.00,819,819,819,819
9335,0,-0.22,0.51,-0.53,-1.00,0.20,-0.20,0.20,0.00,0.00,0.00,0.00,819,819,819,819
9341,0,-0.22,0.53,-0.54,-1.00,0.20,-0.20,0.20,0.00,0.00,0.00,0.00,819,819,819,819
9346,0,-0.22,0.53,-0.54,-1.00,0.20,-0.20,0.20,0.00,0.00,0.00,0.00,819,819,819,819
9352,0,-0.22,0.56,-0.55,-1.00,0.20,-0.20,0.20,0.00,0.00,0.00,0.00,819,819,819,819
9357,0,-0.22,0.56,-0.55,-1.00,0.20,-0.20,0.20,0.00,0.00,0.00,0.00,819,819,819,819
9364,0,-0.22,0.59,-0.55,-1.00,0.20,-0.20,0.20,0.00,0.00,0.00,0.00,819,819,819,819
9369,0,-0.23,0.61,-0.55,-1.00,0.20,-0.20,0.20,0.00,0.00,0.00,0.00,819,819,819,819
9376,0,-0.23,0.61,-0.55,-1.00,0.20,-0.20,0.20,0.00,0.00,0.00,0.00,819,819,819,819
9382,0,-0.24,0.63,-0.54,-1.00,0.20,-0.20,0.20,0.00,0.00,0.00,0.00,819,819,819,819
9388,0,-0.24,0.63,-0.54,-1.00,0.20,-0.20,0.20,0.00,0.00,0.00,0.00,819,819,819,819
9394,0,-0.24,0.65,-0.54,-1.00,0.20,-0.20,0.20,0.00,0.00,0.00,0.00,819,819,819,819
9399,0,-0.24,0.67,-0.53,-1.00,0.20,-0.20,0.20,0.00,0.00,0.00,0.00,819,819,819,819
9405,0,-0.24,0.67,-0.53,-1.00,0.20,-0.20,0.20,0.00,0.00,0.00,0.00,819,819,819,819
9410,0,-0.24,0.69,-0.52,-1.00,0.20,-0.20,0.20,0.00,0.00,0.00,0.00,819,819,819,819
9416,0,-0.24,0.69,-0.52,-1.00,0.20,-0.20,0.20,0.00,0.00,0.00,0.00,819,819,819,819
9423,0,-0.24,0.70,-0.51,-1.00,0.20,-0.20,0.20,0.00,0.00,0.00,0.00,819,819,819,819
9429,0,-0.25,0.71,-0.50,-1.00,0.20,-0.20,0.20,0.00,0.00,0.00,0.00,819,819,819,819
9435,0,-0.25,0.71,-0.50,-1.00,0.20,-0.20,0.20,0.00,0.00,0.00,0.00,819,819,819,819
9441,0,-0.25,0.73,-0.49,-1.00,0.20,-0.20,0.20,0.00,0.00,0.00,0.00,819,819,819,819
9446,0,-0.25,0.73,-0.49,-1.00,0.20,-0.20,0.20,0.00,0.00,0.00,0.00,819,819,819,819
9452,0,-0.25,0.74,-0.48,-1.00,0.20,-0.20,0.20,0.00,0.00,0.00,0.00,819,819,819,819
9457,0,-0.25,0.74,-0.48,-1.00,0.20,-0.20,0.20,0.00,0.00,0.00,0.00,819,819,819,819
9464,0,-0.25,0.76,-0.47,-1.00,0.20,-0.20,0.20,0.00,0.00,0.00,0.00,819,819,819,819
9471,0,-0.24,0.77,-0.47,-1.00,0.20,-0.20,0.20,0.00,0.00,0.00,0.00,819,819,819,819
9478,0,-0.24,0.77,-0.47,-1.00,0.20,-0.20,0.20,0.00,0.00,0.00,0.00,819,819,819,819
9484,0,-0.23,0.79,-0.46,-1.00,0.20,-0.20,0.20,0.00,0.00,0.00,0.00,819,819,819,819
9490,0,-0.22,0.80,-0.46,-1.00,0.20,-0.20,0.20,0.00,0.00,0.00,0.00,819,819,819,819
9495,0,-0.22,0.80,-0.46,-1.00,0.20,-0.20,0.20,0.00,0.00,0.00,0.00,819,819,819,819
9501,0,-0.21,0.81,-0.45,-1.00,0.20,-0.20,0.20,0.00,0.00,0.00,0.00,819,819,819,819
9506,0,-0.21,0.81,-0.45,-1.00,0.20,-0.20,0.20,0.00,0.00,0.00,0.00,819,819,819,819
9512,0,-0.20,0.82,-0.45,-1.00,0.20,-0.20,0.20,0.00,0.00,0.00,0.00,819,819,819,819
9518,0,-0.19,0.83,-0.44,-1.00,0.20,-0.20,0.20,0.00,0.00,0.00,0.00,819,819,819,819
9525,0,-0.19,0.83,-0.44,-1.00,0.20,-0.20,0.20,0.00,0.00,0.00,0.00,819,819,819,819
9530,0,-0.18,0.84,-0.43,-1.00,0.20,-0.20,0.20,0.00,0.00,0.00,0.00,819,819,819,819
9537,0,-0.18,0.84,-0.43,-1.00,0.20,-0.20,0.20,0.00,0.00,0.00,0.00,819,819,819,819
9542,0,-0.17,0.85,-0.42,-1.00,0.20,-0.20,0.20,0.00,0.00,0.00,0.00,819,819,819,819
9548,0,-0.17,0.85,-0.42,-1.00,0.20,-0.20,0.20,0.00,0.00,0.00,0.00,819,819,819,819
9553,0,-0.17,0.86,-0.41,-1.00,0.20,-0.20,0.20,0.00,0.00,0.00,0.00,819,819,819,819
9559,0,-0.16,0.87,-0.41,-1.00,0.20,-0.20,0.20,0.00,0.00,0.00,0.00,819,819,819,819
9565,0,-0.16,0.87,-0.41,-1.00,0.20,-0.20,0.20,0.00,0.00,0.00,0.00,819,819,819,819
9571,0,-0.15,0.87,-0.40,-1.00,0.20,-0.20,0.20,0.00,0.00,0.00,0.00,819,819,819,819
9577,0,-0.15,0.87,-0.40,-1.00,0.20,-0.20,0.20,0.00,0.00,0.00,0.00,819,819,819,819
9583,0,-0.15,0.88,-0.39,-1.00,0.20,-0.20,0.20,0.00,0.00,0.00,0.00,819,819,819,819
9589,0,-0.14,0.89,-0.39,-1.00,0.20,-0.20,0.20,0.00,0.00,0.00,0.00,819,819,819,819
9594,0,-0.14,0.89,-0.39,-1.00,0.20,-0.20,0.20,0.00,0.00,0.00,0.00,819,819,819,819
9599,0,-0.14,0.90,-0.38,-1.00,0.20,-0.20,0.20,0.00,0.00,0.00,0.00,819,819,819,819
9605,0,-0.14,0.90,-0.38,-1.00,0.20,-0.20,0.20,0.00,0.00,0.00,0.00,819,819,819,819
9610,0,-0.14,0.91,-0.37,-1.00,0.20,-0.20,0.20,0.00,0.00,0.00,0.00,819,819,819,819
9617,0,-0.14,0.91,-0.37,-1.00,0.20,-0.20,0.20,0.00,0.00,0.00,0.00,819,819,819,819
9623,0,-0.14,0.92,-0.37,-1.00,0.20,-0.20,0.20,0.00,0.00,0.00,0.00,819,819,819,819
9629,0,-0.13,0.93,-0.37,-1.00,0.20,-0.20,0.20,0.00,0.00,0.00,0.00,819,819,819,819
9635,0,-0.13,0.93,-0.37,-1.00,0.20,-0.20,0.20,0.00,0.00,0.00,0.00,819,819,819,819
9641,0,-0.12,0.94,-0.37,-1.00,0.20,-0.20,0.20,0.00,0.00,0.00,0.00,819,819,819,819
9646,0,-0.12,0.94,-0.37,-1.00,0.20,-0.20,0.20,0.00,0.00,0.00,0.00,819,819,819,819
9654,0,-0.11,0.95,-0.36,-1.00,0.20,-0.20,0.20,0.00,0.00,0.00,0.00,819,819,819,819
9659,0,-0.10,0.96,-0.36,-1.00,0.20,-0.20,0.20,0.00,0.00,0.00,0.00,819,819,819,819
9666,0,-0.10,0.96,-0.36,-1.00,0.20,-0.20,0.20,0.00,0.00,0.00,0.00,819,819,819,819
9672,0,-0.09,0.97,-0.35,-1.00,0.20,-0.20,0.20,0.00,0.00,0.00,0.00,819,819,819,819
9678,0,-0.09,0.97,-0.35,-1.00,0.20,-0.20,0.20,0.00,0.00,0.00,0.00,819,819,819,819
9685,0,-0.09,0.98,-0.34,-1.00,0.20,-0.20,0.20,0.00,0.00,0.00,0.00,819,819,819,819
9690,0,-0.08,0.99,-0.33,-1.00,0.20,-0.20,0.20,0.00,0.00,0.00,0.00,819,819,819,819
9696,0,-0.08,0.99,-0.33,-1.00,0.20,-0.20,0.20,0.00,0.00,0.00,0.00,819,819,819,819
9701,0,-0.08,1.00,-0.33,-1.00,0.20,-0.20,0.20,0.00,0.00,0.00,0.00,819,819,819,819
9707,0,-0.08,1.00,-0.33,-1.00,0.20,-0.20,0.20,0.00,0.00,0.00,0.00,819,819,819,819
9712,0,-0.08,1.01,-0.32,-1.00,0.20,-0.20,0.20,0.00,0.00,0.00,0.00,819,819,819,819
9718,0,-0.08,1.01,-0.32,-1.00,0.20,-0.20,0.20,0.00,0.00,0.00,0.00,819,819,819,819
9725,0,-0.07,1.02,-0.31,-1.00,0.20,-0.20,0.20,0.00,0.00,0.00,0.00,819,819,819,819
9730,0,-0.07,1.02,-0.30,-1.00,0.20,-0.20,0.20,0.00,0.00,0.00,0.00,819,819,819,819
9737,0,-0.07,1.02,-0.30,-1.00,0.20,-0.20,0.20,0.00,0.00,0.00,0.00,819,819,819,819
9742,0,-0.06,1.03,-0.29,-1.00,0.20,-0.20,0.20,0.00,0.00,0.00,0.00,819,819,819,819
9748,0,-0.06,1.03,-0.29,-1.00,0.20,-0.20,0.20,0.00,0.00,0.00,0.00,819,819,819,819
9753,0,-0.05,1.04,-0.29,-1.00,0.20,-0.20,0.20,0.00,0.00,0.00,0.00,819,819,819,819
9759,0,-0.04,1.04,-0.28,-1.00,0.20,-0.20,0.20,0.00,0.00,0.00,0.00,819,819,819,819
9765,0,-0.04,1.04,-0.28,-1.00,0.20,-0.20,0.20,0.00,0.00,0.00,0.00,819,819,819,819
9771,0,-0.04,1.05,-0.27,-1.00,0.20,-0.20,0.20,0.00,0.00,0.00,0.00,819,819,819,819
9778,0,-0.04,1.05,-0.27,-1.00,0.20,-0.20,0.20,0.00,0.00,0.00,0.00,819,819,819,819
9784,0,-0.03,1.05,-0.27,-1.00,0.20,-0.20,0.20,0.00,0.00,0.00,0.00,819,819,819,819
9789,0,-0.02,1.05,-0.27,-1.00,0.19,-0.20,0.20,0.00,0.00,0.00,0.00,819,819,819,819
9795,0,-0.02,1.05,-0.27,-1.00,0.19,-0.20,0.20,0.00,0.00,0.00,0.00,819,819,819,819
9801,0,-0.02,1.05,-0.27,-1.00,0.14,-0.20,0.20,0.00,0.00,0.00,0.00,819,819,819,819
9806,0,-0.02,1.05,-0.27,-1.00,0.14,-0.20,0.20,0.00,0.00,0.00,0.00,819,819,819,819
9812,0,-0.01,1.05,-0.27,-1.00,0.09,-0.20,0.20,0.00,0.00,0.00,0.00,819,819,819,819
9818,0,-0.01,1.05,-0.27,-1.00,0.08,-0.20,0.20,0.00,0.00,0.00,0.00,819,819,819,819
9824,0,-0.00,1.05,-0.27,-1.00,0.04,-0.20,0.20,0.00,0.00,0.00,0.00,819,819,819,819
9830,0,-0.00,1.05,-0.27,-1.00,0.01,-0.20,0.20,0.00,0.00,0.00,0.00,819,819,819,819
9837,0,-0.00,1.05,-0.27,-1.00,0.00,-0.20,0.20,0.00,0.00,0.00,0.00,819,819,819,819
9843,0,0.00,1.05,-0.27,-1.00,0.00,-0.20,0.20,0.00,0.00,0.00,0.00,819,819,819,819
9848,0,0.00,1.05,-0.27,-1.00,0.00,-0.20,0.20,0.00,0.00,0.00,0.00,819,819,819,819
9853,0,0.00,1.05,-0.27,-1.00,-0.03,-0.20,0.20,0.00,0.00,0.00,0.00,819,819,819,819
9859,0,0.00,1.05,-0.28,-1.00,-0.04,-0.20,0.20,0.00,0.00,0.00,0.00,819,819,819,819
9865,0,0.00,1.05,-0.28,-1.00,-0.04,-0.20,0.20,0.00,0.00,0.00,0.00,819,819,819,819
9871,0,0.00,1.05,-0.28,-1.00,-0.06,-0.20,0.20,0.00,0.00,0.00,0.00,819,819,819,819
9877,0,0.00,1.05,-0.28,-1.00,-0.05,-0.20,0.20,0.00,0.00,0.00,0.00,819,819,819,819
9882,0,0.00,1.05,-0.28,-1.00,-0.07,-0.20,0.20,0.00,0.00,0.00,0.00,819,819,819,819
9888,0,0.00,1.05,-0.28,-1.00,-0.06,-0.20,0.20,0.00,0.00,0.00,0.00,819,819,819,819
9894,0,0.00,1.05,-0.28,-1.00,-0.08,-0.20,0.20,0.00,0.00,0.00,0.00,819,819,819,819
9899,0,0.01,1.05,-0.28,-1.00,-0.09,-0.20,0.20,0.00,0.00,0.00,0.00,819,819,819,819
9905,0,0.01,1.05,-0.28,-1.00,-0.09,-0.20,0.20,0.00,0.00,0.00,0.00,819,819,819,819
9910,0,0.01,1.05,-0.27,-1.00,-0.09,-0.20,0.20,0.00,0.00,0.00,0.00,819,819,819,819
9917,0,0.01,1.05,-0.27,-1.00,-0.08,-0.20,0.20,0.00,0.00,0.00,0.00,819,819,819,819
9922,0,0.01,1.05,-0.27,-1.00,-0.09,-0.20,0.20,0.00,0.00,0.00,0.00,819,819,819,819
9929,0,0.01,1.05,-0.27,-1.00,-0.08,-0.20,0.20,0.00,0.00,0.00,0.00,819,819,819,819
9935,0,0.01,1.05,-0.28,-1.00,-0.10,-0.20,0.20,0.00,0.00,0.00,0.00,819,819,819,819
9941,0,0.02,1.05,-0.28,-1.00,-0.14,-0.20,0.20,0.00,0.00,0.00,0.00,819,819,819,819
9946,0,0.02,1.05,-0.28,-1.00,-0.14,-0.20,0.20,0.00,0.00,0.00,0.00,819,819,819,819
9952,0,0.02,1.05,-0.28,-1.00,-0.15,-0.20,0.20,0.00,0.00,0.00,0.00,819,819,819,819
9957,0,0.02,1.05,-0.28,-1.00,-0.15,-0.20,0.20,0.00,0.00,0.00,0.00,819,819,819,819
9964,0,0.02,1.05,-0.28,-1.00,-0.14,-0.20,0.20,0.00,0.00,0.00,0.00,819,819,819,819
9969,0,0.02,1.05,-0.28,-1.00,-0.14,-0.20,0.20,0.00,0.00,0.00,0.00,819,819,819,819
9976,0,0.01,1.05,-0.28,-1.00,-0.11,-0.20,0.20,0.00,0.00,0.00,0.00,819,819,819,819
9981,0,0.01,1.05,-0.27,-1.00,-0.09,-0.20,0.20,0.00,0.00,0.00,0.00,819,819,819,819
9988,0,0.01,1.05,-0.27,-1.00,-0.08,-0.20,0.20,0.00,0.00,0.00,0.00,819,819,819,819
9993,0,0.00,1.05,-0.27,-1.00,-0.05,-0.20,0.20,0.00,0.00,0.00,0.00,819,819,819,819
9999,0,0.00,1.05,-0.27,-1.00,-0.05,-0.20,0.20,0.00,0.00,0.00,0.00,819,819,819,819
10005,0,0.00,1.04,-0.27,-1.00,-0.01,-0.20,0.20,0.00,0.00,0.00,0.00,819,819,819,819
10010,0,-0.00,1.04,-0.27,-1.00,0.01,-0.20,0.20,0.00,0.00,0.00,0.00,819,819,819,819
10018,0,-0.00,1.04,-0.27,-1.00,0.00,-0.20,0.20,0.00,0.00,0.00,0.00,819,819,819,819
10025,0,0.00,1.04,-0.27,-1.00,0.00,-0.20,0.20,0.00,0.00,0.00,0.00,819,819,819,819
10030,0,0.00,1.03,-0.27,-1.00,-0.01,-0.20,0.20,0.00,0.00,0.00,0.00,819,819,819,819
10037,0,0.00,1.03,-0.27,-1.00,-0.00,-0.20,0.20,0.00,0.00,0.00,0.00,819,819,819,819
10042,0,0.00,1.03,-0.28,-1.00,-0.05,-0.20,0.20,0.00,0.00,0.00,0.00,819,819,819,819
10048,0,0.00,1.03,-0.28,-1.00,-0.05,-0.20,0.20,0.00,0.00,0.00,0.00,819,819,819,819
10054,0,0.01,1.02,-0.29,-1.00,-0.09,-0.20,0.20,0.00,0.00,0.00,0.00,819,819,819,819
10059,0,0.01,1.02,-0.29,-1.00,-0.08,-0.20,0.20,0.00,0.00,0.00,0.00,819,819,819,819
10066,0,0.02,1.02,-0.29,-1.00,-0.12,-0.20,0.20,0.00,0.00,0.00,0.00,819,819,819,819
10071,0,0.02,1.01,-0.30,-1.00,-0.17,-0.20,0.20,0.00,0.00,0.00,0.00,819,819,819,819
10078,0,0.02,1.01,-0.30,-1.00,-0.14,-0.20,0.20,0.00,0.00,0.00,0.00,819,819,819,819
10084,0,0.02,1.00,-0.30,-1.00,-0.16,-0.20,0.20,0.00,0.00,0.00,0.00,819,819,819,819
10090,0,0.02,0.99,-0.31,-1.00,-0.16,-0.20,0.20,0.00,0.00,0.00,0.00,819,819,819,819
10096,0,0.02,0.99,-0.31,-1.00,-0.17,-0.20,0.20,0.00,0.00,0.00,0.00,819,819,819,819
10101,0,0.02,0.98,-0.31,-1.00,-0.14,-0.20,0.20,0.00,0.00,0.00,0.00,819,819,819,819
10107,0,0.02,0.98,-0.31,-1.00,-0.14,-0.20,0.20,0.00,0.00,0.00,0.00,819,819,819,819
10112,0,0.01,0.97,-0.32,-1.00,-0.09,-0.20,0.20,0.00,0.00,0.00,0.00,819,819,819,819
10118,0,0.01,0.97,-0.32,-1.00,-0.08,-0.20,0.20,0.00,0.00,0.00,0.00,819,819,819,819
10125,0,0.00,0.96,-0.32,-1.00,-0.02,-0.20,0.20,0.00,0.00,0.00,0.00,819,819,819,819
10130,0,-0.00,0.94,-0.33,-1.00,0.02,-0.20,0.20,0.00,0.00,0.00,0.00,819,819,819,819
10136,0,-0.00,0.94,-0.33,-1.00,0.02,-0.20,0.20,0.00,0.00,0.00,0.00,819,819,819,819
10142,0,-0.00,0.93,-0.33,-1.00,0.06,-0.20,0.20,0.00,0.00,0.00,0.00,819,819,819,819
10148,0,-0.00,0.93,-0.33,-1.00,0.06,-0.20,0.20,0.00,0.00,0.00,0.00,819,819,819,819
10153,0,-0.01,0.91,-0.34,-1.00,0.10,-0.20,0.20,0.00,0.00,0.00,0.00,819,819,819,819
10158,0,-0.01,0.91,-0.34,-1.00,0.09,-0.20,0.20,0.00,0.00,0.00,0.00,819,819,819,819
10164,0,-0.01,0.89,-0.35,-1.00,0.09,-0.20,0.20,0.00,0.00,0.00,0.00,819,819,819,819
10170,0,-0.01,0.89,-0.35,-1.00,0.08,-0.20,0.20,0.00,0.00,0.00,0.00,819,819,819,819
10176,0,-0.01,0.87,-0.35,-1.00,0.08,-0.20,0.20,0.00,0.00,0.00,0.00,819,819,819,819
10181,0,-0.00,0.86,-0.37,-1.00,0.06,-0.20,0.20,0.00,0.00,0.00,0.00,819,819,819,819
10188,0,-0.00,0.86,-0.37,-1.00,0.05,-0.20,0.20,0.00,0.00,0.00,0.00,819,819,819,819
10193,0,-0.00,0.84,-0.38,-1.00,0.02,-0.20,0.20,0.00,0.00,0.00,0.00,819,819,819,819
10200,0,0.00,0.82,-0.39,-1.00,-0.02,-0.20,0.20,0.00,0.00,0.00,0.00,819,819,819,819
10206,0,0.00,0.82,-0.39,-1.00,-0.03,-0.20,0.20,0.00,0.00,0.00,0.00,819,819,819,819
10211,0,0.01,0.80,-0.40,-1.00,-0.09,-0.20,0.20,0.00,0.00,0.00,0.00,819,819,819,819
10218,0,0.01,0.80,-0.40,-1.00,-0.08,-0.20,0.20,0.00,0.00,0.00,0.00,819,819,819,819
10224,0,0.02,0.78,-0.41,-1.00,-0.14,-0.20,0.20,0.00,0.00,0.00,0.00,819,819,819,819
10230,0,0.02,0.78,-0.41,-1.00,-0.13,-0.20,0.20,0.00,0.00,0.00,0.00,819,819,819,819
10236,0,0.02,0.76,-0.42,-1.00,-0.16,-0.20,0.20,0.00,0.00,0.00,0.00,819,819,819,819
10242,0,0.02,0.74,-0.42,-1.00,-0.20,-0.20,0.20,0.00,0.00,0.00,0.00,819,819,819,819
10247,0,0.02,0.74,-0.42,-1.00,-0.20,-0.20,0.20,0.00,0.00,0.00,0.00,819,819,819,819
10253,0,0.03,0.73,-0.43,-1.00,-0.20,-0.20,0.20,0.00,0.00,0.00,0.00,819,819,819,819
10258,0,0.03,0.73,-0.43,-1.00,-0.20,-0.20,0.20,0.00,0.00,0.00,0.00,819,819,819,819
10264,0,0.02,0.71,-0.43,-1.00,-0.20,-0.20,0.20,0.00,0.00,0.00,0.00,819,819,819,819
10270,0,0.02,0.69,-0.44,-1.00,-0.19,-0.20,0.20,0.00,0.00,0.00,0.00,819,819,819,819
10277,0,0.02,0.69,-0.44,-1.00,-0.17,-0.20,0.20,0.00,0.00,0.00,0.00,819,819,819,819
10282,0,0.02,0.68,-0.44,-1.00,-0.18,-0.20,0.20,0.00,0.00,0.00,0.00,819,819,819,819
10289,0,0.02,0.68,-0.44,-1.00,-0.15,-0.20,0.20,0.00,0.00,0.00,0.00,819,819,819,819
10294,0,0.02,0.67,-0.44,-1.00,-0.18,-0.20,0.20,0.00,0.00,0.00,0.00,819,819,819,819
10300,0,0.02,0.67,-0.44,-1.00,-0.17,-0.20,0.20,0.00,0.00,0.00,0.00,819,819,819,819
10305,0,0.02,0.65,-0.44,-1.00,-0.20,-0.20,0.20,0.00,0.00,0.00,0.00,819,819,819,819
10311,0,0.03,0.63,-0.45,-1.00,-0.20,-0.20,0.20,0.00,0.00,0.00,0.00,819,819,819,819
10317,0,0.03,0.63,-0.45,-1.00,-0.20,-0.20,0.20,0.00,0.00,0.00,0.00,819,819,819,819
10323,0,0.04,0.61,-0.45,-1.00,-0.20,-0.20,0.20,0.00,0.00,0.00,0.00,819,819,819,819
10329,0,0.04,0.61,-0.45,-1.00,-0.20,-0.20,0.20,0.00,0.00,0.00,0.00,819,819,819,819
10336,0,0.06,0.59,-0.45,-1.00,-0.20,-0.20,0.20,0.00,0.00,0.00,0.00,819,819,819,819
10341,0,0.07,0.56,-0.46,-1.00,-0.20,-0.20,0.20,0.00,0.00,0.00,0.00,819,819,819,819
10347,0,0.07,0.56,-0.46,-1.00,-0.20,-0.20,0.20,0.00,0.00,0.00,0.00,819,819,819,819
10352,0,0.09,0.54,-0.46,-1.00,-0.20,-0.20,0.20,0.00,0.00,0.00,0.00,819,819,819,819
10358,0,0.09,0.54,-0.46,-1.00,-0.20,-0.20,0.20,0.00,0.00,0.00,0.00,819,819,819,819
10363,0,0.10,0.52,-0.47,-1.00,-0.20,-0.20,0.20,0.00,0.00,0.00,0.00,819,819,819,819
10370,0,0.10,0.52,-0.47,-1.00,-0.20,-0.20,0.20,0.00,0.00,0.00,0.00,819,819,819,819
10376,0,0.12,0.50,-0.47,-1.00,-0.20,-0.20,0.20,0.00,0.00,0.00,0.00,819,819,819,819
10384,0,0.13,0.49,-0.48,-1.00,-0.20,-0.20,0.20,0.00,0.00,0.00,0.00,819,819,819,819
10390,0,0.13,0.49,-0.48,-1.00,-0.20,-0.20,0.20,0.00,0.00,0.00,0.00,819,819,819,819
10396,0,0.15,0.47,-0.49,-1.00,-0.20,-0.20,0.20,0.00,0.00,0.00,0.00,819,819,819,819
10401,0,0.16,0.46,-0.49,-1.00,-0.20,-0.20,0.20,0.00,0.00,0.00,0.00,819,819,819,819
10406,0,0.16,0.46,-0.49,-1.00,-0.20,-0.20,0.20,0.00,0.00,0.00,0.00,819,819,819,819
10412,0,0.18,0.45,-0.50,-1.00,-0.20,-0.20,0.20,0.00,0.00,0.00,0.00,819,819,819,819
10418,0,0.18,0.45,-0.50,-1.00,-0.20,-0.20,0.20,0.00,0.00,0.00,0.00,819,819,819,819
10423,0,0.20,0.43,-0.51,-1.00,-0.20,-0.20,0.20,0.00,0.00,0.00,0.00,819,819,819,819
10429,0,0.20,0.43,-0.51,-1.00,-0.20,-0.20,0.20,0.00,0.00,0.00,0.00,819,819,819,819
10438,0,0.22,0.42,-0.52,-1.00,-0.20,-0.20,0.20,0.00,0.00,0.00,0.00,819,819,819,819
10444,0,0.24,0.41,-0.53,-1.00,-0.20,-0.20,0.20,0.00,0.00,0.00,0.00,819,819,819,819
10449,0,0.24,0.41,-0.53,-1.00,-0.20,-0.20,0.20,0.00,0.00,0.00,0.00,819,819,819,819
10454,0,0.26,0.39,-0.53,-1.00,-0.20,-0.20,0.20,0.00,0.00,0.00,0.00,819,819,819,819
10459,0,0.26,0.39,-0.53,-1.00,-0.20,-0.20,0.20,0.00,0.00,0.00,0.00,819,819,819,819
10466,0,0.28,0.38,-0.54,-1.00,-0.20,-0.20,0.20,0.00,0.00,0.00,0.00,819,819,819,819
10471,0,0.30,0.37,-0.54,-1.00,-0.20,-0.20,0.20,0.00,0.00,0.00,0.00,819,819,819,819
10477,0,0.30,0.37,-0.54,-1.00,-0.20,-0.20,0.20,0.00,0.00,0.00,0.00,819,819,819,819
10483,0,0.32,0.35,-0.55,-1.00,-0.20,-0.20,0.20,0.00,0.00,0.00,0.00,819,819,819,819
10489,0,0.32,0.35,-0.55,-1.00,-0.20,-0.20,0.20,0.00,0.00,0.00,0.00,819,819,819,819
10495,0,0.33,0.34,-0.55,-1.00,-0.20,-0.20,0.20,0.00,0.00,0.00,0.00,819,819,819,819
10501,0,0.33,0.34,-0.55,-1.00,-0.20,-0.20,0.20,0.00,0.00,0.00,0.00,819,819,819,819
10506,0,0.34,0.33,-0.55,-1.00,-0.20,-0.20,0.20,0.00,0.00,0.00,0.00,819,819,819,819
10512,0,0.35,0.32,-0.55,-1.00,-0.20,-0.20,0.20,0.00,0.00,0.00,0.00,819,819,819,819
10518,0,0.35,0.32,-0.55,-1.00,-0.20,-0.20,0.20,0.00,0.00,0.00,0.00,819,819,819,819
10524,0,0.35,0.31,-0.55,-1.00,-0.20,-0.20,0.20,0.00,0.00,0.00,0.00,819,819,819,819
10530,0,0.35,0.31,-0.55,-1.00,-0.20,-0.20,0.20,0.00,0.00,0.00,0.00,819,819,819,819
10537,0,0.36,0.30,-0.56,-1.00,-0.20,-0.20,0.20,0.00,0.00,0.00,0.00,819,819,819,819
10542,0,0.37,0.29,-0.56,-1.00,-0.20,-0.20,0.20,0.00,0.00,0.00,0.00,819,819,819,819
10548,0,0.37,0.29,-0.56,-1.00,-0.20,-0.20,0.20,0.00,0.00,0.00,0.00,819,819,819,819
10553,0,0.38,0.29,-0.57,-1.00,-0.20,-0.20,0.20,0.00,0.00,0.00,0.00,819,819,819,819
10561,0,0.38,0.29,-0.57,-1.00,-0.20,-0.20,0.20,0.00,0.00,0.00,0.00,819,819,819,819
10567,0,0.39,0.28,-0.58,-1.00,-0.20,-0.20,0.20,0.00,0.00,0.00,0.00,819,819,819,819
10572,0,0.41,0.27,-0.58,-1.00,-0.20,-0.20,0.20,0.00,0.00,0.00,0.00,819,819,819,819
10579,0,0.41,0.27,-0.58,-1.00,-0.20,-0.20,0.20,0.00,0.00,0.00,0.00,819,819,819,819
10585,0,0.42,0.27,-0.59,-1.00,-0.20,-0.20,0.20,0.00,0.00,0.00,0.00,819,819,819,819
10591,0,0.42,0.27,-0.59,-1.00,-0.20,-0.20,0.20,0.00,0.00,0.00,0.00,819,819,819,819
10596,0,0.44,0.26,-0.60,-1.00,-0.20,-0.20,0.20,0.00,0.00,0.00,0.00,819,819,819,819
10602,0,0.46,0.26,-0.61,-1.00,-0.20,-0.20,0.20,0.00,0.00,0.00,0.00,819,819,819,819
10607,0,0.46,0.26,-0.61,-1.00,-0.20,-0.20,0.20,0.00,0.00,0.00,0.00,819,819,819,819
10613,0,0.47,0.25,-0.61,-1.00,-0.20,-0.20,0.20,0.00,0.00,0.00,0.00,819,819,819,819
10619,0,0.47,0.25,-0.61,-1.00,-0.20,-0.20,0.20,0.00,0.00,0.00,0.00,819,819,819,819
10626,0,0.49,0.24,-0.62,-1.00,-0.20,-0.20,0.20,0.00,0.00,0.00,0.00,819,819,819,819
10631,0,0.51,0.23,-0.62,-1.00,-0.20,-0.20,0.20,0.00,0.00,0.00,0.00,819,819,819,819
10638,0,0.51,0.23,-0.62,-1.00,-0.20,-0.20,0.20,0.00,0.00,0.00,0.00,819,819,819,819
10643,0,0.53,0.22,-0.63,-1.00,-0.20,-0.20,0.20,0.00,0.00,0.00,0.00,819,819,819,819
10649,0,0.53,0.22,-0.63,-1.00,-0.20,-0.20,0.20,0.00,0.00,0.00,0.00,819,819,819,819
10654,0,0.55,0.21,-0.63,-1.00,-0.20,-0.20,0.20,0.00,0.00,0.00,0.00,819,819,819,819
10660,0,0.55,0.21,-0.63,-1.00,-0.20,-0.20,0.20,0.00,0.00,0.00,0.00,819,819,819,819
10666,0,0.57,0.20,-0.63,-1.00,-0.20,-0.20,0.20,0.00,0.00,0.00,0.00,819,819,819,819
10672,0,0.59,0.19,-0.63,-1.00,-0.20,-0.20,0.20,0.00,0.00,0.00,0.00,819,819,819,819
10678,0,0.59,0.19,-0.63,-1.00,-0.20,-0.20,0.20,0.00,0.00,0.00,0.00,819,819,819,819
10683,0,0.61,0.18,-0.63,-1.00,-0.20,-0.20,0.20,0.00,0.00,0.00,0.00,819,819,819,819
10690,0,0.61,0.18,-0.63,-1.00,-0.20,-0.20,0.20,0.00,0.00,0.00,0.00,819,819,819,819
10695,0,0.64,0.16,-0.64,-1.00,-0.20,-0.20,0.20,0.00,0.00,0.00,0.00,819,819,819,819
10701,0,0.64,0.16,-0.64,-1.00,-0.20,-0.20,0.20,0.00,0.00,0.00,0.00,819,819,819,819
10706,0,0.66,0.15,-0.64,-1.00,-0.20,-0.20,0.20,0.00,0.00,0.00,0.00,819,819,819,819
10711,0,0.68,0.14,-0.64,-1.00,-0.20,-0.20,0.20,0.00,0.00,0.00,0.00,819,819,819,819
10718,0,0.68,0.14,-0.64,-1.00,-0.20,-0.20,0.20,0.00,0.00,0.00,0.00,819,819,819,819
10724,0,0.70,0.13,-0.64,-1.00,-0.20,-0.20,0.20,0.00,0.00,0.00,0.00,819,819,819,819
10730,0,0.70,0.13,-0.64,-1.00,-0.20,-0.20,0.20,0.00,0.00,0.00,0.00,819,819,819,819
10735,0,0.72,0.12,-0.65,-1.00,-0.20,-0.20,0.20,0.00,0.00,0.00,0.00,819,819,819,819
10743,0,0.75,0.11,-0.65,-1.00,-0.20,-0.20,0.20,0.00,0.00,0.00,0.00,819,819,819,819
10748,0,0.75,0.11,-0.65,-1.00,-0.20,-0.20,0.20,0.00,0.00,0.00,0.00,819,819,819,819
10753,0,0.77,0.10,1.00,-1.00,-0.20,-0.20,-0.20,0.00,0.00,0.00,0.00,819,819,819,819
10758,0,0.77,0.10,1.00,-1.00,-0.20,-0.20,-0.20,0.00,0.00,0.00,0.00,819,819,819,819
10764,0,0.79,0.09,1.00,-1.00,-0.20,-0.20,-0.20,0.00,0.00,0.00,0.00,819,819,819,819
10770,0,0.79,0.09,1.00,-1.00,-0.20,-0.20,-0.20,0.00,0.00,0.00,0.00,819,819,819,819
10777,0,0.81,0.07,1.01,-1.00,-0.20,-0.20,-0.20,0.00,0.00,0.00,0.00,819,819,819,819
10782,0,0.83,0.06,1.01,-1.00,-0.20,-0.20,-0.20,0.00,0.00,0.00,0.00,819,819,819,819
10789,0,0.83,0.06,1.01,-1.00,-0.20,-0.20,-0.20,0.00,0.00,0.00,0.00,819,819,819,819
10794,0,0.85,0.05,1.02,-1.00,-0.20,-0.20,-0.20,0.00,0.00,0.00,0.00,819,819,819,819
10800,0,0.85,0.05,1.02,-1.00,-0.20,-0.20,-0.20,0.00,0.00,0.00,0.00,819,819,819,819
10805,0,0.87,0.03,1.02,-1.00,-0.20,-0.20,-0.20,0.00,0.00,0.00,0.00,819,819,819,819
10811,0,0.87,0.03,1.02,-1.00,-0.20,-0.20,-0.20,0.00,0.00,0.00,0.00,819,819,819,819
10818,0,0.89,0.02,1.03,-1.00,-0.20,-0.14,-0.20,0.00,0.00,0.00,0.00,819,819,819,819
10823,0,0.91,0.00,1.04,-1.00,-0.20,-0.05,-0.20,0.00,0.00,0.00,0.00,819,819,819,819
10830,0,0.91,0.00,1.04,-1.00,-0.20,-0.04,-0.20,0.00,0.00,0.00,0.00,819,819,819,819
10835,0,0.92,-0.00,1.04,-1.00,-0.20,0.04,-0.20,0.00,0.00,0.00,0.00,819,819,819,819
10842,0,0.92,-0.00,1.04,-1.00,-0.20,0.04,-0.20,0.00,0.00,0.00,0.00,819,819,819,819
10847,0,0.94,-0.02,1.05,-1.00,-0.20,0.15,-0.20,0.00,0.00,0.00,0.00,819,819,819,819
10853,0,0.96,-0.03,1.05,-1.00,-0.20,0.20,-0.20,0.00,0.00,0.00,0.00,819,819,819,819
10858,0,0.96,-0.03,1.05,-1.00,-0.20,0.20,-0.20,0.00,0.00,0.00,0.00,819,819,819,819
10864,0,0.98,-0.04,1.06,-1.00,-0.20,0.20,-0.20,0.00,0.00,0.00,0.00,819,819,819,819
10870,0,0.98,-0.04,1.06,-1.00,-0.20,0.20,-0.20,0.00,0.00,0.00,0.00,819,819,819,819
10876,0,1.00,-0.05,1.06,-1.00,-0.20,0.20,-0.20,0.00,0.00,0.00,0.00,819,819,819,819
10882,0,1.02,-0.06,1.07,-1.00,-0.20,0.20,-0.20,0.00,0.00,0.00,0.00,819,819,819,819
10888,0,1.02,-0.06,1.07,-1.00,-0.20,0.20,-0.20,0.00,0.00,0.00,0.00,819,819,819,819
10894,0,1.03,-0.07,1.08,-1.00,-0.20,0.20,-0.20,0.00,0.00,0.00,0.00,819,819,819,819
10899,0,1.03,-0.07,1.08,-1.00,-0.20,0.20,-0.20,0.00,0.00,0.00,0.00,819,819,819,819
10905,0,1.05,-0.08,1.08,-1.00,-0.20,0.20,-0.20,0.00,0.00,0.00,0.00,819,819,819,819
10910,0,1.05,-0.08,1.08,-1.00,-0.20,0.20,-0.20,0.00,0.00,0.00,0.00,819,819,819,819
10916,0,1.07,-0.09,1.09,-1.00,-0.20,0.20,-0.20,0.00,0.00,0.00,0.00,819,819,819,819
10923,0,1.09,-0.09,1.09,-1.00,-0.20,0.20,-0.20,0.00,0.00,0.00,0.00,819,819,819,819
10930,0,1.09,-0.09,1.09,-1.00,-0.20,0.20,-0.20,0.00,0.00,0.00,0.00,819,819,819,819
10936,0,1.10,-0.10,1.09,-1.00,-0.20,0.20,-0.20,0.00,0.00,0.00,0.00,819,819,819,819
10942,0,1.12,-0.11,1.10,-1.00,-0.20,0.20,-0.20,0.00,0.00,0.00,0.00,819,819,819,819
10948,0,1.12,-0.11,1.10,-1.00,-0.20,0.20,-0.20,0.00,0.00,0.00,0.00,819,819,819,819
10953,0,1.13,-0.11,1.11,-1.00,-0.20,0.20,-0.20,0.00,0.00,0.00,0.00,819,819,819,819
10959,0,1.13,-0.11,1.11,-1.00,-0.20,0.20,-0.20,0.00,0.00,0.00,0.00,819,819,819,819
10964,0,1.15,-0.12,1.11,-1.00,-0.20,0.20,-0.20,0.00,0.00,0.00,0.00,819,819,819,819
10970,0,1.15,-0.12,1.11,-1.00,-0.20,0.20,-0.20,0.00,0.00,0.00,0.00,819,819,819,819
10976,0,1.16,-0.13,1.11,-1.00,-0.20,0.20,-0.20,0.00,0.00,0.00,0.00,819,819,819,819
10982,0,1.16,-0.13,1.11,-1.00,-0.20,0.20,-0.20,0.00,0.00,0.00,0.00,819,819,819,819
10988,0,1.17,-0.13,1.12,-1.00,-0.20,0.20,-0.20,0.00,0.00,0.00,0.00,819,819,819,819
10993,0,1.19,-0.14,1.12,-1.00,-0.20,0.20,-0.20,0.00,0.00,0.00,0.00,819,819,819,819
10999,0,1.19,-0.14,1.12,-1.00,-0.20,0.20,-0.20,0.00,0.00,0.00,0.00,819,819,819,819
11004,0,1.20,-0.14,1.13,-1.00,-0.20,0.20,-0.20,0.00,0.00,0.00,0.00,819,819,819,819
11009,0,1.20,-0.14,1.13,-1.00,-0.20,0.20,-0.20,0.00,0.00,0.00,0.00,819,819,819,819
11015,0,1.21,-0.15,1.13,-1.00,-0.20,0.20,-0.20,0.00,0.00,0.00,0.00,819,819,819,819
11021,0,1.21,-0.15,1.13,-1.00,-0.20,0.20,-0.20,0.00,0.00,0.00,0.00,819,819,819,819
11027,0,1.23,-0.15,1.13,-1.00,-0.20,0.20,-0.20,0.00,0.00,0.00,0.00,819,819,819,819
11032,0,1.24,-0.15,1.13,-1.00,-0.20,0.20,-0.20,0.00,0.00,0.00,0.00,819,819,819,819
11039,0,1.24,-0.15,1.13,-1.00,-0.20,0.20,-0.20,0.00,0.00,0.00,0.00,819,819,819,819
11044,0,1.26,-0.15,1.13,-1.00,-0.20,0.20,-0.20,0.00,0.00,0.00,0.00,819,819,819,819
11050,0,1.26,-0.15,1.13,-1.00,-0.20,0.20,-0.20,0.00,0.00,0.00,0.00,819,819,819,819
11055,0,1.27,-0.16,1.14,-1.00,-0.20,0.20,-0.20,0.00,0.00,0.00,0.00,819,819,819,819
11061,0,1.27,-0.16,1.14,-1.00,-0.20,0.20,-0.20,0.00,0.00,0.00,0.00,819,819,819,819
11066,0,1.28,-0.16,1.14,-1.00,-0.20,0.20,-0.20,0.00,0.00,0.00,0.00,819,819,819,819
11072,0,1.28,-0.16,1.14,-1.00,-0.20,0.20,-0.20,0.00,0.00,0.00,0.00,819,819,819,819
11078,0,1.29,-0.16,1.14,-1.00,-0.20,0.20,-0.20,0.00,0.00,0.00,0.00,819,819,819,819
11084,0,1.29,-0.16,1.14,-1.00,-0.20,0.20,-0.20,0.00,0.00,0.00,0.00,819,819,819,819
11091,0,1.29,-0.16,1.14,-1.00,-0.20,0.20,-0.20,0.00,0.00,0.00,0.00,819,819,819,819
11096,0,1.30,-0.16,1.14,-1.00,-0.20,0.20,-0.20,0.00,0.00,0.00,0.00,819,819,819,819
11103,0,1.30,-0.16,1.15,-1.00,-0.20,0.20,-0.20,0.00,0.00,0.00,0.00,819,819,819,819
11109,0,1.30,-0.16,1.15,-1.00,-0.20,0.20,-0.20,0.00,0.00,0.00,0.00,819,819,819,819
11114,0,1.30,-0.16,1.15,-1.00,-0.20,0.20,-0.20,0.00,0.00,0.00,0.00,819,819,819,819
11121,0,1.30,-0.16,1.15,-1.00,-0.20,0.20,-0.20,0.00,0.00,0.00,0.00,819,819,819,819
11127,0,1.30,-0.16,1.15,-1.00,-0.20,0.20,-0.20,0.00,0.00,0.00,0.00,819,819,819,819
11133,0,1.30,-0.16,1.15,-1.00,-0.20,0.20,-0.20,0.00,0.00,0.00,0.00,819,819,819,819
11139,0,1.30,-0.16,1.15,-1.00,-0.20,0.20,-0.20,0.00,0.00,0.00,0.00,819,819,819,819
11145,0,1.29,-0.16,1.15,-1.00,-0.20,0.20,-0.20,0.00,0.00,0.00,0.00,819,819,819,819
11150,0,1.29,-0.16,1.15,-1.00,-0.20,0.20,-0.20,0.00,0.00,0.00,0.00,819,819,819,819
11156,0,1.29,-0.16,1.16,-1.00,-0.20,0.20,-0.20,0.00,0.00,0.00,0.00,819,819,819,819
11161,0,1.29,-0.16,1.16,-1.00,-0.20,0.20,-0.20,0.00,0.00,0.00,0.00,819,819,819,819
11167,0,1.28,-0.16,1.16,-1.00,-0.20,0.20,-0.20,0.00,0.00,0.00,0.00,819,819,819,819
11172,0,1.27,-0.16,1.16,-1.00,-0.20,0.20,-0.20,0.00,0.00,0.00,0.00,819,819,819,819
11179,0,1.27,-0.16,1.16,-1.00,-0.20,0.20,-0.20,0.00,0.00,0.00,0.00,819,819,819,819
11185,0,1.26,-0.16,1.17,-1.00,-0.20,0.20,-0.20,0.00,0.00,0.00,0.00,819,819,819,819
11191,0,1.26,-0.16,1.17,-1.00,-0.20,0.20,-0.20,0.00,0.00,0.00,0.00,819,819,819,819
11196,0,1.25,-0.16,1.17,-1.00,-0.20,0.20,-0.20,0.00,0.00,0.00,0.00,819,819,819,819
11202,0,1.25,-0.16,1.17,-1.00,-0.20,0.20,-0.20,0.00,0.00,0.00,0.00,819,819,819,819
11208,0,1.24,-0.16,1.18,-1.00,-0.20,0.20,-0.20,0.00,0.00,0.00,0.00,819,819,819,819
11213,0,1.22,-0.16,1.18,-1.00,-0.20,0.20,-0.20,0.00,0.00,0.00,0.00,819,819,819,819
11220,0,1.22,-0.16,1.18,-1.00,-0.20,0.20,-0.20,0.00,0.00,0.00,0.00,819,819,819,819
11225,0,1.21,-0.16,1.18,-1.00,-0.20,0.20,-0.20,0.00,0.00,0.00,0.00,819,819,819,819
11232,0,1.21,-0.16,1.18,-1.00,-0.20,0.20,-0.20,0.00,0.00,0.00,0.00,819,819,819,819
11238,0,1.19,-0.16,1.18,-1.00,-0.20,0.20,-0.20,0.00,0.00,0.00,0.00,819,819,819,819
11244,0,1.17,-0.16,1.18,-1.00,-0.20,0.20,-0.20,0.00,0.00,0.00,0.00,819,819,819,819
11249,0,1.17,-0.16,1.18,-1.00,-0.20,0.20,-0.20,0.00,0.00,0.00,0.00,819,819,819,819
11255,0,1.15,-0.16,1.19,-1.00,-0.20,0.20,-0.20,0.00,0.00,0.00,0.00,819,819,819,819
11260,0,1.15,-0.16,1.19,-1.00,-0.20,0.20,-0.20,0.00,0.00,0.00,0.00,819,819,819,819
11265,0,1.13,-0.16,1.19,-1.00,-0.20,0.20,-0.20,0.00,0.00,0.00,0.00,819,819,819,819
11272,0,1.13,-0.16,1.19,-1.00,-0.20,0.20,-0.20,0.00,0.00,0.00,0.00,819,819,819,819
11278,0,1.12,-0.16,1.19,-1.00,-0.20,0.20,-0.20,0.00,0.00,0.00,0.00,819,819,819,819
11285,0,1.10,-0.16,1.19,-1.00,-0.20,0.20,-0.20,0.00,0.00,0.00,0.00,819,819,819,819
11292,0,1.10,-0.16,1.19,-1.00,-0.20,0.20,-0.20,0.00,0.00,0.00,0.00,819,819,819,819
11297,0,1.09,-0.16,1.19,-1.00,-0.20,0.20,-0.20,0.00,0.00,0.00,0.00,819,819,819,819
11303,0,1.09,-0.16,1.19,-1.00,-0.20,0.20,-0.20,0.00,0.00,0.00,0.00,819,819,819,819
11308,0,1.07,-0.16,1.20,-1.00,-0.20,0.20,-0.20,0.00,0.00,0.00,0.00,819,819,819,819
11313,0,1.06,-0.16,1.20,-1.00,-0.20,0.20,-0.20,0.00,0.00,0.00,0.00,819,819,819,819
11319,0,1.06,-0.16,1.20,-1.00,-0.20,0.20,-0.20,0.00,0.00,0.00,0.00,819,819,819,819
11325,0,1.04,-0.15,1.20,-1.00,-0.20,0.20,-0.20,0.00,0.00,0.00,0.00,819,819,819,819
11331,0,1.04,-0.15,1.20,-1.00,-0.20,0.20,-0.20,0.00,0.00,0.00,0.00,819,819,819,819
11337,0,1.02,-0.15,1.19,-1.00,-0.20,0.20,-0.20,0.00,0.00,0.00,0.00,819,819,819,819
11343,0,1.01,-0.15,1.19,-1.00,-0.20,0.20,-0.20,0.00,0.00,0.00,0.00,819,819,819,819
11349,0,1.01,-0.15,1.19,-1.00,-0.20,0.20,-0.20,0.00,0.00,0.00,0.00,819,819,819,819
11354,0,0.99,-0.15,1.20,-1.00,-0.20,0.20,-0.20,0.00,0.00,0.00,0.00,819,819,819,819
11360,0,0.99,-0.15,1.20,-1.00,-0.20,0.20,-0.20,0.00,0.00,0.00,0.00,819,819,819,819
11365,0,0.97,-0.15,1.20,-1.00,-0.20,0.20,-0.20,0.00,0.00,0.00,0.00,819,819,819,819
11372,0,0.97,-0.15,1.20,-1.00,-0.20,0.20,-0.20,0.00,0.00,0.00,0.00,819,819,819,819
11378,0,0.95,-0.15,1.20,-1.00,-0.20,0.20,-0.20,0.00,0.00,0.00,0.00,819,819,819,819
11384,0,0.93,-0.15,1.20,-1.00,-0.20,0.20,-0.20,0.00,0.00,0.00,0.00,819,819,819,819
11390,0,0.93,-0.15,1.20,-1.00,-0.20,0.20,-0.20,0.00,0.00,0.00,0.00,819,819,819,819
11396,0,0.92,-0.15,1.20,-1.00,-0.20,0.20,-0.20,0.00,0.00,0.00,0.00,819,819,819,819
11401,0,0.92,-0.15,1.20,-1.00,-0.20,0.20,-0.20,0.00,0.00,0.00,0.00,819,819,819,819
11407,0,0.90,-0.15,1.20,-1.00,-0.20,0.20,-0.20,0.00,0.00,0.00,0.00,819,819,819,819
11413,0,0.90,-0.15,1.20,-1.00,-0.20,0.20,-0.20,0.00,0.00,0.00,0.00,819,819,819,819
11419,0,0.88,-0.15,1.20,-1.00,-0.20,0.20,-0.20,0.00,0.00,0.00,0.00,819,819,819,819
11425,0,0.85,-0.15,1.20,-1.00,-0.20,0.20,-0.20,0.00,0.00,0.00,0.00,819,819,819,819
11431,0,0.85,-0.15,1.20,-1.00,-0.20,0.20,-0.20,0.00,0.00,0.00,0.00,819,819,819,819
11437,0,0.83,-0.16,1.20,-1.00,-0.20,0.20,-0.20,0.00,0.00,0.00,0.00,819,819,819,819
11443,0,0.83,-0.16,1.20,-1.00,-0.20,0.20,-0.20,0.00,0.00,0.00,0.00,819,819,819,819
11449,0,0.81,-0.16,1.20,-1.00,-0.20,0.20,-0.20,0.00,0.00,0.00,0.00,819,819,819,819
11454,0,0.78,-0.16,1.20,-1.00,-0.20,0.20,-0.20,0.00,0.00,0.00,0.00,819,819,819,819
11460,0,0.78,-0.16,1.20,-1.00,-0.20,0.20,-0.20,0.00,0.00,0.00,0.00,819,819,819,819
11467,0,0.76,-0.16,1.20,-1.00,-0.20,0.20,-0.20,0.00,0.00,0.00,0.00,819,819,819,819
11473,0,0.76,-0.16,1.20,-1.00,-0.20,0.20,-0.20,0.00,0.00,0.00,0.00,819,819,819,819
11480,0,0.74,-0.16,1.20,-1.00,-0.20,0.20,-0.20,0.00,0.00,0.00,0.00,819,819,819,819
11485,0,0.71,-0.17,1.20,-1.00,-0.20,0.20,-0.20,0.00,0.00,0.00,0.00,819,819,819,819
11492,0,0.71,-0.17,1.20,-1.00,-0.20,0.20,-0.20,0.00,0.00,0.00,0.00,819,819,819,819
11497,0,0.69,-0.17,1.19,-1.00,-0.20,0.20,-0.20,0.00,0.00,0.00,0.00,819,819,819,819
11503,0,0.69,-0.17,1.19,-1.00,-0.20,0.20,-0.20,0.00,0.00,0.00,0.00,819,819,819,819
11508,0,0.67,-0.16,1.20,-1.00,-0.20,0.20,-0.20,0.00,0.00,0.00,0.00,819,819,819,819
11514,0,0.65,-0.16,1.20,-1.00,-0.20,0.20,-0.20,0.00,0.00,0.00,0.00,819,819,819,819
11520,0,0.65,-0.16,1.20,-1.00,-0.20,0.20,-0.20,0.00,0.00,0.00,0.00,819,819,819,819
11526,0,0.62,-0.16,1.19,-1.00,-0.20,0.20,-0.20,0.00,0.00,0.00,0.00,819,819,819,819
11533,0,0.62,-0.16,1.19,-1.00,-0.20,0.20,-0.20,0.00,0.00,0.00,0.00,819,819,819,819
11539,0,0.60,-0.16,1.19,-1.00,-0.20,0.20,-0.20,0.00,0.00,0.00,0.00,819,819,819,819
11544,0,0.57,-0.16,1.19,-1.00,-0.20,0.20,-0.20,0.00,0.00,0.00,0.00,819,819,819,819
11549,0,0.57,-0.16,1.19,-1.00,-0.20,0.20,-0.20,0.00,0.00,0.00,0.00,819,819,819,819
11555,0,0.54,-0.15,1.19,-1.00,-0.20,0.20,-0.20,0.00,0.00,0.00,0.00,819,819,819,819
11560,0,0.54,-0.15,1.19,-1.00,-0.20,0.20,-0.20,0.00,0.00,0.00,0.00,819,819,819,819
11565,0,0.51,-0.15,1.19,-1.00,-0.20,0.20,-0.20,0.00,0.00,0.00,0.00,819,819,819,819
11571,0,0.51,-0.15,1.19,-1.00,-0.20,0.20,-0.20,0.00,0.00,0.00,0.00,819,819,819,819
11581,0,0.48,-0.15,1.19,-1.00,-0.20,0.20,-0.20,0.00,0.00,0.00,0.00,819,819,819,819
11586,0,0.46,-0.15,1.19,-1.00,-0.20,0.20,-0.20,0.00,0.00,0.00,0.00,819,819,819,819
11592,0,0.46,-0.15,1.19,-1.00,-0.20,0.20,-0.20,0.00,0.00,0.00,0.00,819,819,819,819
11598,0,0.43,-0.15,1.19,-1.00,-0.20,0.20,-0.20,0.00,0.00,0.00,0.00,819,819,819,819
11603,0,0.43,-0.15,1.19,-1.00,-0.20,0.20,-0.20,0.00,0.00,0.00,0.00,819,819,819,819
11608,0,0.40,-0.15,1.20,-1.00,-0.20,0.20,-0.20,0.00,0.00,0.00,0.00,819,819,819,819
11614,0,0.40,-0.15,1.20,-1.00,-0.20,0.20,-0.20,0.00,0.00,0.00,0.00,819,819,819,819
11620,0,0.37,-0.15,1.20,-1.00,-0.20,0.20,-0.20,0.00,0.00,0.00,0.00,819,819,819,819
11626,0,0.35,-0.14,1.21,-1.00,-0.20,0.20,-0.20,0.00,0.00,0.00,0.00,819,819,819,819
11632,0,0.35,-0.14,1.21,-1.00,-0.20,0.20,-0.20,0.00,0.00,0.00,0.00,819,819,819,819
11639,0,0.32,-0.14,1.21,-1.00,-0.20,0.20,-0.20,0.00,0.00,0.00,0.00,819,819,819,819
11646,0,0.29,-0.14,1.21,-1.00,-0.20,0.20,-0.20,0.00,0.00,0.00,0.00,819,819,819,819
11651,0,0.29,-0.14,1.21,-1.00,-0.20,0.20,-0.20,0.00,0.00,0.00,0.00,819,819,819,819
11657,0,0.27,-0.14,1.22,-1.00,-0.20,0.20,-0.20,0.00,0.00,0.00,0.00,819,819,819,819
11662,0,0.27,-0.14,1.22,-1.00,-0.20,0.20,-0.20,0.00,0.00,0.00,0.00,819,819,819,819
11668,0,0.24,-0.14,1.23,-1.00,-0.20,0.20,-0.20,0.00,0.00,0.00,0.00,819,819,819,819
11674,0,0.21,-0.13,1.23,-1.00,-0.20,0.20,-0.20,0.00,0.00,0.00,0.00,819,819,819,819
11680,0,0.21,-0.13,1.23,-1.00,-0.20,0.20,-0.20,0.00,0.00,0.00,0.00,819,819,819,819
11686,0,0.19,-0.13,1.24,-1.00,-0.20,0.20,-0.20,0.00,0.00,0.00,0.00,819,819,819,819
11692,0,0.19,-0.13,1.24,-1.00,-0.20,0.20,-0.20,0.00,0.00,0.00,0.00,819,819,819,819
11698,0,0.16,-0.13,1.24,-1.00,-0.20,0.20,-0.20,0.00,0.00,0.00,0.00,819,819,819,819
11703,0,0.16,-0.13,1.24,-1.00,-0.20,0.20,-0.20,0.00,0.00,0.00,0.00,819,819,819,819
11709,0,0.14,-0.13,1.25,-1.00,-0.20,0.20,-0.20,0.00,0.00,0.00,0.00,819,819,819,819
11715,0,0.11,-0.13,1.26,-1.00,-0.20,0.20,-0.20,0.00,0.00,0.00,0.00,819,819,819,819
11721,0,0.11,-0.13,1.26,-1.00,-0.20,0.20,-0.20,0.00,0.00,0.00,0.00,819,819,819,819
11726,0,0.09,-0.12,1.26,-1.00,-0.20,0.20,-0.20,0.00,0.00,0.00,0.00,819,819,819,819
11733,0,0.09,-0.12,1.26,-1.00,-0.20,0.20,-0.20,0.00,0.00,0.00,0.00,819,819,819,819
11739,0,0.06,-0.12,1.27,-1.00,-0.20,0.20,-0.20,0.00,0.00,0.00,0.00,819,819,819,819
11745,0,0.03,-0.12,1.27,-1.00,-0.20,0.20,-0.20,0.00,0.00,0.00,0.00,819,819,819,819
11750,0,0.03,-0.12,1.27,-1.00,-0.20,0.20,-0.20,0.00,0.00,0.00,0.00,819,819,819,819
11756,0,0.00,-0.11,1.28,-1.00,-0.05,0.20,-0.20,0.00,0.00,0.00,0.00,819,819,819,819
11762,0,0.00,-0.11,1.28,-1.00,-0.05,0.20,-0.20,0.00,0.00,0.00,0.00,819,819,819,819
11767,0,-0.02,-0.11,1.29,-1.00,0.20,0.20,-0.20,0.00,0.00,0.00,0.00,819,819,819,819
11774,0,-0.02,-0.11,1.29,-1.00,0.17,0.20,-0.20,0.00,0.00,0.00,0.00,819,819,819,819
11780,0,-0.05,-0.11,1.29,-1.00,0.20,0.20,-0.20,0.00,0.00,0.00,0.00,819,819,819,819
11786,0,-0.08,-0.10,1.30,-1.00,0.20,0.20,-0.20,0.00,0.00,0.00,0.00,819,819,819,819
11792,0,-0.08,-0.10,1.30,-1.00,0.20,0.20,-0.20,0.00,0.00,0.00,0.00,819,819,819,819
11798,0,-0.10,-0.10,1.30,-1.00,0.20,0.20,-0.20,0.00,0.00,0.00,0.00,819,819,819,819
11803,0,-0.10,-0.10,1.30,-1.00,0.20,0.20,-0.20,0.00,0.00,0.00,0.00,819,819,819,819
11809,0,-0.13,-0.10,1.32,-1.00,0.20,0.20,-0.20,0.00,0.00,0.00,0.00,819,819,819,819
11814,0,-0.16,-0.09,1.32,-1.00,0.20,0.20,-0.20,0.00,0.00,0.00,0.00,819,819,819,819
11821,0,-0.16,-0.09,1.32,-1.00,0.20,0.20,-0.20,0.00,0.00,0.00,0.00,819,819,819,819
11829,0,-0.18,-0.09,1.33,-1.00,0.20,0.20,-0.20,0.00,0.00,0.00,0.00,819,819,819,819
11834,0,-0.21,-0.09,1.33,-1.00,0.20,0.20,-0.20,0.00,0.00,0.00,0.00,819,819,819,819
11841,0,-0.21,-0.09,1.33,-1.00,0.20,0.20,-0.20,0.00,0.00,0.00,0.00,819,819,819,819
11846,0,-0.24,-0.09,1.34,-1.00,0.20,0.20,-0.20,0.00,0.00,0.00,0.00,819,819,819,819
11851,0,-0.24,-0.09,1.34,-1.00,0.20,0.20,-0.20,0.00,0.00,0.00,0.00,819,819,819,819
11857,0,-0.27,-0.08,1.35,-1.00,0.20,0.20,-0.20,0.00,0.00,0.00,0.00,819,819,819,819
11862,0,-0.27,-0.08,1.35,-1.00,0.20,0.20,-0.20,0.00,0.00,0.00,0.00,819,819,819,819
11868,0,-0.29,-0.08,1.35,-1.00,0.20,0.20,-0.20,0.00,0.00,0.00,0.00,819,819,819,819
11874,0,-0.29,-0.08,1.35,-1.00,0.20,0.20,-0.20,0.00,0.00,0.00,0.00,819,819,819,819
11880,0,-0.32,-0.08,1.36,-1.00,0.20,0.20,-0.20,0.00,0.00,0.00,0.00,819,819,819,819
11885,0,-0.34,-0.07,1.36,-1.00,0.20,0.20,-0.20,0.00,0.00,0.00,0.00,819,819,819,819
11892,0,-0.34,-0.07,1.36,-1.00,0.20,0.20,-0.20,0.00,0.00,0.00,0.00,819,819,819,819
11897,0,-0.36,-0.07,1.36,-1.00,0.20,0.20,-0.20,0.00,0.00,0.00,0.00,819,819,819,819
11902,0,-0.36,-0.07,1.36,-1.00,0.20,0.20,-0.20,0.00,0.00,0.00,0.00,819,819,819,819
11908,0,-0.39,-0.07,1.37,-1.00,0.20,0.20,-0.20,0.00,0.00,0.00,0.00,819,819,819,819
11913,0,-0.39,-0.07,1.37,-1.00,0.20,0.20,-0.20,0.00,0.00,0.00,0.00,819,819,819,819
11920,0,-0.41,-0.07,1.38,-1.00,0.20,0.20,-0.20,0.00,0.00,0.00,0.00,819,819,819,819
11925,0,-0.43,-0.06,1.38,-1.00,0.20,0.20,-0.20,0.00,0.00,0.00,0.00,819,819,819,819
11932,0,-0.43,-0.06,1.38,-1.00,0.20,0.20,-0.20,0.00,0.00,0.00,0.00,819,819,819,819
11937,0,-0.45,-0.06,1.39,-1.00,0.20,0.20,-0.20,0.00,0.00,0.00,0.00,819,819,819,819
11944,0,-0.45,-0.06,1.39,-1.00,0.20,0.20,-0.20,0.00,0.00,0.00,0.00,819,819,819,819
11949,0,-0.47,-0.06,1.39,-1.00,0.20,0.20,-0.20,0.00,0.00,0.00,0.00,819,819,819,819
11955,0,-0.50,-0.05,1.40,-1.00,0.20,0.20,-0.20,0.00,0.00,0.00,0.00,819,819,819,819
11960,0,-0.50,-0.05,1.40,-1.00,0.20,0.20,-0.20,0.00,0.00,0.00,0.00,819,819,819,819
11966,0,-0.52,-0.05,1.40,-1.00,0.20,0.20,-0.20,0.00,0.00,0.00,0.00,819,819,819,819
11972,0,-0.52,-0.05,1.40,-1.00,0.20,0.20,-0.20,0.00,0.00,0.00,0.00,819,819,819,819
11978,0,-0.54,-0.05,1.41,-1.00,0.20,0.20,-0.20,0.00,0.00,0.00,0.00,819,819,819,819
11984,0,-0.54,-0.05,1.41,-1.00,0.20,0.20,-0.20,0.00,0.00,0.00,0.00,819,819,819,819
11991,0,-0.56,-0.05,1.41,-1.00,0.20,0.20,-0.20,0.00,0.00,0.00,0.00,819,819,819,819
11996,0,-0.58,-0.04,1.42,-1.00,0.20,0.20,-0.20,0.00,0.00,0.00,0.00,819,819,819,819
12002,0,-0.58,-0.04,1.42,-1.00,0.20,0.20,-0.20,0.00,0.00,0.00,0.00,819,819,819,819
12009,0,-0.60,-0.04,1.42,-1.00,0.20,0.20,-0.20,0.00,0.00,0.00,0.00,819,819,819,819
12015,0,-0.62,-0.04,1.43,-1.00,0.20,0.20,-0.20,0.00,0.00,0.00,0.00,819,819,819,819
12021,0,-0.62,-0.04,1.43,-1.00,0.20,0.20,-0.20,0.00,0.00,0.00,0.00,819,819,819,819
12027,0,-0.64,-0.04,1.43,-1.00,0.20,0.20,-0.20,0.00,0.00,0.00,0.00,819,819,819,819
12033,0,-0.64,-0.04,1.43,-1.00,0.20,0.20,-0.20,0.00,0.00,0.00,0.00,819,819,819,819
12039,0,-0.66,-0.04,1.43,-1.00,0.20,0.20,-0.20,0.00,0.00,0.00,0.00,819,819,819,819
12045,0,-0.68,-0.03,1.44,-1.00,0.20,0.20,-0.20,0.00,0.00,0.00,0.00,819,819,819,819
12051,0,-0.68,-0.03,1.44,-1.00,0.20,0.20,-0.20,0.00,0.00,0.00,0.00,819,819,819,819
12056,0,-0.70,-0.03,1.44,-1.00,0.20,0.20,-0.20,0.00,0.00,0.00,0.00,819,819,819,819
12062,0,-0.70,-0.03,1.44,-1.00,0.20,0.20,-0.20,0.00,0.00,0.00,0.00,819,819,819,819
12067,0,-0.72,-0.03,1.45,-1.00,0.20,0.20,-0.20,0.00,0.00,0.00,0.00,819,819,819,819
12074,0,-0.72,-0.03,1.45,-1.00,0.20,0.20,-0.20,0.00,0.00,0.00,0.00,819,819,819,819
12080,0,-0.74,-0.03,1.45,-1.00,0.20,0.20,-0.20,0.00,0.00,0.00,0.00,819,819,819,819
12086,0,-0.76,-0.02,1.46,-1.00,0.20,0.20,-0.20,0.00,0.00,0.00,0.00,819,819,819,819
12092,0,-0.76,-0.02,1.46,-1.00,0.20,0.19,-0.20,0.00,0.00,0.00,0.00,819,819,819,819
12098,0,-0.78,-0.02,1.46,-1.00,0.20,0.19,-0.20,0.00,0.00,0.00,0.00,819,819,819,819
12103,0,-0.78,-0.02,1.46,-1.00,0.20,0.19,-0.20,0.00,0.00,0.00,0.00,819,819,819,819
12109,0,-0.81,-0.02,1.47,-1.00,0.20,0.16,-0.20,0.00,0.00,0.00,0.00,819,819,819,819
12114,0,-0.81,-0.02,1.47,-1.00,0.20,0.16,-0.20,0.00,0.00,0.00,0.00,819,819,819,819
12121,0,-0.83,-0.01,1.47,-1.00,0.20,0.11,-0.20,0.00,0.00,0.00,0.00,819,819,819,819
12126,0,-0.85,-0.00,1.48,-1.00,0.20,0.09,-0.20,0.00,0.00,0.00,0.00,819,819,819,819
12132,0,-0.85,-0.00,1.48,-1.00,0.20,0.07,-0.20,0.00,0.00,0.00,0.00,819,819,819,819
12137,0,-0.88,-0.00,1.49,-1.00,0.20,0.04,-0.20,0.00,0.00,0.00,0.00,819,819,819,819
12144,0,-0.88,-0.00,1.49,-1.00,0.20,0.03,-0.20,0.00,0.00,0.00,0.00,819,819,819,819
12149,0,-0.90,-0.00,1.49,-1.00,0.20,0.01,-0.20,0.00,0.00,0.00,0.00,819,819,819,819
12155,0,-0.90,-0.00,1.49,-1.00,0.20,0.01,-0.20,0.00,0.00,0.00,0.00,819,819,819,819
12160,0,-0.93,0.00,1.50,-1.00,0.20,-0.01,-0.20,0.00,0.00,0.00,0.00,819,819,819,819
12165,0,-0.96,0.00,1.50,-1.00,0.20,-0.05,-0.20,0.00,0.00,0.00,0.00,819,819,819,819
12172,0,-0.96,0.00,1.50,-1.00,0.20,-0.04,-0.20,0.00,0.00,0.00,0.00,819,819,819,819
12177,0,-0.98,0.01,1.51,-1.00,0.20,-0.09,-0.20,0.00,0.00,0.00,0.00,819,819,819,819
12183,0,-0.98,0.01,1.51,-1.00,0.20,-0.08,-0.20,0.00,0.00,0.00,0.00,819,819,819,819
12191,0,-1.01,0.01,1.51,-1.00,0.20,-0.09,-0.20,0.00,0.00,0.00,0.00,819,819,819,819
12197,0,-1.03,0.02,1.51,-1.00,0.20,-0.18,-0.20,0.00,0.00,0.00,0.00,819,819,819,819
12203,0,-1.03,0.02,1.51,-1.00,0.20,-0.18,-0.20,0.00,0.00,0.00,0.00,819,819,819,819
12208,0,-1.06,0.03,1.52,-1.00,0.20,-0.20,-0.20,0.00,0.00,0.00,0.00,819,819,819,819
12214,0,-1.06,0.03,1.52,-1.00,0.20,-0.20,-0.20,0.00,0.00,0.00,0.00,819,819,819,819
12219,0,-1.08,0.03,1.52,-1.00,0.20,-0.20,-0.20,0.00,0.00,0.00,0.00,819,819,819,819
12225,0,-1.10,0.04,1.52,-1.00,0.20,-0.20,-0.20,0.00,0.00,0.00,0.00,819,819,819,819
12232,0,-1.10,0.04,1.52,-1.00,0.20,-0.20,-0.20,0.00,0.00,0.00,0.00,819,819,819,819
12237,0,-1.12,0.04,1.53,-1.00,0.20,-0.20,-0.20,0.00,0.00,0.00,0.00,819,819,819,819
12244,0,-1.12,0.04,1.53,-1.00,0.20,-0.20,-0.20,0.00,0.00,0.00,0.00,819,819,819,819
12249,0,-1.14,0.05,1.53,-1.00,0.20,-0.20,-0.20,0.00,0.00,0.00,0.00,819,819,819,819
12255,0,-1.14,0.05,1.53,-1.00,0.20,-0.20,-0.20,0.00,0.00,0.00,0.00,819,819,819,819
12261,0,-1.16,0.05,1.53,-1.00,0.20,-0.20,-0.20,0.00,0.00,0.00,0.00,819,819,819,819
12266,0,-1.18,0.06,1.53,-1.00,0.20,-0.20,-0.20,0.00,0.00,0.00,0.00,819,819,819,819
12273,0,-1.18,0.06,1.53,-1.00,0.20,-0.20,-0.20,0.00,0.00,0.00,0.00,819,819,819,819
12278,0,-1.20,0.06,1.53,-1.00,0.20,-0.20,-0.20,0.00,0.00,0.00,0.00,819,819,819,819
12284,0,-1.20,0.06,1.53,-1.00,0.20,-0.20,-0.20,0.00,0.00,0.00,0.00,819,819,819,819
12291,0,-1.22,0.07,1.54,-1.00,0.20,-0.20,-0.20,0.00,0.00,0.00,0.00,819,819,819,819
12297,0,-1.24,0.07,1.54,-1.00,0.20,-0.20,-0.20,0.00,0.00,0.00,0.00,819,819,819,819
12303,0,-1.24,0.07,1.54,-1.00,0.20,-0.20,-0.20,0.00,0.00,0.00,0.00,819,819,819,819
12308,0,-1.26,0.08,1.55,-1.00,0.20,-0.20,-0.20,0.00,0.00,0.00,0.00,819,819,819,819
12314,0,-1.26,0.08,1.55,-1.00,0.20,-0.20,-0.20,0.00,0.00,0.00,0.00,819,819,819,819
12320,0,-1.28,0.09,1.55,-1.00,0.20,-0.20,-0.20,0.00,0.00,0.00,0.00,819,819,819,819
12326,0,-1.31,0.09,1.56,-1.00,0.20,-0.20,-0.20,0.00,0.00,0.00,0.00,819,819,819,819
