t,is_crashed,roll,pitch,yaw,throttle,roll_pid_out,pitch_pid_out,yaw_pid_out,motor_fl,motor_bl,motor_fr,motor_br,pwm_fl,pwm_bl,pwm_fr,pwm_br
6878,0,0.00,0.00,0.00,0.00,-0.00,0.00,0.00,0.00,0.00,0.00,0.00,819,819,819,819
6886,0,0.03,-0.00,0.00,0.00,0.00,0.00,0.00,0.00,0.00,0.00,0.00,819,819,819,819
6892,0,0.03,-0.00,0.00,0.00,0.00,0.00,0.00,0.00,0.00,0.00,0.00,819,819,819,819
6898,0,0.03,-0.00,0.00,0.00,0.00,0.00,0.00,0.00,0.00,0.00,0.00,819,819,819,819
6910,0,0.03,-0.00,0.00,0.00,0.00,0.00,0.00,0.00,0.00,0.00,0.00,819,819,819,819
6918,0,0.03,-0.00,0.00,0.00,0.00,0.00,0.00,0.00,0.00,0.00,0.00,819,819,819,819
6924,0,0.03,-0.00,0.00,0.00,0.00,0.00,0.00,0.00,0.00,0.00,0.00,819,819,819,819
6931,0,0.03,-0.00,0.00,0.00,0.00,0.00,0.00,0.00,0.00,0.00,0.00,819,819,819,819
6938,0,0.03,-0.00,0.00,0.00,0.00,0.00,0.00,0.00,0.00,0.00,0.00,819,819,819,819
6944,0,0.03,-0.00,0.00,0.00,0.00,0.00,0.00,0.00,0.00,0.00,0.00,819,819,819,819
6951,0,0.03,-0.00,0.00,0.00,0.00,0.00,0.00,0.00,0.00,0.00,0.00,819,819,819,819
6957,0,0.03,-0.00,0.00,0.00,0.00,0.00,0.00,0.00,0.00,0.00,0.00,819,819,819,819
6964,0,0.03,-0.00,0.00,0.00,0.00,0.00,0.00,0.00,0.00,0.00,0.00,819,819,819,819
6971,0,0.03,-0.00,0.00,0.00,0.00,0.00,0.00,0.00,0.00,0.00,0.00,819,819,819,819
6979,0,0.03,-0.00,0.00,0.00,0.00,0.00,0.00,0.00,0.00,0.00,0.00,819,819,819,819
6985,0,0.03,-0.00,0.00,0.00,0.00,0.00,0.00,0.00,0.00,0.00,0.00,819,819,819,819
6992,0,0.03,-0.00,0.00,0.00,0.00,0.00,0.00,0.00,0.00,0.00,0.00,819,819,819,819
6998,0,0.03,-0.00,0.00,0.00,0.00,0.00,0.00,0.00,0.00,0.00,0.00,819,819,819,819
7004,0,0.03,-0.00,0.00,0.00,0.00,0.00,0.00,0.00,0.00,0.00,0.00,819,819,819,819
7012,0,0.03,-0.00,0.00,0.00,0.00,0.00,0.00,0.00,0.00,0.00,0.00,819,819,819,819
7019,0,0.03,-0.00,0.00,0.00,0.00,0.00,0.00,0.00,0.00,0.00,0.00,819,819,819,819
7025,0,0.03,-0.00,0.00,0.00,0.00,0.00,0.00,0.00,0.00,0.00,0.00,819,819,819,819
7033,0,0.03,-0.00,0.00,0.00,0.00,0.00,0.00,0.00,0.00,0.00,0.00,819,819,819,819
7039,0,0.03,-0.00,0.00,0.00,0.00,0.00,0.00,0.00,0.00,0.00,0.00,819,819,819,819
7046,0,0.03,-0.00,0.00,0.00,0.00,0.00,0.00,0.00,0.00,0.00,0.00,819,819,819,819
7053,0,0.03,-0.00,0.00,0.00,0.00,0.00,0.00,0.00,0.00,0.00,0.00,819,819,819,819
7060,0,0.03,-0.00,0.00,0.00,0.00,0.00,0.00,0.00,0.00,0.00,0.00,819,819,819,819
7066,0,0.03,-0.00,0.00,0.00,0.00,0.00,0.00,0.00,0.00,0.00,0.00,819,819,819,819
7074,0,0.03,-0.00,0.00,0.00,0.00,0.00,0.00,0.00,0.00,0.00,0.00,819,819,819,819
7081,0,0.03,-0.00,0.00,0.00,0.00,0.00,0.00,0.00,0.00,0.00,0.00,819,819,819,819
7088,0,0.03,-0.00,0.00,0.00,0.00,0.00,0.00,0.00,0.00,0.00,0.00,819,819,819,819
7094,0,0.03,-0.00,0.00,0.00,0.00,0.00,0.00,0.00,0.00,0.00,0.00,819,819,819,819
7102,0,0.03,-0.00,0.00,0.00,0.00,0.00,0.00,0.00,0.00,0.00,0.00,819,819,819,819
7109,0,0.03,-0.00,0.00,0.00,0.00,0.00,0.00,0.00,0.00,0.00,0.00,819,819,819,819
7116,0,0.03,-0.00,0.00,0.00,0.00,0.00,0.00,0.00,0.00,0.00,0.00,819,819,819,819
7125,0,0.03,-0.00,0.00,0.00,0.00,0.00,0.00,0.00,0.00,0.00,0.00,819,819,819,819
7132,0,0.03,-0.00,0.00,0.00,0.00,0.00,0.00,0.00,0.00,0.00,0.00,819,819,819,819
7138,0,0.03,-0.00,0.00,0.00,0.00,0.00,0.00,0.00,0.00,0.00,0.00,819,819,819,819
7145,0,0.03,-0.00,0.00,0.00,0.00,0.00,0.00,0.00,0.00,0.00,0.00,819,819,819,819
7152,0,0.03,-0.00,0.00,0.00,0.00,0.00,0.00,0.00,0.00,0.00,0.00,819,819,819,819
7160,0,0.03,-0.00,0.00,0.00,0.00,0.00,0.00,0.00,0.00,0.00,0.00,819,819,819,819
7166,0,0.03,-0.00,0.00,0.00,0.00,0.00,0.00,0.00,0.00,0.00,0.00,819,819,819,819
7173,0,0.03,-0.00,0.00,0.00,0.00,0.00,0.00,0.00,0.00,0.00,0.00,819,819,819,819
7181,0,0.03,-0.00,0.00,0.00,0.00,0.00,0.00,0.00,0.00,0.00,0.00,819,819,819,819
7187,0,0.03,-0.00,0.00,0.00,0.00,0.00,0.00,0.00,0.00,0.00,0.00,819,819,819,819
7194,0,0.03,-0.00,0.00,0.00,0.00,0.00,0.00,0.00,0.00,0.00,0.00,819,819,819,819
7201,0,0.03,-0.00,0.00,0.00,0.00,0.00,0.00,0.00,0.00,0.00,0.00,819,819,819,819
7208,0,0.03,-0.00,0.00,0.00,0.00,0.00,0.00,0.00,0.00,0.00,0.00,819,819,819,819
7215,0,0.03,-0.00,0.00,0.00,0.00,0.00,0.00,0.00,0.00,0.00,0.00,819,819,819,819
7222,0,0.03,-0.00,0.00,0.00,0.00,0.00,0.00,0.00,0.00,0.00,0.00,819,819,819,819
7228,0,0.03,-0.00,0.00,0.00,0.00,0.00,0.00,0.00,0.00,0.00,0.00,819,819,819,819
7235,0,0.03,-0.00,0.00,0.00,0.00,0.00,0.00,0.00,0.00,0.00,0.00,819,819,819,819
7241,0,0.03,-0.00,0.00,0.00,0.00,0.00,0.00,0.00,0.00,0.00,0.00,819,819,819,819
7247,0,0.03,-0.00,0.00,0.00,0.00,0.00,0.00,0.00,0.00,0.00,0.00,819,819,819,819
7254,0,0.03,-0.00,0.00,0.00,0.00,0.00,0.00,0.00,0.00,0.00,0.00,819,819,819,819
7293,0,0.03,-0.00,0.00,0.00,0.00,0.00,0.00,0.00,0.00,0.00,0.00,819,819,819,819
7302,0,0.03,-0.00,0.00,0.00,0.00,0.00,0.00,0.00,0.00,0.00,0.00,819,819,819,819
7309,0,0.03,-0.00,0.00,0.00,0.00,0.00,0.00,0.00,0.00,0.00,0.00,819,819,819,819
7315,0,0.03,-0.00,0.00,0.00,0.00,0.00,0.00,0.00,0.00,0.00,0.00,819,819,819,819
7323,0,0.03,-0.00,0.00,0.00,0.00,0.00,0.00,0.00,0.00,0.00,0.00,819,819,819,819
7330,0,0.03,-0.00,0.00,0.00,0.00,0.00,0.00,0.00,0.00,0.00,0.00,819,819,819,819
7336,0,0.03,-0.00,0.00,0.00,0.00,0.00,0.00,0.00,0.00,0.00,0.00,819,819,819,819
7344,0,0.03,-0.00,0.00,0.00,0.00,0.00,0.00,0.00,0.00,0.00,0.00,819,819,819,819
7351,0,0.03,-0.00,0.00,0.00,0.00,0.00,0.00,0.00,0.00,0.00,0.00,819,819,819,819
7358,0,0.03,-0.00,0.00,0.00,0.00,0.00,0.00,0.00,0.00,0.00,0.00,819,819,819,819
7365,0,0.03,-0.00,0.00,0.00,0.00,0.00,0.00,0.00,0.00,0.00,0.00,819,819,819,819
7372,0,0.03,-0.00,0.00,0.00,0.00,0.00,0.00,0.00,0.00,0.00,0.00,819,819,819,819
7378,0,0.03,-0.00,0.00,0.00,0.00,0.00,0.00,0.00,0.00,0.00,0.00,819,819,819,819
7385,0,0.03,-0.00,0.00,0.00,0.00,0.00,0.00,0.00,0.00,0.00,0.00,819,819,819,819
7392,0,0.03,-0.00,0.00,0.00,0.00,0.00,0.00,0.00,0.00,0.00,0.00,819,819,819,819
7398,0,0.03,-0.00,0.00,0.00,0.00,0.00,0.00,0.00,0.00,0.00,0.00,819,819,819,819
7405,0,0.03,-0.00,0.00,0.00,0.00,0.00,0.00,0.00,0.00,0.00,0.00,819,819,819,819
7412,0,0.03,-0.00,0.00,0.00,0.00,0.00,0.00,0.00,0.00,0.00,0.00,819,819,819,819
7419,0,0.03,-0.00,0.00,0.00,0.00,0.00,0.00,0.00,0.00,0.00,0.00,819,819,819,819
7425,0,0.03,-0.00,0.00,0.00,0.00,0.00,0.00,0.00,0.00,0.00,0.00,819,819,819,819
7433,0,0.03,-0.00,0.00,0.00,0.00,0.00,0.00,0.00,0.00,0.00,0.00,819,819,819,819
7439,0,0.03,-0.00,0.00,0.00,0.00,0.00,0.00,0.00,0.00,0.00,0.00,819,819,819,819
7446,0,0.03,-0.00,0.00,0.00,0.00,0.00,0.00,0.00,0.00,0.00,0.00,819,819,819,819
7453,0,0.03,-0.00,0.00,0.00,0.00,0.00,0.00,0.00,0.00,0.00,0.00,819,819,819,819
7460,0,0.03,-0.00,0.00,0.00,0.00,0.00,0.00,0.00,0.00,0.00,0.00,819,819,819,819
7466,0,0.03,-0.00,0.00,0.00,0.00,0.00,0.00,0.00,0.00,0.00,0.00,819,819,819,819
7474,0,0.03,-0.00,0.00,0.00,0.00,0.00,0.00,0.00,0.00,0.00,0.00,819,819,819,819
7481,0,0.03,-0.00,0.00,0.00,0.00,0.00,0.00,0.00,0.00,0.00,0.00,819,819,819,819
7487,0,0.03,-0.00,0.00,0.00,0.00,0.00,0.00,0.00,0.00,0.00,0.00,819,819,819,819
7495,0,0.03,-0.00,0.00,0.00,0.00,0.00,0.00,0.00,0.00,0.00,0.00,819,819,819,819
7502,0,0.03,-0.00,0.00,0.00,0.00,0.00,0.00,0.00,0.00,0.00,0.00,819,819,819,819
7514,0,0.03,-0.00,0.00,0.00,0.00,0.00,0.00,0.00,0.00,0.00,0.00,819,819,819,819
7523,0,0.03,-0.00,0.00,0.00,0.00,0.00,0.00,0.00,0.00,0.00,0.00,819,819,819,819
7529,0,0.03,-0.00,0.00,0.00,0.00,0.00,0.00,0.00,0.00,0.00,0.00,819,819,819,819
7536,0,0.03,-0.00,0.00,0.00,0.00,0.00,0.00,0.00,0.00,0.00,0.00,819,819,819,819
7542,0,0.03,-0.00,0.00,0.00,0.00,0.00,0.00,0.00,0.00,0.00,0.00,819,819,819,819
7549,0,0.03,-0.00,0.00,0.00,0.00,0.00,0.00,0.00,0.00,0.00,0.00,819,819,819,819
7556,0,0.03,-0.00,0.00,0.00,0.00,0.00,0.00,0.00,0.00,0.00,0.00,819,819,819,819
7563,0,0.03,-0.00,0.00,0.00,0.00,0.00,0.00,0.00,0.00,0.00,0.00,819,819,819,819
7569,0,0.03,-0.00,0.00,0.00,0.00,0.00,0.00,0.00,0.00,0.00,0.00,819,819,819,819
7576,0,0.03,-0.00,0.00,0.00,0.00,0.00,0.00,0.00,0.00,0.00,0.00,819,819,819,819
7583,0,0.03,-0.00,0.00,0.00,0.00,0.00,0.00,0.00,0.00,0.00,0.00,819,819,819,819
7589,0,0.03,-0.00,0.00,0.00,0.00,0.00,0.00,0.00,0.00,0.00,0.00,819,819,819,819
7596,0,0.03,-0.00,0.00,0.00,0.00,0.00,0.00,0.00,0.00,0.00,0.00,819,819,819,819
7603,0,0.03,-0.00,0.00,0.00,0.00,0.00,0.00,0.00,0.00,0.00,0.00,819,819,819,819
7609,0,0.03,-0.00,0.00,0.00,0.00,0.00,0.00,0.00,0.00,0.00,0.00,819,819,819,819
7616,0,0.03,-0.00,0.00,0.00,0.00,0.00,0.00,0.00,0.00,0.00,0.00,819,819,819,819
7623,0,0.03,-0.00,0.00,0.00,0.00,0.00,0.00,0.00,0.00,0.00,0.00,819,819,819,819
7629,0,0.03,-0.00,0.00,0.00,0.00,0.00,0.00,0.00,0.00,0.00,0.00,819,819,819,819
7636,0,0.03,-0.00,0.00,0.00,0.00,0.00,0.00,0.00,0.00,0.00,0.00,819,819,819,819
7642,0,0.03,-0.00,0.00,0.00,0.00,0.00,0.00,0.00,0.00,0.00,0.00,819,819,819,819
7648,0,0.03,-0.00,0.00,0.00,0.00,0.00,0.00,0.00,0.00,0.00,0.00,819,819,819,819
7655,0,0.03,-0.00,0.00,0.00,0.00,0.00,0.00,0.00,0.00,0.00,0.00,819,819,819,819
7663,0,0.03,-0.00,0.00,0.00,0.00,0.00,0.00,0.00,0.00,0.00,0.00,819,819,819,819
7669,0,0.03,-0.00,0.00,0.00,0.00,0.00,0.00,0.00,0.00,0.00,0.00,819,819,819,819
7676,0,0.03,-0.00,0.00,0.00,0.00,0.00,0.00,0.00,0.00,0.00,0.00,819,819,819,819
7683,0,0.03,-0.00,0.00,0.00,0.00,0.00,0.00,0.00,0.00,0.00,0.00,819,819,819,819
7690,0,0.03,-0.00,0.00,0.00,0.00,0.00,0.00,0.00,0.00,0.00,0.00,819,819,819,819
7696,0,0.03,-0.00,0.00,0.00,0.00,0.00,0.00,0.00,0.00,0.00,0.00,819,819,819,819
7703,0,0.03,-0.00,0.00,0.00,0.00,0.00,0.00,0.00,0.00,0.00,0.00,819,819,819,819
7711,0,0.03,-0.00,0.00,0.00,0.00,0.00,0.00,0.00,0.00,0.00,0.00,819,819,819,819
7717,0,0.03,-0.00,0.00,0.00,0.00,0.00,0.00,0.00,0.00,0.00,0.00,819,819,819,819
7726,0,0.03,-0.00,0.00,0.00,0.00,0.00,0.00,0.00,0.00,0.00,0.00,819,819,819,819
7733,0,0.03,-0.00,0.00,0.00,0.00,0.00,0.00,0.00,0.00,0.00,0.00,819,819,819,819
7740,0,0.03,-0.00,0.00,0.00,0.00,0.00,0.00,0.00,0.00,0.00,0.00,819,819,819,819
7746,0,0.03,-0.00,0.00,0.00,0.00,0.00,0.00,0.00,0.00,0.00,0.00,819,819,819,819
7754,0,0.03,-0.00,0.00,0.00,0.00,0.00,0.00,0.00,0.00,0.00,0.00,819,819,819,819
7761,0,0.03,-0.00,0.00,0.00,0.00,0.00,0.00,0.00,0.00,0.00,0.00,819,819,819,819
7767,0,0.03,-0.00,0.00,0.00,0.00,0.00,0.00,0.00,0.00,0.00,0.00,819,819,819,819
7774,0,0.03,-0.00,0.00,0.00,0.00,0.00,0.00,0.00,0.00,0.00,0.00,819,819,819,819
7782,0,0.03,-0.00,0.00,0.00,0.00,0.00,0.00,0.00,0.00,0.00,0.00,819,819,819,819
7788,0,0.03,-0.00,0.00,0.00,0.00,0.00,0.00,0.00,0.00,0.00,0.00,819,819,819,819
7795,0,0.03,-0.00,0.00,0.00,0.00,0.00,0.00,0.00,0.00,0.00,0.00,819,819,819,819
7803,0,0.03,-0.00,0.00,0.00,0.00,0.00,0.00,0.00,0.00,0.00,0.00,819,819,819,819
7809,0,0.03,-0.00,0.00,0.00,0.00,0.00,0.00,0.00,0.00,0.00,0.00,819,819,819,819
7816,0,0.03,-0.00,0.00,0.00,0.00,0.00,0.00,0.00,0.00,0.00,0.00,819,819,819,819
7824,0,0.03,-0.00,0.00,0.00,0.00,0.00,0.00,0.00,0.00,0.00,0.00,819,819,819,819
7830,0,0.03,-0.00,0.00,0.00,0.00,0.00,0.00,0.00,0.00,0.00,0.00,819,819,819,819
7837,0,0.03,-0.00,0.00,0.00,0.00,0.00,0.00,0.00,0.00,0.00,0.00,819,819,819,819
7844,0,0.03,-0.00,0.00,0.00,0.00,0.00,0.00,0.00,0.00,0.00,0.00,819,819,819,819
7851,0,0.03,-0.00,0.00,0.00,0.00,0.00,0.00,0.00,0.00,0.00,0.00,819,819,819,819
7857,0,0.03,-0.00,0.00,0.00,0.00,0.00,0.00,0.00,0.00,0.00,0.00,819,819,819,819
7865,0,0.03,-0.00,0.00,0.00,0.00,0.00,0.00,0.00,0.00,0.00,0.00,819,819,819,819
7872,0,0.03,-0.00,0.00,0.00,0.00,0.00,0.00,0.00,0.00,0.00,0.00,819,819,819,819
7879,0,0.03,-0.00,0.00,0.00,0.00,0.00,0.00,0.00,0.00,0.00,0.00,819,819,819,819
7886,0,0.03,-0.00,0.00,0.00,0.00,0.00,0.00,0.00,0.00,0.00,0.00,819,819,819,819
7893,0,0.03,-0.00,0.00,0.00,0.00,0.00,0.00,0.00,0.00,0.00,0.00,819,819,819,819
7899,0,0.03,-0.00,0.00,0.00,0.00,0.00,0.00,0.00,0.00,0.00,0.00,819,819,819,819
7906,0,0.03,-0.00,0.00,0.00,0.00,0.00,0.00,0.00,0.00,0.00,0.00,819,819,819,819
7914,0,0.03,-0.00,0.00,0.00,0.00,0.00,0.00,0.00,0.00,0.00,0.00,819,819,819,819
7920,0,0.03,-0.00,0.00,0.00,0.00,0.00,0.00,0.00,0.00,0.00,0.00,819,819,819,819
7927,0,0.03,-0.00,0.00,0.00,0.00,0.00,0.00,0.00,0.00,0.00,0.00,819,819,819,819
7934,0,0.03,-0.00,0.00,0.00,0.00,0.00,0.00,0.00,0.00,0.00,0.00,819,819,819,819
7945,0,0.03,-0.00,0.00,0.00,0.00,0.00,0.00,0.00,0.00,0.00,0.00,819,819,819,819
7954,0,0.03,-0.00,0.00,0.00,0.00,0.00,0.00,0.00,0.00,0.00,0.00,819,819,819,819
7960,0,0.03,-0.00,0.00,0.00,0.00,0.00,0.00,0.00,0.00,0.00,0.00,819,819,819,819
7967,0,0.03,-0.00,0.00,0.00,0.00,0.00,0.00,0.00,0.00,0.00,0.00,819,819,819,819
7974,0,0.03,-0.00,0.00,0.00,0.00,0.00,0.00,0.00,0.00,0.00,0.00,819,819,819,819
7981,0,0.03,-0.00,0.00,0.00,0.00,0.00,0.00,0.00,0.00,0.00,0.00,819,819,819,819
7987,0,0.03,-0.00,0.00,0.00,0.00,0.00,0.00,0.00,0.00,0.00,0.00,819,819,819,819
7993,0,0.03,-0.00,0.00,0.00,0.00,0.00,0.00,0.00,0.00,0.00,0.00,819,819,819,819
7999,0,0.03,-0.00,0.00,0.00,0.00,0.00,0.00,0.00,0.00,0.00,0.00,819,819,819,819
8006,0,0.03,-0.00,0.00,0.00,0.00,0.00,0.00,0.00,0.00,0.00,0.00,819,819,819,819
8014,0,0.03,-0.00,0.00,0.00,0.00,0.00,0.00,0.00,0.00,0.00,0.00,819,819,819,819
8020,0,0.03,-0.00,0.00,0.00,0.00,0.00,0.00,0.00,0.00,0.00,0.00,819,819,819,819
8027,0,0.03,-0.00,0.00,0.00,0.00,0.00,0.00,0.00,0.00,0.00,0.00,819,819,819,819
8034,0,0.03,-0.00,0.00,0.00,0.00,0.00,0.00,0.00,0.00,0.00,0.00,819,819,819,819
8040,0,0.03,-0.00,0.00,0.00,0.00,0.00,0.00,0.00,0.00,0.00,0.00,819,819,819,819
8047,0,0.03,-0.00,0.00,0.00,0.00,0.00,0.00,0.00,0.00,0.00,0.00,819,819,819,819
8054,0,0.03,-0.00,0.00,0.00,0.00,0.00,0.00,0.00,0.00,0.00,0.00,819,819,819,819
8061,0,0.03,-0.00,0.00,0.00,0.00,0.00,0.00,0.00,0.00,0.00,0.00,819,819,819,819
8068,0,0.03,-0.00,0.00,0.00,0.00,0.00,0.00,0.00,0.00,0.00,0.00,819,819,819,819
8075,0,0.03,-0.00,0.00,0.00,0.00,0.00,0.00,0.00,0.00,0.00,0.00,819,819,819,819
8082,0,0.03,-0.00,0.00,0.00,0.00,0.00,0.00,0.00,0.00,0.00,0.00,819,819,819,819
8089,0,0.03,-0.00,0.00,0.00,0.00,0.00,0.00,0.00,0.00,0.00,0.00,819,819,819,819
8096,0,0.03,-0.00,0.00,0.00,0.00,0.00,0.00,0.00,0.00,0.00,0.00,819,819,819,819
8103,0,0.03,-0.00,0.00,0.00,0.00,0.00,0.00,0.00,0.00,0.00,0.00,819,819,819,819
8110,0,0.03,-0.00,0.00,0.00,0.00,0.00,0.00,0.00,0.00,0.00,0.00,819,819,819,819
8117,0,0.03,-0.00,0.00,0.00,0.00,0.00,0.00,0.00,0.00,0.00,0.00,819,819,819,819
8124,0,0.03,-0.00,0.00,0.00,0.00,0.00,0.00,0.00,0.00,0.00,0.00,819,819,819,819
8131,0,0.03,-0.00,0.00,0.00,0.00,0.00,0.00,0.00,0.00,0.00,0.00,819,819,819,819
8138,0,0.03,-0.00,0.00,0.00,0.00,0.00,0.00,0.00,0.00,0.00,0.00,819,819,819,819
8145,0,0.03,-0.00,0.00,0.00,0.00,0.00,0.00,0.00,0.00,0.00,0.00,819,819,819,819
8151,0,0.03,-0.00,0.00,0.00,0.00,0.00,0.00,0.00,0.00,0.00,0.00,819,819,819,819
8160,0,0.03,-0.00,0.00,0.00,0.00,0.00,0.00,0.00,0.00,0.00,0.00,819,819,819,819
8167,0,0.03,-0.00,0.00,0.00,0.00,0.00,0.00,0.00,0.00,0.00,0.00,819,819,819,819
8174,0,0.03,-0.00,0.00,0.00,0.00,0.00,0.00,0.00,0.00,0.00,0.00,819,819,819,819
8181,0,0.03,-0.00,0.00,0.00,0.00,0.00,0.00,0.00,0.00,0.00,0.00,819,819,819,819
8188,0,0.03,-0.00,0.00,0.00,0.00,0.00,0.00,0.00,0.00,0.00,0.00,819,819,819,819
8194,0,0.03,-0.00,0.00,0.00,0.00,0.00,0.00,0.00,0.00,0.00,0.00,819,819,819,819
8200,0,0.03,-0.00,0.00,0.00,0.00,0.00,0.00,0.00,0.00,0.00,0.00,819,819,819,819
8207,0,0.03,-0.00,0.00,0.00,0.00,0.00,0.00,0.00,0.00,0.00,0.00,819,819,819,819
8215,0,0.03,-0.00,0.00,0.00,0.00,0.00,0.00,0.00,0.00,0.00,0.00,819,819,819,819
8222,0,0.03,-0.00,0.00,0.00,0.00,0.00,0.00,0.00,0.00,0.00,0.00,819,819,819,819
8228,0,0.03,-0.00,0.00,0.00,0.00,0.00,0.00,0.00,0.00,0.00,0.00,819,819,819,819
8236,0,0.03,-0.00,0.00,0.00,0.00,0.00,0.00,0.00,0.00,0.00,0.00,819,819,819,819
8242,0,0.03,-0.00,0.00,0.00,0.00,0.00,0.00,0.00,0.00,0.00,0.00,819,819,819,819
8248,0,0.03,-0.00,0.00,0.00,0.00,0.00,0.00,0.00,0.00,0.00,0.00,819,819,819,819
8256,0,0.03,-0.00,0.00,0.00,0.00,0.00,0.00,0.00,0.00,0.00,0.00,819,819,819,819
8263,0,0.03,-0.00,0.00,0.00,0.00,0.00,0.00,0.00,0.00,0.00,0.00,819,819,819,819
8269,0,0.03,-0.00,0.00,0.00,0.00,0.00,0.00,0.00,0.00,0.00,0.00,819,819,819,819
8277,0,0.03,-0.00,0.00,0.00,0.00,0.00,0.00,0.00,0.00,0.00,0.00,819,819,819,819
8284,0,0.03,-0.00,0.00,0.00,0.00,0.00,0.00,0.00,0.00,0.00,0.00,819,819,819,819
8290,0,0.03,-0.00,0.00,0.00,0.00,0.00,0.00,0.00,0.00,0.00,0.00,819,819,819,819
8297,0,0.03,-0.00,0.00,0.00,0.00,0.00,0.00,0.00,0.00,0.00,0.00,819,819,819,819
8304,0,0.03,-0.00,0.00,0.00,0.00,0.00,0.00,0.00,0.00,0.00,0.00,819,819,819,819
8310,0,0.03,-0.00,0.00,0.00,0.00,0.00,0.00,0.00,0.00,0.00,0.00,819,819,819,819
8317,0,0.03,-0.00,0.00,0.00,0.00,0.00,0.00,0.00,0.00,0.00,0.00,819,819,819,819
8325,0,0.03,-0.00,0.00,0.00,0.00,0.00,0.00,0.00,0.00,0.00,0.00,819,819,819,819
8334,0,0.03,-0.00,0.00,0.00,0.00,0.00,0.00,0.00,0.00,0.00,0.00,819,819,819,819
8340,0,0.03,-0.00,0.00,0.00,0.00,0.00,0.00,0.00,0.00,0.00,0.00,819,819,819,819
8347,0,0.03,-0.00,0.00,0.00,0.00,0.00,0.00,0.00,0.00,0.00,0.00,819,819,819,819
8354,0,0.03,-0.00,0.00,0.00,0.00,0.00,0.00,0.00,0.00,0.00,0.00,819,819,819,819
8360,0,0.03,-0.00,0.00,0.00,0.00,0.00,0.00,0.00,0.00,0.00,0.00,819,819,819,819
8370,0,0.03,-0.00,0.00,0.00,0.00,0.00,0.00,0.00,0.00,0.00,0.00,819,819,819,819
8378,0,0.03,-0.00,0.00,0.00,0.00,0.00,0.00,0.00,0.00,0.00,0.00,819,819,819,819
8385,0,0.03,-0.00,0.00,0.00,0.00,0.00,0.00,0.00,0.00,0.00,0.00,819,819,819,819
8392,0,0.03,-0.00,0.00,0.00,0.00,0.00,0.00,0.00,0.00,0.00,0.00,819,819,819,819
8398,0,0.03,-0.00,0.00,0.00,0.00,0.00,0.00,0.00,0.00,0.00,0.00,819,819,819,819
8406,0,0.03,-0.00,0.00,0.00,0.00,0.00,0.00,0.00,0.00,0.00,0.00,819,819,819,819
8413,0,0.03,-0.00,0.00,0.00,0.00,0.00,0.00,0.00,0.00,0.00,0.00,819,819,819,819
8419,0,0.03,-0.00,0.00,0.00,0.00,0.00,0.00,0.00,0.00,0.00,0.00,819,819,819,819
8427,0,0.03,-0.00,0.00,0.00,0.00,0.00,0.00,0.00,0.00,0.00,0.00,819,819,819,819
8434,0,0.03,-0.00,0.00,0.00,0.00,0.00,0.00,0.00,0.00,0.00,0.00,819,819,819,819
8440,0,0.03,-0.00,0.00,0.00,0.00,0.00,0.00,0.00,0.00,0.00,0.00,819,819,819,819
8448,0,0.03,-0.00,0.00,0.00,0.00,0.00,0.00,0.00,0.00,0.00,0.00,819,819,819,819
8455,0,0.03,-0.00,0.00,0.00,0.00,0.00,0.00,0.00,0.00,0.00,0.00,819,819,819,819
8461,0,0.03,-0.00,0.00,0.00,0.00,0.00,0.00,0.00,0.00,0.00,0.00,819,819,819,819
8468,0,0.03,-0.00,0.00,0.00,0.00,0.00,0.00,0.00,0.00,0.00,0.00,819,819,819,819
8475,0,0.03,-0.00,0.00,0.00,0.00,0.00,0.00,0.00,0.00,0.00,0.00,819,819,819,819
8482,0,0.03,-0.00,0.00,0.00,0.00,0.00,0.00,0.00,0.00,0.00,0.00,819,819,819,819
8489,0,0.03,-0.00,0.00,0.00,0.00,0.00,0.00,0.00,0.00,0.00,0.00,819,819,819,819
8495,0,0.03,-0.00,0.00,0.00,0.00,0.00,0.00,0.00,0.00,0.00,0.00,819,819,819,819
8501,0,0.03,-0.00,0.00,0.00,0.00,0.00,0.00,0.00,0.00,0.00,0.00,819,819,819,819
8508,0,0.03,-0.00,0.00,0.00,0.00,0.00,0.00,0.00,0.00,0.00,0.00,819,819,819,819
8516,0,0.03,-0.00,0.00,0.00,0.00,0.00,0.00,0.00,0.00,0.00,0.00,819,819,819,819
8522,0,0.03,-0.00,0.00,0.00,0.00,0.00,0.00,0.00,0.00,0.00,0.00,819,819,819,819
8529,0,0.03,-0.00,0.00,0.00,0.00,0.00,0.00,0.00,0.00,0.00,0.00,819,819,819,819
8536,0,0.03,-0.00,0.00,0.00,0.00,0.00,0.00,0.00,0.00,0.00,0.00,819,819,819,819
8542,0,0.03,-0.00,0.00,0.00,0.00,0.00,0.00,0.00,0.00,0.00,0.00,819,819,819,819
8549,0,0.03,-0.00,0.00,0.00,0.00,0.00,0.00,0.00,0.00,0.00,0.00,819,819,819,819
8556,0,0.03,-0.00,0.00,0.00,0.00,0.00,0.00,0.00,0.00,0.00,0.00,819,819,819,819
8563,0,0.03,-0.00,0.00,0.00,0.00,0.00,0.00,0.00,0.00,0.00,0.00,819,819,819,819
8570,0,0.03,-0.00,0.00,0.00,0.00,0.00,0.00,0.00,0.00,0.00,0.00,819,819,819,819
8577,0,0.03,-0.00,0.00,0.00,0.00,0.00,0.00,0.00,0.00,0.00,0.00,819,819,819,819
8587,0,0.03,-0.00,0.00,0.00,0.00,0.00,0.00,0.00,0.00,0.00,0.00,819,819,819,819
8593,0,0.03,-0.00,0.00,0.00,0.00,0.00,0.00,0.00,0.00,0.00,0.00,819,819,819,819
8600,0,0.03,-0.00,0.00,0.00,0.00,0.00,0.00,0.00,0.00,0.00,0.00,819,819,819,819
8607,0,0.03,-0.00,0.00,0.00,0.00,0.00,0.00,0.00,0.00,0.00,0.00,819,819,819,819
8614,0,0.03,-0.00,0.00,0.00,0.00,0.00,0.00,0.00,0.00,0.00,0.00,819,819,819,819
8621,0,0.03,-0.00,0.00,0.00,0.00,0.00,0.00,0.00,0.00,0.00,0.00,819,819,819,819
8628,0,0.03,-0.00,0.00,0.00,0.00,0.00,0.00,0.00,0.00,0.00,0.00,819,819,819,819
8635,0,0.03,-0.00,0.00,0.00,0.00,0.00,0.00,0.00,0.00,0.00,0.00,819,819,819,819
8642,0,0.03,-0.00,0.00,0.00,0.00,0.00,0.00,0.00,0.00,0.00,0.00,819,819,819,819
8648,0,0.03,-0.00,0.00,0.00,0.00,0.00,0.00,0.00,0.00,0.00,0.00,819,819,819,819
8656,0,0.03,-0.00,0.00,0.00,0.00,0.00,0.00,0.00,0.00,0.00,0.00,819,819,819,819
8662,0,0.03,-0.00,0.00,0.00,0.00,0.00,0.00,0.00,0.00,0.00,0.00,819,819,819,819
8669,0,0.03,-0.00,0.00,0.00,0.00,0.00,0.00,0.00,0.00,0.00,0.00,819,819,819,819
8676,0,0.03,-0.00,0.00,0.00,0.00,0.00,0.00,0.00,0.00,0.00,0.00,819,819,819,819
8682,0,0.03,-0.00,0.00,0.00,0.00,0.00,0.00,0.00,0.00,0.00,0.00,819,819,819,819
8689,0,0.03,-0.00,0.00,0.00,0.00,0.00,0.00,0.00,0.00,0.00,0.00,819,819,819,819
8695,0,0.03,-0.00,0.00,0.00,0.00,0.00,0.00,0.00,0.00,0.00,0.00,819,819,819,819
8701,0,0.03,-0.00,0.00,0.00,0.00,0.00,0.00,0.00,0.00,0.00,0.00,819,819,819,819
8708,0,0.03,-0.00,0.00,0.00,0.00,0.00,0.00,0.00,0.00,0.00,0.00,819,819,819,819
8715,0,0.03,-0.00,0.00,0.00,0.00,0.00,0.00,0.00,0.00,0.00,0.00,819,819,819,819
8721,0,0.03,-0.00,0.00,0.00,0.00,0.00,0.00,0.00,0.00,0.00,0.00,819,819,819,819
8728,0,0.03,-0.00,0.00,0.00,0.00,0.00,0.00,0.00,0.00,0.00,0.00,819,819,819,819
8736,0,0.03,-0.00,0.00,0.00,0.00,0.00,0.00,0.00,0.00,0.00,0.00,819,819,819,819
8742,0,0.03,-0.00,0.00,0.00,0.00,0.00,0.00,0.00,0.00,0.00,0.00,819,819,819,819
8749,0,0.03,-0.00,0.00,0.00,0.00,0.00,0.00,0.00,0.00,0.00,0.00,819,819,819,819
8756,0,0.03,-0.00,0.00,0.00,0.00,0.00,0.00,0.00,0.00,0.00,0.00,819,819,819,819
8763,0,0.03,-0.00,0.00,0.00,0.00,0.00,0.00,0.00,0.00,0.00,0.00,819,819,819,819
8769,0,0.03,-0.00,0.00,0.00,0.00,0.00,0.00,0.00,0.00,0.00,0.00,819,819,819,819
8777,0,0.03,-0.00,0.00,0.00,0.00,0.00,0.00,0.00,0.00,0.00,0.00,819,819,819,819
8784,0,0.03,-0.00,0.00,0.00,0.00,0.00,0.00,0.00,0.00,0.00,0.00,819,819,819,819
8791,0,0.03,-0.00,0.00,0.00,0.00,0.00,0.00,0.00,0.00,0.00,0.00,819,819,819,819
8800,0,0.03,-0.00,0.00,0.00,0.00,0.00,0.00,0.00,0.00,0.00,0.00,819,819,819,819
8809,0,0.03,-0.00,0.00,0.00,0.00,0.00,0.00,0.00,0.00,0.00,0.00,819,819,819,819
8816,0,0.03,-0.00,0.00,0.00,0.00,0.00,0.00,0.00,0.00,0.00,0.00,819,819,819,819
8824,0,0.03,-0.00,0.00,0.00,0.00,0.00,0.00,0.00,0.00,0.00,0.00,819,819,819,819
8830,0,0.03,-0.00,0.00,0.00,0.00,0.00,0.00,0.00,0.00,0.00,0.00,819,819,819,819
8837,0,0.03,-0.00,0.00,0.00,0.00,0.00,0.00,0.00,0.00,0.00,0.00,819,819,819,819
8844,0,0.03,-0.00,0.00,0.01,0.00,0.00,0.00,0.00,0.00,0.00,0.00,819,819,819,819
8850,0,0.03,-0.00,0.00,0.01,0.00,0.00,0.00,0.00,0.00,0.00,0.00,819,819,819,819
8857,0,0.03,-0.00,0.00,0.01,0.00,0.00,0.00,0.00,0.00,0.00,0.00,819,819,819,819
8865,0,0.03,-0.00,0.00,0.01,0.00,0.00,0.00,0.00,0.00,0.00,0.00,819,819,819,819
8871,0,0.03,-0.00,0.00,0.07,0.00,0.00,0.00,0.06,0.06,0.08,0.08,868,868,888,884
8878,0,0.03,-0.00,0.00,0.09,0.00,0.00,0.00,0.08,0.08,0.10,0.10,885,885,905,901
8886,0,0.03,-0.00,0.00,0.10,0.00,0.00,0.00,0.09,0.09,0.10,0.10,891,891,911,906
8892,0,0.03,-0.00,0.00,0.10,0.00,0.00,0.00,0.09,0.09,0.11,0.11,895,895,915,911
8899,0,0.03,-0.00,0.00,0.10,0.00,0.00,0.00,0.10,0.10,0.11,0.11,898,898,918,914
8907,0,0.03,-0.00,0.00,0.10,0.00,0.00,0.00,0.10,0.10,0.11,0.11,898,898,918,914
8913,0,0.03,-0.00,0.00,0.10,0.00,0.00,0.00,0.10,0.10,0.11,0.11,898,898,918,914
8920,0,0.03,-0.00,0.00,0.10,0.00,0.00,0.00,0.10,0.10,0.11,0.11,898,898,918,914
8927,0,0.03,-0.00,0.00,0.10,0.00,0.00,0.00,0.10,0.10,0.11,0.11,898,898,918,914
8935,0,0.03,-0.00,0.00,0.10,0.00,0.00,0.00,0.10,0.10,0.11,0.11,898,898,918,914
8941,0,0.03,-0.00,0.00,0.10,0.00,0.00,0.00,0.10,0.10,0.11,0.11,898,898,918,914
8949,0,0.03,-0.00,0.00,0.10,0.00,0.00,0.00,0.10,0.10,0.11,0.11,898,898,918,914
8956,0,0.03,-0.00,0.00,0.16,0.00,0.00,0.00,0.15,0.15,0.16,0.16,940,940,960,956
8962,0,0.03,-0.00,0.00,0.16,0.00,0.00,0.00,0.15,0.15,0.17,0.17,945,945,965,961
8969,0,0.03,-0.00,0.00,0.17,0.00,0.00,0.00,0.16,0.16,0.17,0.17,949,949,969,965
8977,0,0.03,-0.00,0.00,0.17,0.00,0.00,0.00,0.16,0.16,0.18,0.18,951,951,971,967
8983,0,0.03,-0.00,0.00,0.17,0.00,0.00,0.00,0.16,0.16,0.18,0.18,951,951,971,967
8990,0,0.03,-0.00,0.00,0.17,0.00,0.00,0.00,0.16,0.16,0.18,0.18,951,951,971,967
8996,0,0.03,-0.00,0.00,0.17,0.00,0.00,0.00,0.16,0.16,0.18,0.18,951,951,971,967
9002,0,0.03,-0.00,0.00,0.17,0.00,0.00,0.00,0.16,0.16,0.18,0.18,951,951,971,967
9009,0,0.03,-0.00,0.00,0.17,0.00,0.00,0.00,0.17,0.17,0.18,0.18,954,954,974,970
9020,0,0.03,-0.00,0.00,0.17,0.00,0.00,0.00,0.17,0.17,0.18,0.18,955,955,975,971
9029,0,0.03,-0.00,0.00,0.17,0.00,0.00,0.00,0.17,0.17,0.18,0.18,955,955,975,971
9036,0,0.03,-0.00,0.00,0.17,0.00,0.00,0.00,0.17,0.17,0.18,0.18,955,955,975,971
9042,0,0.03,-0.00,0.00,0.17,0.00,0.00,0.00,0.17,0.17,0.18,0.18,955,955,975,971
9049,0,0.03,-0.00,0.00,0.17,0.00,0.00,0.00,0.17,0.17,0.18,0.18,955,955,975,971
9056,0,0.03,-0.00,0.00,0.17,0.00,0.00,0.00,0.17,0.17,0.18,0.18,955,955,975,971
9063,0,0.03,-0.00,0.00,0.17,0.00,0.00,0.00,0.17,0.17,0.18,0.18,955,955,975,971
9069,0,0.03,-0.00,0.00,0.17,0.00,0.00,0.00,0.17,0.17,0.18,0.18,955,955,975,971
9077,0,0.03,-0.00,0.00,0.17,0.00,0.00,0.00,0.17,0.17,0.18,0.18,955,955,975,971
9083,0,0.03,-0.00,0.00,0.17,0.00,0.00,0.00,0.17,0.17,0.18,0.18,954,954,974,970
9090,0,0.03,-0.00,0.00,0.17,0.00,0.00,0.00,0.17,0.17,0.18,0.18,954,954,974,970
9096,0,0.03,-0.00,0.00,0.17,0.00,0.00,0.00,0.17,0.17,0.18,0.18,954,954,974,970
9103,0,0.03,-0.00,0.00,0.17,0.00,0.00,0.00,0.17,0.17,0.18,0.18,954,954,974,970
9110,0,0.03,-0.00,0.00,0.17,0.00,0.00,0.00,0.17,0.17,0.18,0.18,954,954,974,970
9117,0,0.03,-0.00,0.00,0.17,0.00,0.00,0.00,0.17,0.17,0.18,0.18,955,955,975,971
9125,0,0.03,-0.00,0.00,0.17,0.00,0.00,0.00,0.17,0.17,0.18,0.18,954,954,974,970
9131,0,0.03,-0.00,0.00,0.17,0.00,0.00,0.00,0.17,0.17,0.18,0.18,954,954,974,970
9138,0,0.03,-0.00,0.00,0.17,0.00,0.00,0.00,0.17,0.17,0.18,0.18,954,954,974,970
9145,0,0.03,-0.00,0.00,0.17,0.00,0.00,0.00,0.17,0.17,0.18,0.18,954,954,974,970
9151,0,0.03,-0.00,0.00,0.17,0.00,0.00,0.00,0.17,0.17,0.18,0.18,954,954,974,970
9159,0,0.03,-0.00,0.00,0.17,0.00,0.00,0.00,0.17,0.17,0.18,0.18,954,954,974,970
9166,0,0.03,-0.00,0.00,0.17,0.00,0.00,0.00,0.17,0.17,0.18,0.18,954,954,974,970
9173,0,0.03,-0.00,0.00,0.17,0.00,0.00,0.00,0.17,0.17,0.18,0.18,954,954,974,970
9180,0,0.03,-0.00,0.00,0.17,0.00,0.00,0.00,0.17,0.17,0.18,0.18,954,954,974,970
9187,0,0.03,-0.00,0.00,0.17,0.00,0.00,0.00,0.17,0.17,0.18,0.18,954,954,974,970
9193,0,0.03,-0.00,0.00,0.17,0.00,0.00,0.00,0.17,0.17,0.18,0.18,954,954,974,970
9200,0,0.03,-0.00,0.00,0.17,0.00,0.00,0.00,0.17,0.17,0.18,0.18,954,954,974,970
9207,0,0.03,-0.00,0.00,0.17,0.00,0.00,0.00,0.17,0.17,0.18,0.18,954,954,974,970
9215,0,0.03,-0.00,0.00,0.17,0.00,0.00,0.00,0.17,0.17,0.18,0.18,954,954,974,970
9221,0,0.03,-0.00,0.00,0.17,0.00,0.00,0.00,0.16,0.16,0.18,0.18,954,954,974,970
9229,0,0.03,-0.00,0.00,0.17,0.00,0.00,0.00,0.16,0.16,0.18,0.18,954,954,974,970
9240,0,0.03,-0.00,0.00,0.17,0.00,0.00,0.00,0.16,0.16,0.18,0.18,954,954,974,970
9249,0,0.03,-0.00,0.00,0.17,0.00,0.00,0.00,0.17,0.17,0.18,0.18,954,954,974,970
9256,0,0.03,-0.00,0.00,0.17,0.00,0.00,0.00,0.16,0.16,0.18,0.18,954,954,974,970
9263,0,0.03,-0.00,0.00,0.17,0.00,0.00,0.00,0.16,0.16,0.18,0.18,954,954,974,970
9270,0,0.03,-0.00,0.00,0.17,0.00,0.00,0.00,0.16,0.16,0.18,0.18,954,954,974,970
9277,0,0.03,-0.00,0.00,0.17,0.00,0.00,0.00,0.16,0.16,0.18,0.18,954,954,974,970
9284,0,0.03,-0.00,0.00,0.17,0.00,0.00,0.00,0.16,0.16,0.18,0.18,954,954,974,970
9291,0,0.03,-0.00,0.00,0.17,0.00,0.00,0.00,0.16,0.16,0.18,0.18,954,954,974,970
9298,0,0.03,-0.00,0.00,0.17,0.00,0.00,0.00,0.16,0.16,0.18,0.18,954,954,974,970
9305,0,0.03,-0.00,0.00,0.17,0.00,0.00,0.00,0.16,0.16,0.18,0.18,954,954,974,970
9311,0,0.03,-0.00,0.00,0.17,0.00,0.00,0.00,0.16,0.16,0.18,0.18,954,954,974,970
9319,0,0.03,-0.00,0.00,0.17,0.00,0.00,0.00,0.16,0.16,0.18,0.18,954,954,974,970
9326,0,0.03,-0.00,0.00,0.17,0.00,0.00,0.00,0.16,0.16,0.18,0.18,954,954,974,970
9333,0,0.03,-0.00,0.00,0.17,0.00,0.00,0.00,0.16,0.16,0.18,0.18,954,954,974,970
9340,0,0.03,-0.00,0.00,0.17,0.00,0.00,0.00,0.16,0.16,0.18,0.18,954,954,974,970
9347,0,0.03,-0.00,0.00,0.17,0.00,0.00,0.00,0.16,0.16,0.18,0.18,954,954,974,970
9354,0,0.03,-0.00,0.00,0.17,0.00,0.00,0.00,0.16,0.16,0.18,0.18,954,954,974,970
9360,0,0.03,-0.00,0.00,0.17,0.00,0.00,0.00,0.16,0.16,0.18,0.18,954,954,974,970
9368,0,0.03,-0.00,0.00,0.17,0.00,0.00,0.00,0.16,0.16,0.18,0.18,954,954,974,970
9374,0,0.03,-0.00,0.00,0.17,0.00,0.00,0.00,0.16,0.16,0.18,0.18,954,954,974,970
9381,0,0.03,-0.00,0.00,0.17,0.00,0.00,0.00,0.16,0.16,0.18,0.18,954,954,974,970
9388,0,0.03,-0.00,0.00,0.17,0.00,0.00,0.00,0.16,0.16,0.18,0.18,954,954,974,970
9394,0,0.03,-0.00,0.00,0.17,0.00,0.00,0.00,0.16,0.16,0.18,0.18,954,954,974,970
9401,0,0.03,-0.00,0.00,0.17,0.00,0.00,0.00,0.16,0.16,0.18,0.18,954,954,974,970
9408,0,0.03,-0.00,0.00,0.17,0.00,0.00,0.00,0.16,0.16,0.18,0.18,954,954,974,970
9415,0,0.03,-0.00,0.00,0.17,0.00,0.00,0.00,0.16,0.16,0.18,0.18,954,954,974,970
9421,0,0.03,-0.00,0.00,0.17,0.00,0.00,0.00,0.16,0.16,0.18,0.18,954,954,974,970
9429,0,0.03,-0.00,0.00,0.17,0.00,0.00,0.00,0.16,0.16,0.18,0.18,954,954,974,970
9436,0,0.03,-0.00,0.00,0.17,0.00,0.00,0.00,0.16,0.16,0.18,0.18,954,954,974,970
9442,0,0.03,-0.00,0.00,0.17,0.00,0.00,0.00,0.16,0.16,0.18,0.18,954,954,974,970
9449,0,0.03,-0.00,0.00,0.17,0.00,0.00,0.00,0.16,0.16,0.18,0.18,954,954,974,970
9460,0,0.03,-0.00,0.00,0.17,0.00,0.00,0.00,0.16,0.16,0.18,0.18,954,954,974,970
9469,0,0.03,-0.00,0.00,0.17,0.00,0.00,0.00,0.16,0.16,0.18,0.18,954,954,974,970
9477,0,0.03,-0.00,0.00,0.17,0.00,0.00,0.00,0.16,0.16,0.18,0.18,953,953,973,969
9483,0,0.03,-0.00,0.00,0.17,0.00,0.00,0.00,0.16,0.16,0.18,0.18,954,954,974,970
9491,0,0.03,-0.00,0.00,0.17,0.00,0.00,0.00,0.16,0.16,0.18,0.18,954,954,974,970
9497,0,0.03,-0.00,0.00,0.17,0.00,0.00,0.00,0.16,0.16,0.18,0.18,954,954,974,970
9503,0,0.03,-0.00,0.00,0.17,0.00,0.00,0.00,0.16,0.16,0.18,0.18,954,954,974,970
9510,0,0.03,-0.00,0.00,0.17,0.00,0.00,0.00,0.16,0.16,0.18,0.18,954,954,974,970
9518,0,0.03,-0.00,0.00,0.17,0.00,0.00,0.00,0.16,0.16,0.18,0.18,953,953,973,969
9525,0,0.03,-0.00,0.00,0.17,0.00,0.00,0.00,0.16,0.16,0.18,0.18,953,953,973,969
9532,0,0.03,-0.00,0.00,0.17,0.00,0.00,0.00,0.16,0.16,0.18,0.18,953,953,973,969
9539,0,0.03,-0.00,0.00,0.17,0.00,0.00,0.00,0.16,0.16,0.18,0.18,953,953,973,969
9546,0,0.03,-0.00,0.00,0.17,0.00,0.00,0.00,0.16,0.16,0.18,0.18,953,953,973,969
9552,0,0.03,-0.00,0.00,0.17,0.00,0.00,0.00,0.16,0.16,0.18,0.18,953,953,973,969
9559,0,0.03,-0.00,0.00,0.17,0.00,0.00,0.00,0.16,0.16,0.18,0.18,953,953,973,969
9567,0,0.03,-0.00,0.00,0.17,0.00,0.00,0.00,0.16,0.16,0.18,0.18,953,953,973,969
9573,0,0.03,-0.00,0.00,0.17,0.00,0.00,0.00,0.16,0.16,0.18,0.18,953,953,973,969
9580,0,0.03,-0.00,0.00,0.17,0.00,0.00,0.00,0.16,0.16,0.18,0.18,953,953,973,969
9588,0,0.03,-0.00,0.00,0.17,0.00,0.00,0.00,0.16,0.16,0.18,0.18,950,950,970,966
9594,0,0.03,-0.00,0.00,0.15,0.00,0.00,0.00,0.14,0.14,0.16,0.16,937,937,957,953
9601,0,0.03,-0.00,0.00,0.15,0.00,0.00,0.00,0.14,0.14,0.16,0.16,937,937,957,953
9608,0,0.03,-0.00,0.00,0.15,0.00,0.00,0.00,0.14,0.14,0.16,0.16,937,937,957,953
9615,0,0.03,-0.00,0.00,0.14,0.00,0.00,0.00,0.13,0.13,0.15,0.15,926,926,946,942
9621,0,0.03,-0.00,0.00,0.14,0.00,0.00,0.00,0.13,0.13,0.15,0.15,926,926,946,942
9629,0,0.03,-0.00,0.00,0.14,0.00,0.00,0.00,0.13,0.13,0.15,0.15,926,926,946,942
9635,0,0.03,-0.00,0.00,0.14,0.00,0.00,0.00,0.13,0.13,0.15,0.15,926,926,946,942
9642,0,0.03,-0.00,0.00,0.14,0.00,0.00,0.00,0.13,0.13,0.15,0.15,926,926,946,942
9649,0,0.03,-0.00,0.00,0.14,0.00,0.00,0.00,0.13,0.13,0.15,0.15,926,926,946,942
9655,0,0.03,-0.00,0.00,0.12,0.00,0.00,0.00,0.11,0.11,0.13,0.13,913,913,933,929
9662,0,0.03,-0.00,0.00,0.12,0.00,0.00,0.00,0.11,0.11,0.13,0.13,913,913,933,929
9669,0,0.03,-0.00,0.00,0.12,0.00,0.00,0.00,0.11,0.11,0.13,0.13,910,910,930,926
9681,0,0.03,-0.00,0.00,0.12,0.00,0.00,0.00,0.11,0.11,0.13,0.13,909,909,929,925
9690,0,0.03,-0.00,0.00,0.12,0.00,0.00,0.00,0.11,0.11,0.13,0.13,909,909,929,925
9696,0,0.03,-0.00,0.00,0.12,0.00,0.00,0.00,0.11,0.11,0.13,0.13,909,909,929,925
9703,0,0.03,-0.00,0.00,0.12,0.00,0.00,0.00,0.11,0.11,0.13,0.13,909,909,929,925
9710,0,0.03,-0.00,0.00,0.12,0.00,0.00,0.00,0.11,0.11,0.12,0.12,909,909,929,925
9718,0,0.03,-0.00,0.00,0.12,0.00,0.00,0.00,0.11,0.11,0.12,0.12,909,909,929,925
9724,0,0.03,-0.00,0.00,0.12,0.00,0.00,0.00,0.11,0.11,0.12,0.12,909,909,929,925
9731,0,0.03,-0.00,0.00,0.12,0.00,0.00,0.00,0.11,0.11,0.12,0.12,909,909,929,925
9738,0,0.03,-0.00,0.00,0.12,0.00,0.00,0.00,0.11,0.11,0.12,0.12,909,909,929,925
9744,0,0.03,-0.00,0.00,0.12,0.00,0.00,0.00,0.11,0.11,0.12,0.12,909,909,929,925
9751,0,0.03,-0.00,0.00,0.12,0.00,0.00,0.00,0.11,0.11,0.12,0.12,909,909,929,925
9758,0,0.03,-0.00,0.00,0.12,0.00,0.00,0.00,0.11,0.11,0.12,0.12,909,909,929,925
9764,0,0.03,-0.00,0.00,0.12,0.00,0.00,0.00,0.11,0.11,0.12,0.12,909,909,929,925
9773,0,0.03,-0.00,0.00,0.12,0.00,0.00,0.00,0.11,0.11,0.12,0.12,909,909,929,925
9780,0,0.03,-0.00,0.00,0.12,0.00,0.00,0.00,0.11,0.11,0.12,0.12,909,909,929,925
9787,0,0.03,-0.00,0.00,0.12,0.00,0.00,0.00,0.11,0.11,0.12,0.12,909,909,929,925
9794,0,0.03,-0.00,0.00,0.12,0.00,0.00,0.00,0.11,0.11,0.12,0.12,909,909,929,925
9801,0,0.03,-0.00,0.00,0.12,0.00,0.00,0.00,0.11,0.11,0.12,0.12,909,909,929,925
9808,0,0.03,-0.00,0.00,0.12,0.00,0.00,0.00,0.11,0.11,0.12,0.12,909,909,929,925
9814,0,0.03,-0.00,0.00,0.12,0.00,0.00,0.00,0.11,0.11,0.12,0.12,909,909,929,925
9821,0,0.03,-0.00,0.00,0.12,0.00,0.00,0.00,0.11,0.11,0.12,0.12,909,909,929,925
9828,0,0.03,-0.00,0.00,0.12,0.00,0.00,0.00,0.11,0.11,0.12,0.12,909,909,929,925
9835,0,0.03,-0.00,0.00,0.12,0.00,0.00,0.00,0.11,0.11,0.12,0.12,909,909,929,925
9842,0,0.03,-0.00,0.00,0.12,0.00,0.00,0.00,0.11,0.11,0.12,0.12,909,909,929,925
9849,0,0.03,-0.00,0.00,0.12,0.00,0.00,0.00,0.11,0.11,0.12,0.12,909,909,929,925
9857,0,0.03,-0.00,0.00,0.12,0.00,0.00,0.00,0.11,0.11,0.12,0.12,909,909,929,925
9863,0,0.03,-0.00,0.00,0.12,0.00,0.00,0.00,0.11,0.11,0.12,0.12,909,909,929,925
9871,0,0.03,-0.00,0.00,0.12,0.00,0.00,0.00,0.11,0.11,0.13,0.13,909,909,929,925
9878,0,0.03,-0.00,0.00,0.12,0.00,0.00,0.00,0.11,0.11,0.13,0.13,909,909,929,925
9884,0,0.03,-0.00,0.00,0.12,0.00,0.00,0.00,0.11,0.11,0.13,0.13,910,910,930,926
9893,0,0.03,-0.00,0.00,0.12,0.00,0.00,0.00,0.11,0.11,0.13,0.13,910,910,930,926
9900,0,0.03,-0.00,0.00,0.12,0.00,0.00,0.00,0.11,0.11,0.13,0.13,910,910,930,926
9908,0,0.03,-0.00,0.00,0.12,0.00,0.00,0.00,0.11,0.11,0.13,0.13,910,910,930,926
9914,0,0.03,-0.00,0.00,0.12,0.00,0.00,0.00,0.11,0.11,0.13,0.13,911,911,931,927
9921,0,0.03,-0.00,0.00,0.12,0.00,0.00,0.00,0.11,0.11,0.13,0.13,911,911,931,927
9929,0,0.03,-0.00,0.00,0.12,0.00,0.00,0.00,0.11,0.11,0.13,0.13,911,911,931,927
9936,0,0.03,-0.00,0.00,0.12,0.00,0.00,0.00,0.11,0.11,0.13,0.13,911,911,931,927
9942,0,0.03,-0.00,0.00,0.12,0.00,0.00,0.00,0.11,0.11,0.13,0.13,911,911,931,927
9950,0,0.03,-0.00,0.00,0.12,0.00,0.00,0.00,0.11,0.11,0.13,0.13,911,911,931,927
9957,0,0.03,-0.00,0.00,0.12,0.00,0.00,0.00,0.11,0.11,0.13,0.13,911,911,931,927
9963,0,0.03,-0.00,0.00,0.12,0.00,0.00,0.00,0.11,0.11,0.13,0.13,911,911,931,927
9971,0,0.03,-0.00,0.00,0.12,0.00,0.00,0.00,0.11,0.11,0.13,0.13,911,911,931,927
9978,0,0.03,-0.00,0.00,0.12,0.00,0.00,0.00,0.11,0.11,0.13,0.13,911,911,931,927
9985,0,0.03,-0.00,0.00,0.12,0.00,0.00,0.00,0.11,0.11,0.13,0.13,911,911,931,927
9992,0,0.03,-0.00,0.00,0.12,0.00,0.00,0.00,0.11,0.11,0.13,0.13,911,911,931,927
9998,0,0.03,-0.00,0.00,0.12,0.00,0.00,0.00,0.11,0.11,0.13,0.13,911,911,931,927
10005,0,0.03,-0.00,0.00,0.12,0.00,0.00,0.00,0.11,0.11,0.13,0.13,911,911,931,927
10012,0,0.03,-0.00,0.00,0.12,0.00,0.00,0.00,0.11,0.11,0.13,0.13,911,911,931,927
10019,0,0.03,-0.00,0.00,0.12,0.00,0.00,0.00,0.11,0.11,0.13,0.13,911,911,931,927
10027,0,0.03,-0.00,0.00,0.12,0.00,0.00,0.00,0.11,0.11,0.13,0.13,911,911,931,927
10033,0,0.03,-0.00,0.00,0.12,0.00,0.00,0.00,0.11,0.11,0.13,0.13,911,911,931,927
10040,0,0.03,-0.00,0.00,0.12,0.00,0.00,0.00,0.11,0.11,0.13,0.13,911,911,931,927
10047,0,0.03,-0.00,0.00,0.12,0.00,0.00,0.00,0.11,0.11,0.13,0.13,911,911,931,927
10053,0,0.03,-0.00,0.00,0.12,0.00,0.00,0.00,0.11,0.11,0.13,0.13,911,911,931,927
10061,0,0.03,-0.00,0.00,0.12,0.00,0.00,0.00,0.11,0.11,0.13,0.13,911,911,931,927
10068,0,0.03,-0.00,0.00,0.12,0.00,0.00,0.00,0.11,0.11,0.13,0.13,911,911,931,927
10075,0,0.03,-0.00,0.00,0.12,0.00,0.00,0.00,0.11,0.11,0.13,0.13,911,911,931,927
10082,0,0.03,-0.00,0.00,0.12,0.00,0.00,0.00,0.11,0.11,0.13,0.13,911,911,931,927
10089,0,0.03,-0.00,0.00,0.12,0.00,0.00,0.00,0.11,0.11,0.13,0.13,911,911,931,927
10095,0,0.03,-0.00,0.00,0.12,0.00,0.00,0.00,0.11,0.11,0.13,0.13,911,911,931,927
10102,0,0.03,-0.00,0.00,0.12,0.00,0.00,0.00,0.11,0.11,0.13,0.13,911,911,931,927
10112,0,0.03,-0.00,0.00,0.12,0.00,0.00,0.00,0.11,0.11,0.13,0.13,911,911,931,927
10121,0,0.03,-0.00,0.00,0.12,0.00,0.00,0.00,0.11,0.11,0.13,0.13,911,911,931,927
10129,0,0.03,-0.00,0.00,0.12,0.00,0.00,0.00,0.11,0.11,0.13,0.13,911,911,931,927
10136,0,0.03,-0.00,0.00,0.12,0.00,0.00,0.00,0.11,0.11,0.13,0.13,911,911,931,927
10142,0,0.03,-0.00,0.00,0.12,0.00,0.00,0.00,0.11,0.11,0.13,0.13,911,911,931,927
10150,0,0.03,-0.00,0.00,0.12,0.00,0.00,0.00,0.11,0.11,0.13,0.13,911,911,931,927
10157,0,0.03,-0.00,0.00,0.12,0.00,0.00,0.00,0.11,0.11,0.13,0.13,911,911,931,927
10163,0,0.03,-0.00,0.00,0.12,0.00,0.00,0.00,0.11,0.11,0.13,0.13,911,911,931,927
10170,0,0.03,-0.00,0.00,0.12,0.00,0.00,0.00,0.11,0.11,0.13,0.13,910,910,930,926
10177,0,0.03,-0.00,0.00,0.12,0.00,0.00,0.00,0.11,0.11,0.13,0.13,911,911,931,927
10183,0,0.03,-0.00,0.00,0.12,0.00,0.00,0.00,0.11,0.11,0.13,0.13,910,910,930,926
10191,0,0.03,-0.00,0.00,0.12,0.00,0.00,0.00,0.11,0.11,0.13,0.13,910,910,930,926
10197,0,0.03,-0.00,0.00,0.12,0.00,0.00,0.00,0.11,0.11,0.13,0.13,910,910,930,926
10204,0,0.03,-0.00,0.00,0.12,0.00,0.00,0.00,0.11,0.11,0.13,0.13,910,910,930,926
10211,0,0.03,-0.00,0.00,0.12,0.00,0.00,0.00,0.11,0.11,0.13,0.13,910,910,930,926
10219,0,0.03,-0.00,0.00,0.12,0.00,0.00,0.00,0.11,0.11,0.13,0.13,910,910,930,926
10225,0,0.03,-0.00,0.00,0.12,0.00,0.00,0.00,0.11,0.11,0.13,0.13,910,910,930,926
10232,0,0.03,-0.00,0.00,0.12,0.00,0.00,0.00,0.11,0.11,0.13,0.13,910,910,930,926
10240,0,0.03,-0.00,0.00,0.12,0.00,0.00,0.00,0.11,0.11,0.13,0.13,910,910,930,926
10246,0,0.03,-0.00,0.00,0.12,0.00,0.00,0.00,0.11,0.11,0.13,0.13,910,910,930,926
10253,0,0.03,-0.00,0.00,0.12,0.00,0.00,0.00,0.11,0.11,0.13,0.13,910,910,930,926
10260,0,0.03,-0.00,0.00,0.12,0.00,0.00,0.00,0.11,0.11,0.13,0.13,910,910,930,926
10267,0,0.03,-0.00,0.00,0.12,0.00,0.00,0.00,0.11,0.11,0.13,0.13,910,910,930,926
10274,0,0.03,-0.00,0.00,0.12,0.00,0.00,0.00,0.11,0.11,0.13,0.13,910,910,930,926
10281,0,0.03,-0.00,0.00,0.12,0.00,0.00,0.00,0.11,0.11,0.13,0.13,910,910,930,926
10289,0,0.03,-0.00,0.00,0.12,0.00,0.00,0.00,0.11,0.11,0.13,0.13,909,909,929,925
10295,0,0.03,-0.00,0.00,0.12,0.00,0.00,0.00,0.11,0.11,0.13,0.13,909,909,929,925
10302,0,0.03,-0.00,0.00,0.12,0.00,0.00,0.00,0.11,0.11,0.13,0.13,909,909,929,925
10310,0,0.03,-0.00,0.00,0.12,0.00,0.00,0.00,0.11,0.11,0.13,0.13,909,909,929,925
10317,0,0.03,-0.00,0.00,0.12,0.00,0.00,0.00,0.11,0.11,0.13,0.13,909,909,929,925
10323,0,0.03,-0.00,0.00,0.12,0.00,0.00,0.00,0.11,0.11,0.13,0.13,909,909,929,925
10333,0,0.03,-0.00,0.00,0.12,0.00,0.00,0.00,0.11,0.11,0.12,0.12,908,908,928,924
10340,0,0.03,-0.00,0.00,0.12,0.00,0.00,0.00,0.11,0.11,0.12,0.12,908,908,928,924
10346,0,0.03,-0.00,0.00,0.12,0.00,0.00,0.00,0.11,0.11,0.12,0.12,908,908,928,924
10353,0,0.03,-0.00,0.00,0.11,0.00,0.00,0.00,0.11,0.11,0.12,0.12,905,905,925,921
10360,0,0.03,-0.00,0.00,0.11,0.00,0.00,0.00,0.11,0.11,0.12,0.12,905,905,925,921
10368,0,0.03,-0.00,0.00,0.11,0.00,0.00,0.00,0.11,0.11,0.12,0.12,905,905,925,921
10374,0,0.03,-0.00,0.00,0.11,0.00,0.00,0.00,0.11,0.11,0.12,0.12,905,905,925,921
10382,0,0.03,-0.00,0.00,0.11,0.00,0.00,0.00,0.11,0.11,0.12,0.12,905,905,925,921
10389,0,0.03,-0.00,0.00,0.11,0.00,0.00,0.00,0.11,0.11,0.12,0.12,905,905,925,921
10395,0,0.03,-0.00,0.00,0.08,0.00,0.00,0.00,0.07,0.07,0.09,0.09,878,878,898,894
10403,0,0.03,-0.00,0.00,0.08,0.00,0.00,0.00,0.07,0.07,0.09,0.09,878,878,898,894
10410,0,0.03,-0.00,0.00,0.08,0.00,0.00,0.00,0.07,0.07,0.09,0.09,878,878,898,894
10418,0,0.03,-0.00,0.00,0.08,0.00,0.00,0.00,0.07,0.07,0.09,0.09,878,878,898,894
10424,0,0.03,-0.00,0.00,0.07,0.00,0.00,0.00,0.06,0.06,0.08,0.08,869,869,889,885
10431,0,0.03,-0.00,0.00,0.07,0.00,0.00,0.00,0.06,0.06,0.07,0.07,868,868,888,884
10439,0,0.03,-0.00,0.00,0.06,0.00,0.00,0.00,0.06,0.06,0.07,0.07,866,866,886,882
10445,0,0.03,-0.00,0.00,0.06,0.00,0.00,0.00,0.06,0.06,0.07,0.07,866,866,886,882
10453,0,0.03,-0.00,0.00,0.06,0.00,0.00,0.00,0.06,0.06,0.07,0.07,866,866,886,882
10460,0,0.03,-0.00,0.00,0.06,0.00,0.00,0.00,0.06,0.06,0.07,0.07,866,866,886,882
10466,0,0.03,-0.00,0.00,0.06,0.00,0.00,0.00,0.06,0.06,0.07,0.07,866,866,886,882
10473,0,0.03,-0.00,0.00,0.06,0.00,0.00,0.00,0.06,0.06,0.07,0.07,866,866,886,882
10480,0,0.03,-0.00,0.00,0.06,0.00,0.00,0.00,0.05,0.05,0.06,0.06,859,859,879,875
10487,0,0.03,-0.00,0.00,0.06,0.00,0.00,0.00,0.05,0.05,0.06,0.06,859,859,879,875
10493,0,0.03,-0.00,0.00,0.06,0.00,0.00,0.00,0.05,0.05,0.06,0.06,859,859,879,875
10500,0,0.03,-0.00,0.00,0.06,0.00,0.00,0.00,0.05,0.05,0.06,0.06,859,859,879,875
10506,0,0.03,-0.00,0.00,0.06,0.00,0.00,0.00,0.05,0.05,0.06,0.06,859,859,879,875
10513,0,0.03,-0.00,0.00,0.06,0.00,0.00,0.00,0.05,0.05,0.06,0.06,859,859,879,875
10520,0,0.03,-0.00,0.00,0.06,0.00,0.00,0.00,0.05,0.05,0.06,0.06,859,859,879,875
10527,0,0.03,-0.00,0.00,0.06,0.00,0.00,0.00,0.05,0.05,0.06,0.06,859,859,879,875
10533,0,0.03,-0.00,0.00,0.06,0.00,0.00,0.00,0.05,0.05,0.06,0.06,859,859,879,875
10541,0,0.03,-0.00,0.00,0.06,0.00,0.00,0.00,0.05,0.05,0.06,0.06,859,859,879,875
10552,0,0.03,-0.00,0.00,0.06,0.00,0.00,0.00,0.05,0.05,0.06,0.06,859,859,879,875
10561,0,0.03,-0.00,0.00,0.06,0.00,0.00,0.00,0.05,0.05,0.06,0.06,859,859,879,875
10569,0,0.03,-0.00,0.00,0.06,0.00,0.00,0.00,0.05,0.05,0.06,0.06,859,859,879,875
10575,0,0.03,-0.00,0.00,0.06,0.00,0.00,0.00,0.05,0.05,0.06,0.06,859,859,879,875
10583,0,0.03,-0.00,0.00,0.06,0.00,0.00,0.00,0.05,0.05,0.06,0.06,859,859,879,875
10590,0,0.03,-0.00,0.00,0.06,0.00,0.00,0.00,0.05,0.05,0.06,0.06,859,859,879,875
10596,0,0.03,-0.00,0.00,0.06,0.00,0.00,0.00,0.05,0.05,0.06,0.06,859,859,879,875
10603,0,0.03,-0.00,0.00,0.06,0.00,0.00,0.00,0.05,0.05,0.06,0.06,859,859,879,875
10611,0,0.03,-0.00,0.00,0.06,0.00,0.00,0.00,0.05,0.05,0.06,0.06,859,859,879,875
10618,0,0.03,-0.00,0.00,0.06,0.00,0.00,0.00,0.05,0.05,0.06,0.06,859,859,879,875
10625,0,0.03,-0.00,0.00,0.06,0.00,0.00,0.00,0.05,0.05,0.06,0.06,859,859,879,875
10632,0,0.03,-0.00,0.00,0.06,0.00,0.00,0.00,0.05,0.05,0.06,0.06,859,859,879,875
10640,0,0.03,-0.00,0.00,0.06,0.00,0.00,0.00,0.05,0.05,0.06,0.06,859,859,879,875
10646,0,0.03,-0.00,0.00,0.06,0.00,0.00,0.00,0.05,0.05,0.06,0.06,859,859,879,875
10653,0,0.03,-0.00,0.00,0.06,0.00,0.00,0.00,0.05,0.05,0.06,0.06,859,859,879,875
10661,0,0.03,-0.00,0.00,0.06,0.00,0.00,0.00,0.05,0.05,0.06,0.06,859,859,879,875
10667,0,0.03,-0.00,0.00,0.06,0.00,0.00,0.00,0.05,0.05,0.06,0.06,859,859,879,875
10674,0,0.03,-0.00,0.00,0.06,0.00,0.00,0.00,0.05,0.05,0.06,0.06,859,859,879,875
10681,0,0.03,-0.00,0.00,0.06,0.00,0.00,0.00,0.05,0.05,0.06,0.06,859,859,879,875
10688,0,0.03,-0.00,0.00,0.06,0.00,0.00,0.00,0.05,0.05,0.06,0.06,859,859,879,875
10694,0,0.03,-0.00,0.00,0.06,0.00,0.00,0.00,0.05,0.05,0.06,0.06,859,859,879,875
10701,0,0.03,-0.00,0.00,0.06,0.00,0.00,0.00,0.05,0.05,0.06,0.06,859,859,879,875
10708,0,0.03,-0.00,0.00,0.06,0.00,0.00,0.00,0.05,0.05,0.06,0.06,859,859,879,875
10714,0,0.03,-0.00,0.00,0.06,0.00,0.00,0.00,0.05,0.05,0.06,0.06,859,859,879,875
10722,0,0.03,-0.00,0.00,0.06,0.00,0.00,0.00,0.05,0.05,0.06,0.06,859,859,879,875
10729,0,0.03,-0.00,0.00,0.06,0.00,0.00,0.00,0.05,0.05,0.06,0.06,859,859,879,875
10735,0,0.03,-0.00,0.00,0.06,0.00,0.00,0.00,0.05,0.05,0.06,0.06,859,859,879,875
10742,0,0.03,-0.00,0.00,0.06,0.00,0.00,0.00,0.05,0.05,0.06,0.06,859,859,879,875
10749,0,0.03,-0.00,0.00,0.06,0.00,0.00,0.00,0.05,0.05,0.06,0.06,859,859,879,875
10755,0,0.03,-0.00,0.00,0.06,0.00,0.00,0.00,0.05,0.05,0.06,0.06,859,859,879,875
10763,0,0.03,-0.00,0.00,0.06,0.00,0.00,0.00,0.05,0.05,0.06,0.06,859,859,879,875
10774,0,0.03,-0.00,0.00,0.06,0.00,0.00,0.00,0.05,0.05,0.06,0.06,859,859,879,875
10783,0,0.03,-0.00,0.00,0.06,0.00,0.00,0.00,0.05,0.05,0.06,0.06,859,859,879,875
10791,0,0.03,-0.00,0.00,0.06,0.00,0.00,0.00,0.05,0.05,0.06,0.06,859,859,879,875
10797,0,0.03,-0.00,0.00,0.06,0.00,0.00,0.00,0.05,0.05,0.06,0.06,859,859,879,875
10804,0,0.03,-0.00,0.00,0.06,0.00,0.00,0.00,0.05,0.05,0.06,0.06,859,859,879,875
10811,0,0.03,-0.00,0.00,0.06,0.00,0.00,0.00,0.05,0.05,0.06,0.06,859,859,879,875
10817,0,0.03,-0.00,0.00,0.06,0.00,0.00,0.00,0.05,0.05,0.06,0.06,859,859,879,875
10824,0,0.03,-0.00,0.00,0.06,0.00,0.00,0.00,0.05,0.05,0.06,0.06,859,859,879,875
10831,0,0.03,-0.00,0.00,0.06,0.00,0.00,0.00,0.05,0.05,0.06,0.06,859,859,879,875
10838,0,0.03,-0.00,0.00,0.06,0.00,0.00,0.00,0.05,0.05,0.06,0.06,859,859,879,875
10844,0,0.03,-0.00,0.00,0.06,0.00,0.00,0.00,0.05,0.05,0.06,0.06,859,859,879,875
10851,0,0.03,-0.00,0.00,0.06,0.00,0.00,0.00,0.05,0.05,0.06,0.06,859,859,879,875
10858,0,0.03,-0.00,0.00,0.06,0.00,0.00,0.00,0.05,0.05,0.06,0.06,859,859,879,875
10864,0,0.03,-0.00,0.00,0.06,0.00,0.00,0.00,0.05,0.05,0.06,0.06,859,859,879,875
10871,0,0.03,-0.00,0.00,0.06,0.00,0.00,0.00,0.05,0.05,0.06,0.06,859,859,879,875
10878,0,0.03,-0.00,0.00,0.06,0.00,0.00,0.00,0.05,0.05,0.06,0.06,859,859,879,875
10884,0,0.03,-0.00,0.00,0.06,0.00,0.00,0.00,0.05,0.05,0.06,0.06,859,859,879,875
10891,0,0.03,-0.00,0.00,0.06,0.00,0.00,0.00,0.05,0.05,0.06,0.06,859,859,879,875
10897,0,0.03,-0.00,0.00,0.06,0.00,0.00,0.00,0.05,0.05,0.06,0.06,859,859,879,875
10904,0,0.03,-0.00,0.00,0.06,0.00,0.00,0.00,0.05,0.05,0.06,0.06,859,859,879,875
10912,0,0.03,-0.00,0.00,0.06,0.00,0.00,0.00,0.05,0.05,0.06,0.06,859,859,879,875
10919,0,0.03,-0.00,0.00,0.06,0.00,0.00,0.00,0.05,0.05,0.06,0.06,859,859,879,875
10925,0,0.03,-0.00,0.00,0.06,0.00,0.00,0.00,0.05,0.05,0.06,0.06,859,859,879,875
10932,0,0.03,-0.00,0.00,0.06,0.00,0.00,0.00,0.05,0.05,0.06,0.06,859,859,879,875
10940,0,0.03,-0.00,0.00,0.06,0.00,0.00,0.00,0.05,0.05,0.06,0.06,859,859,879,875
10946,0,0.03,-0.00,0.00,0.06,0.00,0.00,0.00,0.05,0.05,0.06,0.06,859,859,879,875
10954,0,0.03,-0.00,0.00,0.06,0.00,0.00,0.00,0.05,0.05,0.06,0.06,859,859,879,875
10961,0,0.03,-0.00,0.00,0.06,0.00,0.00,0.00,0.05,0.05,0.06,0.06,859,859,879,875
10968,0,0.03,-0.00,0.00,0.06,0.00,0.00,0.00,0.05,0.05,0.06,0.06,859,859,879,875
10974,0,0.03,-0.00,0.00,0.06,0.00,0.00,0.00,0.05,0.05,0.06,0.06,859,859,879,875
10982,0,0.03,-0.00,0.00,0.06,0.00,0.00,0.00,0.05,0.05,0.06,0.06,859,859,879,875
10992,0,0.03,-0.00,0.00,0.06,0.00,0.00,0.00,0.05,0.05,0.06,0.06,859,859,879,875
10998,0,0.03,-0.00,0.00,0.06,0.00,0.00,0.00,0.05,0.05,0.06,0.06,859,859,879,875
11005,0,0.03,-0.00,0.00,0.06,0.00,0.00,0.00,0.05,0.05,0.06,0.06,859,859,879,875
11012,0,0.03,-0.00,0.00,0.06,0.00,0.00,0.00,0.05,0.05,0.06,0.06,859,859,879,875
11019,0,0.03,-0.00,0.00,0.06,0.00,0.00,0.00,0.05,0.05,0.06,0.06,859,859,879,875
11025,0,0.03,-0.00,0.00,0.06,0.00,0.00,0.00,0.05,0.05,0.06,0.06,859,859,879,875
11033,0,0.03,-0.00,0.00,0.06,0.00,0.00,0.00,0.05,0.05,0.06,0.06,859,859,879,875
11040,0,0.03,-0.00,0.00,0.06,0.00,0.00,0.00,0.05,0.05,0.06,0.06,859,859,879,875
11047,0,0.03,-0.00,0.00,0.06,0.00,0.00,0.00,0.05,0.05,0.06,0.06,859,859,879,875
11054,0,0.03,-0.00,0.00,0.06,0.00,0.00,0.00,0.05,0.05,0.06,0.06,859,859,879,875
11061,0,0.03,-0.00,0.00,0.06,0.00,0.00,0.00,0.05,0.05,0.06,0.06,859,859,879,875
11068,0,0.03,-0.00,0.00,0.06,0.00,0.00,0.00,0.05,0.05,0.06,0.06,859,859,879,875
11074,0,0.03,-0.00,0.00,0.06,0.00,0.00,0.00,0.05,0.05,0.06,0.06,859,859,879,875
11082,0,0.03,-0.00,0.00,0.06,0.00,0.00,0.00,0.05,0.05,0.06,0.06,859,859,879,875
11089,0,0.03,-0.00,0.00,0.06,0.00,0.00,0.00,0.05,0.05,0.06,0.06,859,859,879,875
11095,0,0.03,-0.00,0.00,0.06,0.00,0.00,0.00,0.05,0.05,0.06,0.06,859,859,879,875
11102,0,0.03,-0.00,0.00,0.06,0.00,0.00,0.00,0.05,0.05,0.06,0.06,859,859,879,875
11108,0,0.03,-0.00,0.00,0.06,0.00,0.00,0.00,0.05,0.05,0.06,0.06,859,859,879,875
11115,0,0.03,-0.00,0.00,0.06,0.00,0.00,0.00,0.05,0.05,0.06,0.06,859,859,879,875
11122,0,0.03,-0.00,0.00,0.06,0.00,0.00,0.00,0.05,0.05,0.06,0.06,859,859,879,875
11129,0,0.03,-0.00,0.00,0.06,0.00,0.00,0.00,0.05,0.05,0.06,0.06,859,859,879,875
11135,0,0.03,-0.00,0.00,0.06,0.00,0.00,0.00,0.05,0.05,0.06,0.06,859,859,879,875
11143,0,0.03,-0.00,0.00,0.06,0.00,0.00,0.00,0.05,0.05,0.06,0.06,859,859,879,875
11149,0,0.03,-0.00,0.00,0.06,0.00,0.00,0.00,0.05,0.05,0.06,0.06,859,859,879,875
11156,0,0.03,-0.00,0.00,0.06,0.00,0.00,0.00,0.05,0.05,0.07,0.07,860,860,880,876
11163,0,0.03,-0.00,0.00,0.06,0.00,0.00,0.00,0.05,0.05,0.07,0.07,860,860,880,876
11170,0,0.03,-0.00,0.00,0.06,0.00,0.00,0.00,0.05,0.05,0.07,0.07,860,860,880,876
11176,0,0.03,-0.00,0.00,0.06,0.00,0.00,0.00,0.05,0.05,0.07,0.07,860,860,880,876
11184,0,0.03,-0.00,0.00,0.06,0.00,0.00,0.00,0.05,0.05,0.07,0.07,860,860,880,876
11191,0,0.03,-0.00,0.00,0.06,0.00,0.00,0.00,0.05,0.05,0.07,0.07,860,860,880,876
11197,0,0.03,-0.00,0.00,0.06,0.00,0.00,0.00,0.05,0.05,0.07,0.07,860,860,880,876
11211,0,0.03,-0.00,0.00,0.06,0.00,0.00,0.00,0.05,0.05,0.07,0.07,860,860,880,876
11217,0,0.03,-0.00,0.00,0.06,0.00,0.00,0.00,0.05,0.05,0.07,0.07,860,860,880,876
11225,0,0.03,-0.00,0.00,0.06,0.00,0.00,0.00,0.05,0.05,0.07,0.07,860,860,880,876
11232,0,0.03,-0.00,0.00,0.06,0.00,0.00,0.00,0.05,0.05,0.07,0.07,860,860,880,876
11238,0,0.03,-0.00,0.00,0.06,0.00,0.00,0.00,0.05,0.05,0.07,0.07,860,860,880,876
11245,0,0.03,-0.00,0.00,0.06,0.00,0.00,0.00,0.05,0.05,0.07,0.07,860,860,880,876
11251,0,0.03,-0.00,0.00,0.06,0.00,0.00,0.00,0.05,0.05,0.07,0.07,860,860,880,876
11258,0,0.03,-0.00,0.00,0.06,0.00,0.00,0.00,0.05,0.05,0.07,0.07,860,860,880,876
11265,0,0.03,-0.00,0.00,0.06,0.00,0.00,0.00,0.05,0.05,0.07,0.07,860,860,880,876
11272,0,0.03,-0.00,0.00,0.06,0.00,0.00,0.00,0.05,0.05,0.07,0.07,860,860,880,876
11279,0,0.03,-0.00,0.00,0.06,0.00,0.00,0.00,0.05,0.05,0.07,0.07,860,860,880,876
11285,0,0.03,-0.00,0.00,0.06,0.00,0.00,0.00,0.05,0.05,0.07,0.07,860,860,880,876
11293,0,0.03,-0.00,0.00,0.06,0.00,0.00,0.00,0.05,0.05,0.07,0.07,860,860,880,876
11299,0,0.03,-0.00,0.00,0.06,0.00,0.00,0.00,0.05,0.05,0.07,0.07,860,860,880,876
11306,0,0.03,-0.00,0.00,0.06,0.00,0.00,0.00,0.05,0.05,0.07,0.07,860,860,880,876
11313,0,0.03,-0.00,0.00,0.06,0.00,0.00,0.00,0.05,0.05,0.07,0.07,860,860,880,876
11321,0,0.03,-0.00,0.00,0.06,0.00,0.00,0.00,0.05,0.05,0.07,0.07,860,860,880,876
11327,0,0.03,-0.00,0.00,0.06,0.00,0.00,0.00,0.05,0.05,0.07,0.07,860,860,880,876
11335,0,0.03,-0.00,0.00,0.06,0.00,0.00,0.00,0.05,0.05,0.07,0.07,860,860,880,876
11342,0,0.03,-0.00,0.00,0.06,0.00,0.00,0.00,0.05,0.05,0.07,0.07,860,860,880,876
11349,0,0.03,-0.00,0.00,0.06,0.00,0.00,0.00,0.05,0.05,0.07,0.07,860,860,880,876
11355,0,0.03,-0.00,0.00,0.06,0.00,0.00,0.00,0.05,0.05,0.07,0.07,860,860,880,876
11363,0,0.03,-0.00,0.00,0.06,0.00,0.00,0.00,0.05,0.05,0.07,0.07,860,860,880,876
11370,0,0.03,-0.00,0.00,0.06,0.00,0.00,0.00,0.05,0.05,0.07,0.07,860,860,880,876
11376,0,0.03,-0.00,0.00,0.06,0.00,0.00,0.00,0.05,0.05,0.07,0.07,860,860,880,876
11384,0,0.03,-0.00,0.00,0.06,0.00,0.00,0.00,0.05,0.05,0.07,0.07,860,860,880,876
11391,0,0.03,-0.00,0.00,0.06,0.00,0.00,0.00,0.05,0.05,0.07,0.07,860,860,880,876
11397,0,0.03,-0.00,0.00,0.06,0.00,0.00,0.00,0.05,0.05,0.07,0.07,860,860,880,876
11405,0,0.03,-0.00,0.00,0.06,0.00,0.00,0.00,0.05,0.05,0.07,0.07,860,860,880,876
11412,0,0.03,-0.00,0.00,0.06,0.00,0.00,0.00,0.05,0.05,0.07,0.07,860,860,880,876
11422,0,0.03,-0.00,0.00,0.06,0.00,0.00,0.00,0.05,0.05,0.07,0.07,860,860,880,876
11428,0,0.03,-0.00,0.00,0.06,0.00,0.00,0.00,0.05,0.05,0.07,0.07,860,860,880,876
11435,0,0.03,-0.00,0.00,0.06,0.00,0.00,0.00,0.05,0.05,0.07,0.07,860,860,880,876
11443,0,0.03,-0.00,0.00,0.06,0.00,0.00,0.00,0.05,0.05,0.07,0.07,860,860,880,876
11449,0,0.03,-0.00,0.00,0.06,0.00,0.00,0.00,0.05,0.05,0.07,0.07,860,860,880,876
11456,0,0.03,-0.00,0.00,0.06,0.00,0.00,0.00,0.05,0.05,0.07,0.07,860,860,880,876
11463,0,0.03,-0.00,0.00,0.06,0.00,0.00,0.00,0.05,0.05,0.07,0.07,860,860,880,876
11470,0,0.03,-0.00,0.00,0.06,0.00,0.00,0.00,0.05,0.05,0.07,0.07,860,860,880,876
11477,0,0.03,-0.00,0.00,0.06,0.00,0.00,0.00,0.05,0.05,0.07,0.07,860,860,880,876
11484,0,0.03,-0.00,0.00,0.06,0.00,0.00,0.00,0.05,0.05,0.07,0.07,860,860,880,876
11492,0,0.03,-0.00,0.00,0.06,0.00,0.00,0.00,0.05,0.05,0.07,0.07,860,860,880,876
11498,0,0.03,-0.00,0.00,0.06,0.00,0.00,0.00,0.05,0.05,0.07,0.07,860,860,880,876
11505,0,0.03,-0.00,0.00,0.06,0.00,0.00,0.00,0.05,0.05,0.07,0.07,860,860,880,876
11513,0,0.03,-0.00,0.00,0.06,0.00,0.00,0.00,0.05,0.05,0.07,0.07,860,860,880,876
11519,0,0.03,-0.00,0.00,0.06,0.00,0.00,0.00,0.05,0.05,0.07,0.07,860,860,880,876
11526,0,0.03,-0.00,0.00,0.06,0.00,0.00,0.00,0.05,0.05,0.07,0.07,860,860,880,876
11533,0,0.03,-0.00,0.00,0.06,0.00,0.00,0.00,0.05,0.05,0.07,0.07,860,860,880,876
11539,0,0.03,-0.00,0.00,0.06,0.00,0.00,0.00,0.05,0.05,0.07,0.07,860,860,880,876
11546,0,0.03,-0.00,0.00,0.06,0.00,0.00,0.00,0.05,0.05,0.07,0.07,860,860,880,876
11553,0,0.03,-0.00,0.00,0.06,0.00,0.00,0.00,0.05,0.05,0.07,0.07,860,860,880,876
11559,0,0.03,-0.00,0.00,0.06,0.00,0.00,0.00,0.05,0.05,0.07,0.07,860,860,880,876
11566,0,0.03,-0.00,0.00,0.06,0.00,0.00,0.00,0.05,0.05,0.07,0.07,860,860,880,876
11573,0,0.03,-0.00,0.00,0.06,0.00,0.00,0.00,0.05,0.05,0.07,0.07,860,860,880,876
11579,0,0.03,-0.00,0.00,0.06,0.00,0.00,0.00,0.05,0.05,0.07,0.07,860,860,880,876
11586,0,0.03,-0.00,0.00,0.06,0.00,0.00,0.00,0.05,0.05,0.07,0.07,860,860,880,876
11593,0,0.03,-0.00,0.00,0.06,0.00,0.00,0.00,0.05,0.05,0.07,0.07,860,860,880,876
11599,0,0.03,-0.00,0.00,0.06,0.00,0.00,0.00,0.05,0.05,0.07,0.07,860,860,880,876
11606,0,0.03,-0.00,0.00,0.06,0.00,0.00,0.00,0.05,0.05,0.07,0.07,860,860,880,876
11613,0,0.03,-0.00,0.00,0.06,0.00,0.00,0.00,0.05,0.05,0.07,0.07,860,860,880,876
11620,0,0.03,-0.00,0.00,0.06,0.00,0.00,0.00,0.05,0.05,0.06,0.06,859,859,879,875
11626,0,0.03,-0.00,0.00,0.06,0.00,0.00,0.00,0.05,0.05,0.07,0.07,860,860,880,876
11637,0,0.03,-0.00,0.00,0.06,0.00,0.00,0.00,0.05,0.05,0.07,0.07,860,860,880,876
11646,0,0.03,-0.00,0.00,0.06,0.00,0.00,0.00,0.05,0.05,0.07,0.07,860,860,880,876
11653,0,0.03,-0.00,0.00,0.06,0.00,0.00,0.00,0.05,0.05,0.07,0.07,860,860,880,876
11659,0,0.03,-0.00,0.00,0.06,0.00,0.00,0.00,0.05,0.05,0.07,0.07,860,860,880,876
11666,0,0.03,-0.00,0.00,0.06,0.00,0.00,0.00,0.05,0.05,0.07,0.07,860,860,880,876
11673,0,0.03,-0.00,0.00,0.06,0.00,0.00,0.00,0.05,0.05,0.07,0.07,860,860,880,876
11681,0,0.03,-0.00,0.00,0.06,0.00,0.00,0.00,0.05,0.05,0.07,0.07,860,860,880,876
11687,0,0.03,-0.00,0.00,0.06,0.00,0.00,0.00,0.05,0.05,0.07,0.07,860,860,880,876
11695,0,0.03,-0.00,0.00,0.06,0.00,0.00,0.00,0.05,0.05,0.07,0.07,860,860,880,876
11701,0,0.03,-0.00,0.00,0.06,0.00,0.00,0.00,0.05,0.05,0.07,0.07,860,860,880,876
11708,0,0.03,-0.00,0.00,0.06,0.00,0.00,0.00,0.05,0.05,0.07,0.07,860,860,880,876
11715,0,0.03,-0.00,0.00,0.06,0.00,0.00,0.00,0.05,0.05,0.07,0.07,860,860,880,876
11723,0,0.03,-0.00,0.00,0.06,0.00,0.00,0.00,0.05,0.05,0.07,0.07,860,860,880,876
11729,0,0.03,-0.00,0.00,0.06,0.00,0.00,0.00,0.05,0.05,0.07,0.07,860,860,880,876
11736,0,0.03,-0.00,0.00,0.06,0.00,0.00,0.00,0.05,0.05,0.07,0.07,860,860,880,876
11744,0,0.03,-0.00,0.00,0.06,0.00,0.00,0.00,0.05,0.05,0.07,0.07,860,860,880,876
11750,0,0.03,-0.00,0.00,0.06,0.00,0.00,0.00,0.05,0.05,0.07,0.07,860,860,880,876
11756,0,0.03,-0.00,0.00,0.06,0.00,0.00,0.00,0.05,0.05,0.07,0.07,860,860,880,876
11764,0,0.03,-0.00,0.00,0.06,0.00,0.00,0.00,0.05,0.05,0.07,0.07,860,860,880,876
11771,0,0.03,-0.00,0.00,0.06,0.00,0.00,0.00,0.05,0.05,0.07,0.07,860,860,880,876
11778,0,0.03,-0.00,0.00,0.06,0.00,0.00,0.00,0.05,0.05,0.07,0.07,860,860,880,876
11785,0,0.03,-0.00,0.00,0.06,0.00,0.00,0.00,0.05,0.05,0.07,0.07,860,860,880,876
11793,0,0.03,-0.00,0.00,0.06,0.00,0.00,0.00,0.05,0.05,0.07,0.07,860,860,880,876
11799,0,0.03,-0.00,0.00,0.06,0.00,0.00,0.00,0.05,0.05,0.07,0.07,860,860,880,876
11806,0,0.03,-0.00,0.00,0.06,0.00,0.00,0.00,0.05,0.05,0.07,0.07,860,860,880,876
11814,0,0.03,-0.00,0.00,0.06,0.00,0.00,0.00,0.05,0.05,0.07,0.07,860,860,880,876
11821,0,0.03,-0.00,0.00,0.06,0.00,0.00,0.00,0.05,0.05,0.07,0.07,860,860,880,876
11828,0,0.03,-0.00,0.00,0.06,0.00,0.00,0.00,0.05,0.05,0.07,0.07,860,860,880,876
11835,0,0.03,-0.00,0.00,0.06,0.00,0.00,0.00,0.05,0.05,0.07,0.07,860,860,880,876
11842,0,0.03,-0.00,0.00,0.06,0.00,0.00,0.00,0.05,0.05,0.07,0.07,860,860,880,876
11849,0,0.03,-0.00,0.00,0.06,0.00,0.00,0.00,0.05,0.05,0.07,0.07,860,860,880,876
11860,0,0.03,-0.00,0.00,0.06,0.00,0.00,0.00,0.05,0.05,0.07,0.07,860,860,880,876
11868,0,0.03,-0.00,0.00,0.06,0.00,0.00,0.00,0.05,0.05,0.07,0.07,860,860,880,876
11875,0,0.03,-0.00,0.00,0.06,0.00,0.00,0.00,0.05,0.05,0.07,0.07,860,860,880,876
11883,0,0.03,-0.00,0.00,0.06,0.00,0.00,0.00,0.05,0.05,0.07,0.07,860,860,880,876
11889,0,0.03,-0.00,0.00,0.06,0.00,0.00,0.00,0.05,0.05,0.07,0.07,860,860,880,876
11896,0,0.03,-0.00,0.00,0.06,0.00,0.00,0.00,0.05,0.05,0.07,0.07,860,860,880,876
11903,0,0.03,-0.00,0.00,0.06,0.00,0.00,0.00,0.05,0.05,0.07,0.07,861,861,881,877
11909,0,0.03,-0.00,0.00,0.06,0.00,0.00,0.00,0.05,0.05,0.07,0.07,861,861,881,877
11916,0,0.03,-0.00,0.00,0.06,0.00,0.00,0.00,0.05,0.05,0.07,0.07,861,861,881,877
11924,0,0.03,-0.00,0.00,0.06,0.00,0.00,0.00,0.05,0.05,0.07,0.07,861,861,881,877
11930,0,0.03,-0.00,0.00,0.06,0.00,0.00,0.00,0.05,0.05,0.07,0.07,861,861,881,877
11937,0,0.03,-0.00,0.00,0.06,0.00,0.00,0.00,0.05,0.05,0.07,0.07,861,861,881,877
11944,0,0.03,-0.00,0.00,0.06,0.00,0.00,0.00,0.05,0.05,0.07,0.07,861,861,881,877
11950,0,0.03,-0.00,0.00,0.06,0.00,0.00,0.00,0.05,0.05,0.07,0.07,863,863,883,879
11957,0,0.03,-0.00,0.00,0.06,0.00,0.00,0.00,0.05,0.05,0.07,0.07,863,863,883,879
11964,0,0.03,-0.00,0.00,0.06,0.00,0.00,0.00,0.05,0.05,0.07,0.07,863,863,883,879
11971,0,0.03,-0.00,0.00,0.06,0.00,0.00,0.00,0.05,0.05,0.07,0.07,863,863,883,879
11978,0,0.03,-0.00,0.00,0.06,0.00,0.00,0.00,0.05,0.05,0.07,0.07,864,864,884,879
11985,0,0.03,-0.00,0.00,0.06,0.00,0.00,0.00,0.05,0.05,0.07,0.07,864,864,884,879
11993,0,0.03,-0.00,0.00,0.06,0.00,0.00,0.00,0.05,0.05,0.07,0.07,864,864,884,879
11999,0,0.03,-0.00,0.00,0.06,0.00,0.00,0.00,0.05,0.05,0.07,0.07,864,864,884,879
12006,0,0.03,-0.00,0.00,0.06,0.00,0.00,0.00,0.05,0.05,0.07,0.07,864,864,884,879
12014,0,0.03,-0.00,0.00,0.06,0.00,0.00,0.00,0.05,0.05,0.07,0.07,864,864,884,879
12021,0,0.03,-0.00,0.00,0.06,0.00,0.00,0.00,0.05,0.05,0.07,0.07,864,864,884,879
12027,0,0.03,-0.00,0.00,0.06,0.00,0.00,0.00,0.05,0.05,0.07,0.07,864,864,884,879
12035,0,0.03,-0.00,0.00,0.06,0.00,0.00,0.00,0.05,0.05,0.07,0.07,864,864,884,879
12042,0,0.03,-0.00,0.00,0.06,0.00,0.00,0.00,0.05,0.05,0.07,0.07,864,864,884,879
12049,0,0.03,-0.00,0.00,0.06,0.00,0.00,0.00,0.05,0.05,0.07,0.07,864,864,884,879
12056,0,0.03,-0.00,0.00,0.06,0.00,0.00,0.00,0.05,0.05,0.07,0.07,864,864,884,879
12063,0,0.03,-0.00,0.00,0.06,0.00,0.00,0.00,0.05,0.05,0.07,0.07,864,864,884,879
12070,0,0.03,-0.00,0.00,0.06,0.00,0.00,0.00,0.06,0.06,0.07,0.07,864,864,884,880
12079,0,0.03,-0.00,0.00,0.06,0.00,0.00,0.00,0.06,0.06,0.07,0.07,865,865,885,881
12086,0,0.03,-0.00,0.00,0.06,0.00,0.00,0.00,0.06,0.06,0.07,0.07,865,865,885,881
12094,0,0.03,-0.00,0.00,0.06,0.00,0.00,0.00,0.06,0.06,0.07,0.07,865,865,885,881
12100,0,0.03,-0.00,0.00,0.06,0.00,0.00,0.00,0.06,0.06,0.07,0.07,865,865,885,881
12107,0,0.03,-0.00,0.00,0.06,0.00,0.00,0.00,0.06,0.06,0.07,0.07,865,865,885,881
12114,0,0.03,-0.00,0.00,0.06,0.00,0.00,0.00,0.06,0.06,0.07,0.07,865,865,885,881
12122,0,0.03,-0.00,0.00,0.06,0.00,0.00,0.00,0.06,0.06,0.07,0.07,865,865,885,881
12128,0,0.03,-0.00,0.00,0.06,0.00,0.00,0.00,0.06,0.06,0.07,0.07,865,865,885,881
12136,0,0.03,-0.00,0.00,0.07,0.00,0.00,0.00,0.06,0.06,0.07,0.07,867,867,887,883
12143,0,0.03,-0.00,0.00,0.07,0.00,0.00,0.00,0.06,0.06,0.07,0.07,867,867,887,883
