t,is_crashed,roll,pitch,yaw,p,q,r,throttle,p_cmd,q_cmd,r_cmd,roll_cmd,pitch_cmd,yaw_cmd,roll_pid_out,pitch_pid_out,yaw_pid_out,motor_fl,motor_bl,motor_fr,motor_br,pwm_fl,pwm_bl,pwm_fr,pwm_br
7075,0,1.937500,1.687500,0.000000,0.00,0.00,-0.002073,0.005000,-0.096941,-0.115906,0.000000,0.000000,0.039999,0.000000,0.001003,-0.002021,0.000021,0.000000,0.000000,0.000000,0.000000,0,0,0,0
7092,0,0.000000,0.000000,0.000000,-5.70,-4.96,-0.001140,0.005000,-0.005765,-0.002727,0.000000,0.000000,0.039999,0.000000,-0.057097,0.084503,0.000011,0.000000,0.000000,0.000000,0.000000,819,819,819,819
7103,0,0.000000,0.000000,0.000000,0.00,0.00,-0.000057,0.005000,0.000001,0.002816,0.000000,0.000000,0.039999,0.000000,-0.000009,0.000030,0.000000,0.000000,0.000000,0.000000,0.000000,819,819,819,819
7114,0,0.000000,0.000000,0.000000,0.00,-0.00,-0.001039,0.005000,0.000002,0.002813,0.000000,0.000000,0.039999,0.000000,0.000000,0.000083,0.000010,0.000000,0.000000,0.000000,0.000000,819,819,819,819
7125,0,0.000000,0.000000,0.000000,0.00,0.00,-0.001088,0.005000,0.000000,0.002814,0.000000,0.000000,0.039999,0.000000,-0.000020,0.000065,0.000011,0.000000,0.000000,0.000000,0.000000,819,819,819,819
7135,0,0.000000,0.000000,0.000000,0.00,0.00,-0.000054,0.005000,0.000002,0.002814,0.000000,0.000000,0.039999,0.000000,0.000000,0.000065,0.000000,0.000000,0.000000,0.000000,0.000000,819,819,819,819
7146,0,0.000000,0.000000,0.000000,0.00,0.00,-0.001039,0.005000,0.000000,0.002814,0.000000,0.000000,0.039999,0.000000,-0.000020,0.000065,0.000010,0.000000,0.000000,0.000000,0.000000,819,819,819,819
7156,0,0.000000,0.000000,0.000000,-0.00,0.00,-0.000052,0.005000,-0.000001,0.002816,0.000000,0.000000,0.039999,0.000000,-0.000030,0.000030,0.000000,0.000000,0.000000,0.000000,0.000000,819,819,819,819
7166,0,0.000000,0.000000,0.000000,0.00,0.00,-0.001039,0.005000,0.000001,0.002814,0.000000,0.000000,0.039999,0.000000,-0.000009,0.000065,0.000010,0.000000,0.000000,0.000000,0.000000,819,819,819,819
7176,0,0.000000,0.000000,0.000000,0.00,0.00,-0.001088,0.005000,0.000000,0.002814,0.000000,0.000000,0.039999,0.000000,-0.000020,0.000065,0.000011,0.000000,0.000000,0.000000,0.000000,819,819,819,819
7186,0,0.000000,0.000000,0.000000,0.00,0.00,-0.001091,0.005000,0.000000,0.002814,0.000000,0.000000,0.039999,0.000000,-0.000020,0.000065,0.000011,0.000000,0.000000,0.000000,0.000000,819,819,819,819
7196,0,0.000000,0.000000,0.000000,0.00,-0.00,-0.002127,0.005000,0.000001,0.002812,0.000000,0.000000,0.039999,0.000000,-0.000009,0.000101,0.000021,0.000000,0.000000,0.000000,0.000000,819,819,819,819
7206,0,0.000000,0.000000,0.000000,0.00,-0.00,-0.001143,0.005000,0.000000,0.002813,0.000000,0.000000,0.039999,0.000000,-0.000020,0.000083,0.000012,0.000000,0.000000,0.000000,0.000000,819,819,819,819
7216,0,0.000000,0.000000,0.000000,0.00,-0.00,0.000979,0.005000,0.000000,0.002812,0.000000,0.000000,0.039999,0.000000,-0.000020,0.000101,-0.000010,0.000000,0.000000,0.000000,0.000000,819,819,819,819
7226,0,0.000000,0.000000,0.000000,0.00,-0.00,0.001085,0.005000,0.000000,0.002813,0.000000,0.000000,0.039999,0.000000,-0.000020,0.000083,-0.000011,0.000000,0.000000,0.000000,0.000000,819,819,819,819
7236,0,0.000000,0.000000,0.000000,0.00,0.00,0.002127,0.005000,0.000001,0.002814,0.000000,0.000000,0.039999,0.000000,-0.000009,0.000066,-0.000021,0.000000,0.000000,0.000000,0.000000,819,819,819,819
7246,0,0.000000,0.000000,0.000000,0.00,0.00,-0.000930,0.005000,0.000000,0.002815,0.000000,0.000000,0.039999,0.000000,-0.000020,0.000048,0.000009,0.000000,0.000000,0.000000,0.000000,819,819,819,819
7256,0,0.000000,0.000000,0.000000,-0.00,-0.00,-0.000046,0.005000,-0.000001,0.002812,0.000000,0.000000,0.039999,0.000000,-0.000030,0.000101,0.000000,0.000000,0.000000,0.000000,0.000000,819,819,819,819
7266,0,0.000000,0.000000,0.000000,-0.00,-0.00,0.001034,0.005000,-0.000002,0.002813,0.000000,0.000000,0.039999,0.000000,-0.000041,0.000083,-0.000010,0.000000,0.000000,0.000000,0.000000,819,819,819,819
7276,0,0.000000,0.000000,0.000000,-0.00,-0.00,0.002124,0.005000,-0.000001,0.002813,0.000000,0.000000,0.039999,0.000000,-0.000030,0.000083,-0.000021,0.000000,0.000000,0.000000,0.000000,819,819,819,819
7286,0,0.000000,0.000000,0.000000,0.00,0.00,0.001143,0.005000,0.000000,0.002815,0.000000,0.000000,0.039999,0.000000,-0.000020,0.000066,-0.000011,0.000000,0.000000,0.000000,0.000000,819,819,819,819
7296,0,0.000000,0.000000,0.000000,-0.00,0.00,0.003166,0.005000,-0.000002,0.002816,0.000000,0.000000,0.039999,0.000000,-0.000041,0.000048,-0.000032,0.000000,0.000000,0.000000,0.000000,819,819,819,819
7306,0,0.000000,0.000000,0.000000,0.00,-0.00,0.000158,0.005000,0.000001,0.002814,0.000000,0.000000,0.039999,0.000000,-0.000009,0.000083,-0.000002,0.000000,0.000000,0.000000,0.000000,819,819,819,819
7316,0,0.000000,0.000000,0.000000,0.00,-0.00,0.001044,0.005000,0.000000,0.002811,0.000000,0.000000,0.039999,0.000000,-0.000020,0.000119,-0.000010,0.000000,0.000000,0.000000,0.000000,819,819,819,819
7326,0,0.000000,0.000000,0.000000,-0.00,-0.00,-0.000984,0.005000,-0.000001,0.002812,0.000000,0.000000,0.039999,0.000000,-0.000030,0.000119,0.000010,0.000000,0.000000,0.000000,0.000000,819,819,819,819
7341,0,0.000000,0.000000,0.000000,0.00,0.00,0.000987,0.005000,0.000001,0.002817,0.000000,0.000000,0.039999,0.000000,-0.000009,0.000030,-0.000010,0.000000,0.000000,0.000000,0.000000,819,819,819,819
7355,0,0.000000,0.000000,0.000000,0.00,-0.00,0.001086,0.005000,0.000000,0.002811,0.000000,0.000000,0.039999,0.000000,-0.000020,0.000136,-0.000011,0.000000,0.000000,0.000000,0.000000,819,819,819,819
7366,0,0.000000,0.000000,0.000000,0.00,0.00,-0.003055,0.005000,0.000000,0.002816,0.000000,0.000000,0.039999,0.000000,-0.000020,0.000048,0.000031,0.000000,0.000000,0.000000,0.000000,819,819,819,819
7376,0,0.000000,0.000000,0.000000,-0.00,0.00,-0.010516,0.005000,-0.000003,0.002818,0.000000,0.000000,0.039999,0.000000,-0.000051,0.000013,0.000105,0.000000,0.000000,0.000000,0.000000,819,819,819,819
7386,0,0.000000,0.000000,0.000000,0.00,0.00,-0.004671,0.005000,0.000000,0.002815,0.000000,0.000000,0.039999,0.000000,-0.000020,0.000066,0.000047,0.000000,0.000000,0.000000,0.000000,819,819,819,819
7396,0,0.000000,0.000000,0.000000,-0.00,-0.00,-0.004379,0.005000,-0.000001,0.002814,0.000000,0.000000,0.039999,0.000000,-0.000030,0.000083,0.000044,0.000000,0.000000,0.000000,0.000000,819,819,819,819
7406,0,0.000000,0.000000,0.000000,0.00,0.00,0.008071,0.005000,0.000000,0.002816,0.000000,0.000000,0.039999,0.000000,-0.000020,0.000048,-0.000081,0.000000,0.000000,0.000000,0.000000,819,819,819,819
7416,0,0.000000,0.000000,0.000000,0.00,0.00,0.008694,0.005000,0.000000,0.002816,0.000000,0.000000,0.039999,0.000000,-0.000020,0.000048,-0.000087,0.000000,0.000000,0.000000,0.000000,819,819,819,819
7426,0,0.000000,0.000000,0.000000,0.00,0.00,0.003544,0.005000,0.000001,0.002815,0.000000,0.000000,0.039999,0.000000,-0.000009,0.000066,-0.000036,0.000000,0.000000,0.000000,0.000000,819,819,819,819
7436,0,0.000000,0.000000,0.000000,0.00,0.00,0.003286,0.005000,0.000000,0.002816,0.000000,0.000000,0.039999,0.000000,-0.000020,0.000048,-0.000033,0.000000,0.000000,0.000000,0.000000,819,819,819,819
7446,0,0.000000,0.000000,0.000000,-0.00,0.00,-0.005017,0.005000,-0.000001,0.002816,0.000000,0.000000,0.039999,0.000000,-0.000030,0.000048,0.000050,0.000000,0.000000,0.000000,0.000000,819,819,819,819
7456,0,0.000000,0.000000,0.000000,0.00,-0.00,0.021511,0.005000,0.000001,0.002809,0.000000,0.000000,0.039999,0.000000,-0.000009,0.000172,-0.000216,0.000000,0.000000,0.000000,0.000000,819,819,819,819
7466,0,0.000000,0.000000,0.000000,0.00,-0.00,0.022838,0.005000,0.000001,0.002809,0.000000,0.000000,0.039999,0.000000,-0.000009,0.000172,-0.000229,0.000000,0.000000,0.000000,0.000000,819,819,819,819
7476,0,0.000000,0.000000,0.000000,-0.00,0.00,-0.005076,0.005000,-0.000001,0.002819,0.000000,0.000000,0.039999,0.000000,-0.000030,-0.000005,0.000051,0.000000,0.000000,0.000000,0.000000,819,819,819,819
7486,0,-0.062500,0.000000,0.000000,-0.31,-0.00,0.010109,0.005000,0.002816,0.002812,0.000000,0.000000,0.039999,0.000000,-0.003172,0.000119,-0.000102,0.000000,0.000000,0.000000,0.000000,819,819,819,819
7496,0,-0.062500,0.000000,0.000000,0.00,-0.00,0.021231,0.005000,0.003128,0.002811,0.000000,0.000000,0.039999,0.000000,-0.000042,0.000136,-0.000213,0.000000,0.000000,0.000000,0.000000,819,819,819,819
7506,0,-0.062500,0.000000,0.000000,0.00,-0.00,0.015570,0.005000,0.003127,0.002807,0.000000,0.000000,0.039999,0.000000,-0.000053,0.000207,-0.000156,0.000000,0.000000,0.000000,0.000000,819,819,819,819
7516,0,-0.062500,0.000000,0.000000,-0.00,0.00,-0.006476,0.005000,0.003125,0.002821,0.000000,0.000000,0.039999,0.000000,-0.000073,-0.000040,0.000065,0.000000,0.000000,0.000000,0.000000,819,819,819,819
7526,0,-0.062500,0.000000,0.000000,0.00,0.01,-0.011723,0.005000,0.003127,0.002826,0.000000,0.000000,0.039999,0.000000,-0.000053,-0.000128,0.000117,0.000000,0.000000,0.000000,0.000000,819,819,819,819
7536,0,-0.062500,0.000000,0.000000,0.00,-0.00,0.020140,0.005000,0.003128,0.002809,0.000000,0.000000,0.039999,0.000000,-0.000042,0.000172,-0.000202,0.000000,0.000000,0.000000,0.000000,819,819,819,819
7547,0,-0.062500,0.000000,0.000000,-0.00,-0.00,0.005152,0.005000,0.003126,0.002807,0.000000,0.000000,0.039999,0.000000,-0.000063,0.000207,-0.000052,0.000000,0.000000,0.000000,0.000000,819,819,819,819
7557,0,-0.062500,0.000000,0.000000,-0.00,0.01,-0.022541,0.005000,0.003126,0.002826,0.000000,0.000000,0.039999,0.000000,-0.000063,-0.000128,0.000226,0.000000,0.000000,0.000000,0.000000,819,819,819,819
7567,0,-0.062500,0.000000,0.000000,-0.00,-0.00,0.007163,0.005000,0.003126,0.002814,0.000000,0.000000,0.039999,0.000000,-0.000063,0.000084,-0.000072,0.000000,0.000000,0.000000,0.000000,819,819,819,819
7577,0,-0.062500,0.000000,0.000000,0.00,-0.00,0.005540,0.005000,0.003127,0.002812,0.000000,0.000000,0.039999,0.000000,-0.000053,0.000119,-0.000056,0.000000,0.000000,0.000000,0.000000,819,819,819,819
7587,0,-0.062500,0.000000,0.000000,-0.00,0.00,-0.012158,0.005000,0.003126,0.002821,0.000000,0.000000,0.039999,0.000000,-0.000063,-0.000040,0.000122,0.000000,0.000000,0.000000,0.000000,819,819,819,819
7597,0,-0.062500,0.000000,0.000000,0.00,-0.00,0.014936,0.005000,0.003128,0.002812,0.000000,0.000000,0.039999,0.000000,-0.000042,0.000119,-0.000150,0.000000,0.000000,0.000000,0.000000,819,819,819,819
7607,0,-0.062500,0.000000,0.000000,0.00,-0.00,0.019400,0.005000,0.003127,0.002807,0.000000,0.000000,0.039999,0.000000,-0.000053,0.000207,-0.000195,0.000000,0.000000,0.000000,0.000000,819,819,819,819
7617,0,-0.062500,0.000000,0.000000,-0.00,0.00,-0.021828,0.005000,0.003125,0.002821,0.000000,0.000000,0.039999,0.000000,-0.000074,-0.000040,0.000219,0.000000,0.000000,0.000000,0.000000,819,819,819,819
7627,0,-0.062500,0.000000,0.000000,-0.00,-0.00,-0.013527,0.005000,0.003126,0.002812,0.000000,0.000000,0.039999,0.000000,-0.000063,0.000119,0.000135,0.000000,0.000000,0.000000,0.000000,819,819,819,819
7637,0,-0.062500,0.000000,0.000000,0.00,-0.00,0.019013,0.005000,0.003129,0.002807,0.000000,0.000000,0.039999,0.000000,-0.000032,0.000207,-0.000191,0.000000,0.000000,0.000000,0.000000,819,819,819,819
7647,0,-0.062500,0.000000,0.000000,0.00,-0.00,0.008205,0.005000,0.003127,0.002811,0.000000,0.000000,0.039999,0.000000,-0.000053,0.000137,-0.000083,0.000000,0.000000,0.000000,0.000000,819,819,819,819
7662,0,-0.062500,0.000000,0.000000,0.00,0.00,0.003519,0.005000,0.003128,0.002815,0.000000,0.000000,0.039999,0.000000,-0.000043,0.000066,-0.000036,0.000000,0.000000,0.000000,0.000000,819,819,819,819
7676,0,-0.062500,0.000000,0.000000,0.00,0.00,0.000176,0.005000,0.003128,0.002819,0.000000,0.000000,0.039999,0.000000,-0.000043,-0.000004,-0.000002,0.000000,0.000000,0.000000,0.000000,819,819,819,819
7687,0,-0.062500,0.000000,0.000000,-0.00,0.00,-0.007245,0.005000,0.003125,0.002824,0.000000,0.000000,0.039999,0.000000,-0.000074,-0.000075,0.000072,0.000000,0.000000,0.000000,0.000000,819,819,819,819
7697,0,-0.062500,0.000000,0.000000,0.00,-0.00,-0.003471,0.005000,0.003127,0.002814,0.000000,0.000000,0.039999,0.000000,-0.000053,0.000084,0.000034,0.000000,0.000000,0.000000,0.000000,819,819,819,819
7707,0,-0.062500,0.000000,0.000000,0.00,-0.00,0.010189,0.005000,0.003127,0.002809,0.000000,0.000000,0.039999,0.000000,-0.000053,0.000172,-0.000103,0.000000,0.000000,0.000000,0.000000,819,819,819,819
7717,0,-0.062500,0.000000,0.000000,0.00,-0.01,0.015018,0.005000,0.003128,0.002802,0.000000,0.000000,0.039999,0.000000,-0.000043,0.000295,-0.000151,0.000000,0.000000,0.000000,0.000000,819,819,819,819
7727,0,-0.062500,0.000000,0.000000,-0.00,0.00,-0.016866,0.005000,0.003124,0.002820,0.000000,0.000000,0.039999,0.000000,-0.000084,-0.000004,0.000169,0.000000,0.000000,0.000000,0.000000,819,819,819,819
7737,0,-0.062500,0.000000,0.000000,0.00,0.01,-0.013279,0.005000,0.003127,0.002826,0.000000,0.000000,0.039999,0.000000,-0.000053,-0.000110,0.000133,0.000000,0.000000,0.000000,0.000000,819,819,819,819
7747,0,-0.062500,0.000000,0.000000,-0.00,0.00,0.001409,0.005000,0.003125,0.002822,0.000000,0.000000,0.039999,0.000000,-0.000074,-0.000040,-0.000014,0.000000,0.000000,0.000000,0.000000,819,819,819,819
7757,0,-0.062500,0.000000,0.000000,0.00,0.00,0.008361,0.005000,0.003128,0.002819,0.000000,0.000000,0.039999,0.000000,-0.000043,0.000013,-0.000084,0.000000,0.000000,0.000000,0.000000,819,819,819,819
7767,0,-0.062500,0.000000,0.000000,0.00,-0.00,-0.000618,0.005000,0.003127,0.002813,0.000000,0.000000,0.039999,0.000000,-0.000053,0.000101,0.000006,0.000000,0.000000,0.000000,0.000000,819,819,819,819
7777,0,-0.062500,0.000000,0.000000,0.00,-0.00,0.001005,0.005000,0.003127,0.002814,0.000000,0.000000,0.039999,0.000000,-0.000053,0.000084,-0.000010,0.000000,0.000000,0.000000,0.000000,819,819,819,819
7787,0,-0.062500,0.000000,0.000000,-0.00,-0.00,0.005232,0.005000,0.003126,0.002813,0.000000,0.000000,0.039999,0.000000,-0.000063,0.000101,-0.000053,0.000000,0.000000,0.000000,0.000000,819,819,819,819
7797,0,-0.062500,0.000000,0.000000,-0.00,0.00,-0.001811,0.005000,0.003124,0.002819,0.000000,0.000000,0.039999,0.000000,-0.000084,0.000013,0.000018,0.000000,0.000000,0.000000,0.000000,819,819,819,819
7807,0,-0.062500,0.000000,0.000000,0.00,0.00,0.005091,0.005000,0.003130,0.002823,0.000000,0.000000,0.039999,0.000000,-0.000032,-0.000057,-0.000051,0.000000,0.000000,0.000000,0.000000,819,819,819,819
7817,0,-0.062500,0.000000,0.000000,0.00,0.00,0.007509,0.005000,0.003127,0.002820,0.000000,0.000000,0.039999,0.000000,-0.000053,-0.000004,-0.000076,0.000000,0.000000,0.000000,0.000000,819,819,819,819
7827,0,-0.062500,0.000000,0.000000,0.00,-0.01,0.033537,0.005000,0.003128,0.002801,0.000000,0.000000,0.039999,0.000000,-0.000043,0.000313,-0.000337,0.000000,0.000000,0.000000,0.000000,819,819,819,819
7837,0,-0.062500,0.000000,0.000000,0.00,0.00,0.003749,0.005000,0.003130,0.002816,0.000000,0.000000,0.039999,0.000000,-0.000032,0.000066,-0.000038,0.000000,0.000000,0.000000,0.000000,819,819,819,819
7847,0,-0.062500,0.000000,0.000000,0.00,0.00,-0.002921,0.005000,0.003127,0.002819,0.000000,0.000000,0.039999,0.000000,-0.000053,0.000013,0.000029,0.000000,0.000000,0.000000,0.000000,819,819,819,819
7857,0,-0.062500,0.000000,0.000000,0.00,0.00,0.009181,0.005000,0.003127,0.002818,0.000000,0.000000,0.039999,0.000000,-0.000053,0.000031,-0.000093,0.000000,0.000000,0.000000,0.000000,819,819,819,819
7867,0,-0.062500,0.000000,0.000000,0.00,-0.00,0.003568,0.005000,0.003127,0.002815,0.000000,0.000000,0.039999,0.000000,-0.000053,0.000084,-0.000036,0.000000,0.000000,0.000000,0.000000,819,819,819,819
7877,0,-0.062500,0.000000,0.000000,0.00,0.00,0.004324,0.005000,0.003128,0.002819,0.000000,0.000000,0.039999,0.000000,-0.000043,0.000013,-0.000044,0.000000,0.000000,0.000000,0.000000,819,819,819,819
7887,0,-0.062500,0.000000,0.000000,0.00,0.00,0.003325,0.005000,0.003127,0.002818,0.000000,0.000000,0.039999,0.000000,-0.000053,0.000031,-0.000034,0.000000,0.000000,0.000000,0.000000,819,819,819,819
7899,0,-0.062500,0.000000,0.000000,0.00,0.00,0.000166,0.005000,0.003127,0.002816,0.000000,0.000000,0.039999,0.000000,-0.000053,0.000066,-0.000002,0.000000,0.000000,0.000000,0.000000,819,819,819,819
7909,0,-0.062500,0.000000,0.000000,-0.00,0.00,0.000008,0.005000,0.003126,0.002816,0.000000,0.000000,0.039999,0.000000,-0.000064,0.000066,-0.000000,0.000000,0.000000,0.000000,0.000000,819,819,819,819
7919,0,-0.062500,0.000000,0.000000,0.00,0.00,-0.001036,0.005000,0.003129,0.002819,0.000000,0.000000,0.039999,0.000000,-0.000043,0.000013,0.000010,0.000000,0.000000,0.000000,0.000000,819,819,819,819
7934,0,-0.062500,0.000000,0.000000,-0.00,-0.00,-0.000052,0.005000,0.003125,0.002815,0.000000,0.000000,0.039999,0.000000,-0.000074,0.000084,-0.000000,0.000000,0.000000,0.000000,0.000000,819,819,819,819
7946,0,-0.062500,0.000000,0.000000,0.00,0.00,-0.000003,0.005000,0.003127,0.002818,0.000000,0.000000,0.039999,0.000000,-0.000053,0.000031,-0.000000,0.000000,0.000000,0.000000,0.000000,819,819,819,819
7957,0,-0.062500,0.000000,0.000000,0.00,-0.00,0.002072,0.005000,0.003127,0.002815,0.000000,0.000000,0.039999,0.000000,-0.000053,0.000084,-0.000021,0.000000,0.000000,0.000000,0.000000,819,819,819,819
7967,0,-0.062500,0.000000,0.000000,-0.00,0.00,0.001140,0.005000,0.003125,0.002817,0.000000,0.000000,0.039999,0.000000,-0.000074,0.000049,-0.000012,0.000000,0.000000,0.000000,0.000000,819,819,819,819
7984,0,-0.062500,0.000000,0.000000,-0.00,0.00,0.000057,0.005000,0.003126,0.002817,0.000000,0.000000,0.039999,0.000000,-0.000064,0.000049,-0.000001,0.000000,0.000000,0.000000,0.000000,819,819,819,819
7997,0,-0.062500,0.000000,0.000000,-0.00,0.00,0.000003,0.005000,0.003126,0.002817,0.000000,0.000000,0.039999,0.000000,-0.000064,0.000049,-0.000000,0.000000,0.000000,0.000000,0.000000,819,819,819,819
8010,0,-0.062500,0.000000,0.000000,-0.00,-0.00,0.001036,0.005000,0.003125,0.002812,0.000000,0.000000,0.039999,0.000000,-0.000074,0.000137,-0.000011,0.000000,0.000000,0.000000,0.000000,819,819,819,819
8021,0,-0.062500,0.000000,0.000000,0.00,0.00,0.001088,0.005000,0.003130,0.002816,0.000000,0.000000,0.039999,0.000000,-0.000033,0.000066,-0.000012,0.000000,0.000000,0.000000,0.000000,819,819,819,819
8034,0,-0.062500,0.000000,0.000000,0.00,-0.00,0.002127,0.005000,0.003129,0.002815,0.000000,0.000000,0.039999,0.000000,-0.000043,0.000084,-0.000022,0.000000,0.000000,0.000000,0.000000,819,819,819,819
8046,0,-0.062500,0.000000,0.000000,0.00,0.00,0.001143,0.005000,0.003129,0.002819,0.000000,0.000000,0.039999,0.000000,-0.000043,0.000014,-0.000012,0.000000,0.000000,0.000000,0.000000,819,819,819,819
8057,0,-0.062500,0.000000,0.000000,0.00,0.00,-0.000979,0.005000,0.003128,0.002817,0.000000,0.000000,0.039999,0.000000,-0.000053,0.000049,0.000009,0.000000,0.000000,0.000000,0.000000,819,819,819,819
8070,0,-0.062500,0.000000,0.000000,-0.00,0.00,0.000987,0.005000,0.003126,0.002818,0.000000,0.000000,0.039999,0.000000,-0.000064,0.000031,-0.000011,0.000000,0.000000,0.000000,0.000000,819,819,819,819
8080,0,-0.062500,0.000000,0.000000,0.00,0.00,-0.000987,0.005000,0.003129,0.002816,0.000000,0.000000,0.039999,0.000000,-0.000043,0.000066,0.000009,0.000000,0.000000,0.000000,0.000000,819,819,819,819
8090,0,-0.062500,0.000000,0.000000,-0.00,0.00,-0.000049,0.005000,0.003125,0.002816,0.000000,0.000000,0.039999,0.000000,-0.000074,0.000066,-0.000000,0.000000,0.000000,0.000000,0.000000,819,819,819,819
8100,0,-0.062500,0.000000,0.000000,0.00,-0.00,0.004143,0.005000,0.003128,0.002815,0.000000,0.000000,0.039999,0.000000,-0.000053,0.000084,-0.000042,0.000000,0.000000,0.000000,0.000000,819,819,819,819
8111,0,-0.062500,0.000000,0.000000,0.00,0.00,0.000207,0.005000,0.003129,0.002818,0.000000,0.000000,0.039999,0.000000,-0.000043,0.000031,-0.000003,0.000000,0.000000,0.000000,0.000000,819,819,819,819
8120,0,-0.062500,0.000000,0.000000,-0.00,-0.00,0.001047,0.005000,0.003127,0.002814,0.000000,0.000000,0.039999,0.000000,-0.000064,0.000102,-0.000011,0.000000,0.000000,0.000000,0.000000,819,819,819,819
8130,0,-0.062500,0.000000,0.000000,-0.00,0.00,0.000052,0.005000,0.003127,0.002816,0.000000,0.000000,0.039999,0.000000,-0.000064,0.000066,-0.000001,0.000000,0.000000,0.000000,0.000000,819,819,819,819
8140,0,-0.062500,0.000000,0.000000,-0.00,0.00,-0.002070,0.005000,0.003125,0.002818,0.000000,0.000000,0.039999,0.000000,-0.000074,0.000031,0.000020,0.000000,0.000000,0.000000,0.000000,819,819,819,819
8150,0,-0.062500,0.000000,0.000000,0.00,-0.00,-0.002176,0.005000,0.003128,0.002815,0.000000,0.000000,0.039999,0.000000,-0.000053,0.000084,0.000021,0.000000,0.000000,0.000000,0.000000,819,819,819,819
8160,0,-0.062500,0.000000,0.000000,0.00,-0.00,-0.000109,0.005000,0.003129,0.002814,0.000000,0.000000,0.039999,0.000000,-0.000043,0.000102,0.000000,0.000000,0.000000,0.000000,0.000000,819,819,819,819
8169,0,-0.062500,0.000000,0.000000,-0.00,-0.00,0.002067,0.005000,0.003127,0.002815,0.000000,0.000000,0.039999,0.000000,-0.000064,0.000084,-0.000021,0.000000,0.000000,0.000000,0.000000,819,819,819,819
8179,0,-0.062500,0.000000,0.000000,0.00,-0.00,0.001140,0.005000,0.003129,0.002814,0.000000,0.000000,0.039999,0.000000,-0.000043,0.000102,-0.000012,0.000000,0.000000,0.000000,0.000000,819,819,819,819
8189,0,-0.062500,0.000000,0.000000,-0.00,0.00,0.001093,0.005000,0.003127,0.002818,0.000000,0.000000,0.039999,0.000000,-0.000064,0.000031,-0.000012,0.000000,0.000000,0.000000,0.000000,819,819,819,819
8198,0,-0.062500,0.000000,0.000000,-0.00,0.00,0.001091,0.005000,0.003127,0.002819,0.000000,0.000000,0.039999,0.000000,-0.000064,0.000014,-0.000012,0.000000,0.000000,0.000000,0.000000,819,819,819,819
8208,0,-0.062500,0.000000,0.000000,0.00,0.00,0.001091,0.005000,0.003129,0.002816,0.000000,0.000000,0.039999,0.000000,-0.000043,0.000067,-0.000012,0.000000,0.000000,0.000000,0.000000,819,819,819,819
8218,0,-0.062500,0.000000,0.000000,0.00,-0.00,0.001091,0.005000,0.003128,0.002815,0.000000,0.000000,0.039999,0.000000,-0.000054,0.000084,-0.000012,0.000000,0.000000,0.000000,0.000000,819,819,819,819
8228,0,-0.062500,0.000000,0.000000,0.00,0.00,0.000055,0.005000,0.003130,0.002817,0.000000,0.000000,0.039999,0.000000,-0.000033,0.000049,-0.000001,0.000000,0.000000,0.000000,0.000000,819,819,819,819
8238,0,-0.062500,0.000000,0.000000,0.00,0.00,0.003112,0.005000,0.003128,0.002820,0.000000,0.000000,0.039999,0.000000,-0.000054,0.000014,-0.000032,0.000000,0.000000,0.000000,0.000000,819,819,819,819
8248,0,-0.062500,0.000000,0.000000,-0.00,0.00,0.000156,0.005000,0.003127,0.002820,0.000000,0.000000,0.039999,0.000000,-0.000064,0.000014,-0.000002,0.000000,0.000000,0.000000,0.000000,819,819,819,819
8258,0,-0.062500,0.000000,0.000000,0.00,-0.00,0.001044,0.005000,0.003129,0.002813,0.000000,0.000000,0.039999,0.000000,-0.000043,0.000119,-0.000011,0.000000,0.000000,0.000000,0.000000,819,819,819,819
8268,0,-0.062500,0.000000,0.000000,-0.00,0.00,-0.000984,0.005000,0.003127,0.002817,0.000000,0.000000,0.039999,0.000000,-0.000064,0.000067,0.000009,0.000000,0.000000,0.000000,0.000000,819,819,819,819
8278,0,-0.062500,0.000000,0.000000,0.00,-0.00,0.000987,0.005000,0.003128,0.002813,0.000000,0.000000,0.039999,0.000000,-0.000054,0.000120,-0.000011,0.000000,0.000000,0.000000,0.000000,819,819,819,819
8288,0,-0.062500,0.000000,0.000000,0.00,0.00,0.001086,0.005000,0.003128,0.002817,0.000000,0.000000,0.039999,0.000000,-0.000054,0.000067,-0.000012,0.000000,0.000000,0.000000,0.000000,819,819,819,819
8298,0,-0.062500,0.000000,0.000000,-0.00,-0.00,0.001091,0.005000,0.003127,0.002816,0.000000,0.000000,0.039999,0.000000,-0.000064,0.000084,-0.000012,0.000000,0.000000,0.000000,0.000000,819,819,819,819
8315,0,-0.062500,0.000000,0.000000,0.00,-0.00,0.000055,0.005000,0.003130,0.002816,0.000000,0.000000,0.039999,0.000000,-0.000033,0.000084,-0.000001,0.000000,0.000000,0.000000,0.000000,819,819,819,819
8328,0,-0.062500,0.000000,0.000000,0.00,0.00,-0.001034,0.005000,0.003128,0.002817,0.000000,0.000000,0.039999,0.000000,-0.000054,0.000067,0.000010,0.000000,0.000000,0.000000,0.000000,819,819,819,819
8339,0,-0.062500,0.000000,0.000000,-0.00,-0.00,0.000985,0.005000,0.003127,0.002816,0.000000,0.000000,0.039999,0.000000,-0.000064,0.000084,-0.000011,0.000000,0.000000,0.000000,0.000000,819,819,819,819
8349,0,-0.062500,0.000000,0.000000,0.00,-0.00,0.001086,0.005000,0.003128,0.002815,0.000000,0.000000,0.039999,0.000000,-0.000054,0.000102,-0.000012,0.000000,0.000000,0.000000,0.000000,819,819,819,819
8359,0,-0.062500,0.000000,0.000000,-0.00,0.00,0.000054,0.005000,0.003127,0.002817,0.000000,0.000000,0.039999,0.000000,-0.000064,0.000067,-0.000001,0.000000,0.000000,0.000000,0.000000,819,819,819,819
8368,0,-0.062500,0.000000,0.000000,-0.00,-0.00,-0.002070,0.005000,0.003127,0.002816,0.000000,0.000000,0.039999,0.000000,-0.000064,0.000084,0.000020,0.000000,0.000000,0.000000,0.000000,819,819,819,819
8379,0,-0.062500,0.000000,0.000000,0.00,-0.00,-0.001140,0.005000,0.003129,0.002814,0.000000,0.000000,0.039999,0.000000,-0.000043,0.000120,0.000011,0.000000,0.000000,0.000000,0.000000,819,819,819,819
8389,0,-0.062500,0.000000,0.000000,-0.00,0.00,0.003052,0.005000,0.003126,0.002817,0.000000,0.000000,0.039999,0.000000,-0.000075,0.000067,-0.000031,0.000000,0.000000,0.000000,0.000000,819,819,819,819
8399,0,-0.062500,0.000000,0.000000,-0.00,0.00,0.003261,0.005000,0.003127,0.002817,0.000000,0.000000,0.039999,0.000000,-0.000064,0.000067,-0.000033,0.000000,0.000000,0.000000,0.000000,819,819,819,819
8409,0,-0.062500,0.000000,0.000000,0.00,0.00,0.000163,0.005000,0.003128,0.002818,0.000000,0.000000,0.039999,0.000000,-0.000054,0.000049,-0.000002,0.000000,0.000000,0.000000,0.000000,819,819,819,819
8419,0,-0.062500,0.000000,0.000000,0.00,0.00,0.002081,0.005000,0.003131,0.002817,0.000000,0.000000,0.039999,0.000000,-0.000023,0.000067,-0.000022,0.000000,0.000000,0.000000,0.000000,819,819,819,819
8429,0,-0.062500,0.000000,0.000000,-0.00,-0.00,0.001140,0.005000,0.003126,0.002815,0.000000,0.000000,0.039999,0.000000,-0.000075,0.000102,-0.000012,0.000000,0.000000,0.000000,0.000000,819,819,819,819
8439,0,-0.062500,0.000000,0.000000,0.00,0.00,0.001093,0.005000,0.003131,0.002817,0.000000,0.000000,0.039999,0.000000,-0.000023,0.000067,-0.000012,0.000000,0.000000,0.000000,0.000000,819,819,819,819
8449,0,-0.062500,0.000000,0.000000,-0.00,0.00,0.000055,0.005000,0.003127,0.002819,0.000000,0.000000,0.039999,0.000000,-0.000064,0.000032,-0.000001,0.000000,0.000000,0.000000,0.000000,819,819,819,819
8459,0,-0.062500,0.000000,0.000000,-0.00,0.00,0.000003,0.005000,0.003127,0.002818,0.000000,0.000000,0.039999,0.000000,-0.000064,0.000049,-0.000000,0.000000,0.000000,0.000000,0.000000,819,819,819,819
8469,0,-0.062500,0.000000,0.000000,0.00,0.00,0.000000,0.005000,0.003129,0.002818,0.000000,0.000000,0.039999,0.000000,-0.000044,0.000049,-0.000000,0.000000,0.000000,0.000000,0.000000,819,819,819,819
8479,0,-0.062500,0.000000,0.000000,-0.00,-0.00,-0.001036,0.005000,0.003127,0.002815,0.000000,0.000000,0.039999,0.000000,-0.000064,0.000102,0.000010,0.000000,0.000000,0.000000,0.000000,819,819,819,819
8489,0,-0.062500,0.000000,0.000000,0.00,0.00,0.000984,0.005000,0.003128,0.002821,0.000000,0.000000,0.039999,0.000000,-0.000054,-0.000004,-0.000011,0.000000,0.000000,0.000000,0.000000,819,819,819,819
8499,0,-0.062500,0.000000,0.000000,0.00,0.00,0.002122,0.005000,0.003128,0.002820,0.000000,0.000000,0.039999,0.000000,-0.000054,0.000014,-0.000022,0.000000,0.000000,0.000000,0.000000,819,819,819,819
8509,0,-0.062500,0.000000,0.000000,0.00,-0.00,0.002179,0.005000,0.003129,0.002816,0.000000,0.000000,0.039999,0.000000,-0.000044,0.000085,-0.000023,0.000000,0.000000,0.000000,0.000000,819,819,819,819
8519,0,-0.062500,0.000000,0.000000,0.00,0.00,-0.000927,0.005000,0.003128,0.002818,0.000000,0.000000,0.039999,0.000000,-0.000054,0.000049,0.000009,0.000000,0.000000,0.000000,0.000000,819,819,819,819
8529,0,-0.062500,0.000000,0.000000,0.00,-0.00,0.000990,0.005000,0.003130,0.002816,0.000000,0.000000,0.039999,0.000000,-0.000033,0.000085,-0.000011,0.000000,0.000000,0.000000,0.000000,819,819,819,819
8539,0,-0.062500,0.000000,0.000000,-0.00,0.00,0.004195,0.005000,0.003127,0.002819,0.000000,0.000000,0.039999,0.000000,-0.000064,0.000032,-0.000043,0.000000,0.000000,0.000000,0.000000,819,819,819,819
8549,0,-0.062500,0.000000,0.000000,0.00,0.00,0.003319,0.005000,0.003130,0.002819,0.000000,0.000000,0.039999,0.000000,-0.000033,0.000032,-0.000034,0.000000,0.000000,0.000000,0.000000,819,819,819,819
8559,0,-0.062500,0.000000,0.000000,0.00,0.00,0.000166,0.005000,0.003129,0.002818,0.000000,0.000000,0.039999,0.000000,-0.000044,0.000049,-0.000002,0.000000,0.000000,0.000000,0.000000,819,819,819,819
8569,0,-0.062500,0.000000,0.000000,-0.00,0.00,0.001045,0.005000,0.003127,0.002817,0.000000,0.000000,0.039999,0.000000,-0.000064,0.000067,-0.000011,0.000000,0.000000,0.000000,0.000000,819,819,819,819
8579,0,-0.062500,0.000000,0.000000,0.00,-0.00,0.000052,0.005000,0.003129,0.002816,0.000000,0.000000,0.039999,0.000000,-0.000044,0.000085,-0.000001,0.000000,0.000000,0.000000,0.000000,819,819,819,819
8589,0,-0.062500,0.000000,0.000000,-0.00,-0.00,-0.001034,0.005000,0.003127,0.002815,0.000000,0.000000,0.039999,0.000000,-0.000064,0.000102,0.000010,0.000000,0.000000,0.000000,0.000000,819,819,819,819
8599,0,-0.062500,0.000000,0.000000,0.00,-0.00,-0.000052,0.005000,0.003128,0.002816,0.000000,0.000000,0.039999,0.000000,-0.000054,0.000085,-0.000000,0.000000,0.000000,0.000000,0.000000,819,819,819,819
8609,0,-0.062500,0.000000,0.000000,0.00,0.00,-0.001039,0.005000,0.003128,0.002818,0.000000,0.000000,0.039999,0.000000,-0.000054,0.000049,0.000010,0.000000,0.000000,0.000000,0.000000,819,819,819,819
8619,0,-0.062500,0.000000,0.000000,0.00,0.00,-0.001088,0.005000,0.003130,0.002818,0.000000,0.000000,0.039999,0.000000,-0.000033,0.000049,0.000010,0.000000,0.000000,0.000000,0.000000,819,819,819,819
8634,0,-0.062500,0.000000,0.000000,-0.00,-0.00,-0.000054,0.005000,0.003126,0.002815,0.000000,0.000000,0.039999,0.000000,-0.000075,0.000102,-0.000000,0.000000,0.000000,0.000000,0.000000,819,819,819,819
8648,0,-0.062500,0.000000,0.000000,0.00,-0.00,-0.001039,0.005000,0.003129,0.002815,0.000000,0.000000,0.039999,0.000000,-0.000044,0.000102,0.000010,0.000000,0.000000,0.000000,0.000000,819,819,819,819
8659,0,-0.062500,0.000000,0.000000,0.00,0.00,-0.002125,0.005000,0.003128,0.002817,0.000000,0.000000,0.039999,0.000000,-0.000054,0.000067,0.000021,0.000000,0.000000,0.000000,0.000000,819,819,819,819
8669,0,-0.062500,0.000000,0.000000,0.00,0.00,-0.001143,0.005000,0.003129,0.002819,0.000000,0.000000,0.039999,0.000000,-0.000044,0.000032,0.000011,0.000000,0.000000,0.000000,0.000000,819,819,819,819
8679,0,-0.062500,0.000000,0.000000,0.00,0.00,-0.001093,0.005000,0.003128,0.002819,0.000000,0.000000,0.039999,0.000000,-0.000054,0.000032,0.000010,0.000000,0.000000,0.000000,0.000000,819,819,819,819
8689,0,-0.062500,0.000000,0.000000,-0.00,0.00,-0.003164,0.005000,0.003127,0.002818,0.000000,0.000000,0.039999,0.000000,-0.000065,0.000050,0.000031,0.000000,0.000000,0.000000,0.000000,819,819,819,819
8700,0,-0.062500,0.000000,0.000000,0.00,-0.00,-0.000158,0.005000,0.003129,0.002816,0.000000,0.000000,0.039999,0.000000,-0.000044,0.000085,0.000000,0.000000,0.000000,0.000000,0.000000,819,819,819,819
8709,0,-0.062500,0.000000,0.000000,-0.00,0.00,0.001028,0.005000,0.003127,0.002817,0.000000,0.000000,0.039999,0.000000,-0.000065,0.000067,-0.000011,0.000000,0.000000,0.000000,0.000000,819,819,819,819
8719,0,-0.062500,0.000000,0.000000,-0.00,-0.00,0.001088,0.005000,0.003127,0.002816,0.000000,0.000000,0.039999,0.000000,-0.000065,0.000085,-0.000012,0.000000,0.000000,0.000000,0.000000,819,819,819,819
8729,0,-0.062500,0.000000,0.000000,0.00,-0.00,-0.002018,0.005000,0.003128,0.002815,0.000000,0.000000,0.039999,0.000000,-0.000054,0.000102,0.000019,0.000000,0.000000,0.000000,0.000000,819,819,819,819
8739,0,-0.062500,0.000000,0.000000,-0.00,-0.00,-0.000101,0.005000,0.003127,0.002815,0.000000,0.000000,0.039999,0.000000,-0.000065,0.000102,0.000000,0.000000,0.000000,0.000000,0.000000,819,819,819,819
8752,0,-0.062500,0.000000,0.000000,-0.00,0.00,-0.000005,0.005000,0.003126,0.002819,0.000000,0.000000,0.039999,0.000000,-0.000075,0.000050,-0.000000,0.000000,0.000000,0.000000,0.000000,819,819,819,819
8762,0,-0.062500,0.000000,0.000000,-0.00,-0.00,0.002072,0.005000,0.003127,0.002814,0.000000,0.000000,0.039999,0.000000,-0.000065,0.000120,-0.000022,0.000000,0.000000,0.000000,0.000000,819,819,819,819
8771,0,-0.062500,0.000000,0.000000,0.00,-0.00,-0.000933,0.005000,0.003129,0.002816,0.000000,0.000000,0.039999,0.000000,-0.000044,0.000085,0.000009,0.000000,0.000000,0.000000,0.000000,819,819,819,819
8781,0,-0.062500,0.000000,0.000000,-0.00,-0.00,-0.000047,0.005000,0.003126,0.002813,0.000000,0.000000,0.039999,0.000000,-0.000075,0.000138,-0.000000,0.000000,0.000000,0.000000,0.000000,819,819,819,819
8790,0,-0.062500,0.000000,0.000000,0.00,0.00,-0.000002,0.005000,0.003128,0.002818,0.000000,0.000000,0.039999,0.000000,-0.000054,0.000067,-0.000000,0.000000,0.000000,0.000000,0.000000,819,819,819,819
8803,0,-0.062500,0.000000,0.000000,0.00,0.00,-0.000000,0.005000,0.003128,0.002819,0.000000,0.000000,0.039999,0.000000,-0.000054,0.000050,-0.000000,0.000000,0.000000,0.000000,0.000000,819,819,819,819
8815,0,-0.062500,0.000000,0.000000,0.00,0.00,0.002073,0.005000,0.003128,0.002820,0.000000,0.000000,0.039999,0.000000,-0.000054,0.000032,-0.000022,0.000000,0.000000,0.000000,0.000000,819,819,819,819
8826,0,-0.062500,0.000000,0.000000,-0.00,0.00,0.000104,0.005000,0.003126,0.002818,0.000000,0.000000,0.039999,0.000000,-0.000075,0.000067,-0.000002,0.000000,0.000000,0.000000,0.000000,819,819,819,819
8838,0,-0.062500,0.000000,0.000000,-0.00,-0.00,0.001041,0.005000,0.003126,0.002813,0.000000,0.000000,0.039999,0.000000,-0.000075,0.000138,-0.000011,0.000000,0.000000,0.000000,0.000000,819,819,819,819
8849,0,-0.062500,0.000000,0.000000,0.00,-0.00,-0.000984,0.005000,0.003128,0.002817,0.000000,0.000000,0.039999,0.000000,-0.000054,0.000085,0.000009,0.000000,0.000000,0.000000,0.000000,819,819,819,819
8860,0,-0.062500,0.000000,0.000000,0.00,-0.00,0.000987,0.005000,0.003129,0.002816,0.000000,0.000000,0.039999,0.000000,-0.000044,0.000103,-0.000011,0.000000,0.000000,0.000000,0.000000,819,819,819,819
8870,0,-0.062500,0.000000,0.000000,0.00,0.00,-0.000987,0.005000,0.003128,0.002819,0.000000,0.000000,0.039999,0.000000,-0.000054,0.000050,0.000009,0.000000,0.000000,0.000000,0.000000,819,819,819,819
8880,0,-0.062500,0.000000,0.000000,0.00,-0.00,-0.002122,0.005000,0.003128,0.002816,0.000000,0.000000,0.039999,0.000000,-0.000054,0.000103,0.000021,0.000000,0.000000,0.000000,0.000000,819,819,819,819
8890,0,-0.062500,0.000000,0.000000,0.00,0.00,0.000930,0.005000,0.003128,0.002818,0.000000,0.000000,0.039999,0.000000,-0.000054,0.000067,-0.000010,0.000000,0.000000,0.000000,0.000000,819,819,819,819
8900,0,-0.062500,0.000000,0.000000,0.00,0.00,0.001083,0.005000,0.003129,0.002820,0.000000,0.000000,0.039999,0.000000,-0.000044,0.000032,-0.000012,0.000000,0.000000,0.000000,0.000000,819,819,819,819
8910,0,-0.062500,0.000000,0.000000,0.00,0.00,0.000054,0.005000,0.003128,0.002818,0.000000,0.000000,0.039999,0.000000,-0.000054,0.000067,-0.000001,0.000000,0.000000,0.000000,0.000000,819,819,819,819
8920,0,-0.062500,0.000000,0.000000,-0.00,0.00,0.000003,0.005000,0.003126,0.002819,0.000000,0.000000,0.039999,0.000000,-0.000075,0.000050,-0.000000,0.000000,0.000000,0.000000,0.000000,819,819,819,819
8930,0,-0.062500,0.000000,0.000000,0.00,0.00,-0.005181,0.005000,0.003128,0.002818,0.000000,0.000000,0.039999,0.000000,-0.000055,0.000067,0.000051,0.000000,0.000000,0.000000,0.000000,819,819,819,819
8940,0,-0.062500,0.000000,0.000000,-0.00,0.00,-0.001295,0.005000,0.003126,0.002818,0.000000,0.000000,0.039999,0.000000,-0.000075,0.000067,0.000012,0.000000,0.000000,0.000000,0.000000,819,819,819,819
8955,0,-0.062500,0.000000,0.000000,0.00,-0.00,-0.002137,0.005000,0.003129,0.002817,0.000000,0.000000,0.039999,0.000000,-0.000044,0.000085,0.000021,0.000000,0.000000,0.000000,0.000000,819,819,819,819
8969,0,-0.062500,0.000000,0.000000,-0.00,-0.00,0.000929,0.005000,0.003127,0.002816,0.000000,0.000000,0.039999,0.000000,-0.000065,0.000103,-0.000010,0.000000,0.000000,0.000000,0.000000,819,819,819,819
8980,0,-0.062500,0.000000,0.000000,0.00,0.00,0.000046,0.005000,0.003129,0.002819,0.000000,0.000000,0.039999,0.000000,-0.000044,0.000050,-0.000001,0.000000,0.000000,0.000000,0.000000,819,819,819,819
8990,0,-0.062500,0.000000,0.000000,0.00,0.00,0.000002,0.005000,0.003129,0.002818,0.000000,0.000000,0.039999,0.000000,-0.000044,0.000068,-0.000000,0.000000,0.000000,0.000000,0.000000,819,819,819,819
9000,0,-0.062500,0.000000,0.000000,0.00,0.00,-0.001036,0.005000,0.003129,0.002818,0.000000,0.000000,0.039999,0.000000,-0.000044,0.000068,0.000010,0.000000,0.000000,0.000000,0.000000,819,819,819,819
9010,0,-0.062500,0.000000,0.000000,-0.00,0.00,-0.001088,0.006000,0.003127,0.002818,0.000000,0.000000,0.039999,0.000000,-0.000065,0.000068,0.000010,0.000000,0.000000,0.000000,0.000000,819,819,819,819
9020,0,-0.062500,0.000000,0.000000,0.00,-0.00,-0.000054,0.006000,0.003129,0.002817,0.000000,0.000000,0.039999,0.000000,-0.000044,0.000085,-0.000000,0.000000,0.000000,0.000000,0.000000,819,819,819,819
9030,0,-0.062500,0.000000,0.000000,0.00,-0.00,-0.001039,0.006000,0.003129,0.002817,0.000000,0.000000,0.039999,0.000000,-0.000044,0.000085,0.000010,0.000000,0.000000,0.000000,0.000000,819,819,819,819
9040,0,-0.062500,0.000000,0.000000,-0.00,0.00,-0.000052,0.006000,0.003125,0.002819,0.000000,0.000000,0.039999,0.000000,-0.000086,0.000050,-0.000000,0.000000,0.000000,0.000000,0.000000,819,819,819,819
9050,0,-0.062500,0.000000,0.000000,-0.00,-0.00,-0.001039,0.006000,0.003127,0.002816,0.000000,0.000000,0.039999,0.000000,-0.000065,0.000103,0.000010,0.000000,0.000000,0.000000,0.000000,819,819,819,819
9060,0,-0.062500,0.000000,0.000000,0.00,-0.00,-0.001088,0.006000,0.003129,0.002816,0.000000,0.000000,0.039999,0.000000,-0.000044,0.000103,0.000010,0.000000,0.000000,0.000000,0.000000,819,819,819,819
9070,0,-0.062500,0.000000,0.000000,-0.00,0.00,-0.000054,0.006000,0.003126,0.002818,0.000000,0.000000,0.039999,0.000000,-0.000075,0.000068,-0.000000,0.000000,0.000000,0.000000,0.000000,819,819,819,819
9080,0,-0.062500,0.000000,0.000000,0.00,-0.00,-0.002075,0.006000,0.003129,0.002817,0.000000,0.000000,0.039999,0.000000,-0.000044,0.000085,0.000020,0.000000,0.000000,0.000000,0.000000,819,819,819,819
9090,0,-0.062500,0.000000,0.000000,0.00,-0.00,-0.000104,0.006000,0.003128,0.002817,0.000000,0.000000,0.039999,0.000000,-0.000055,0.000085,0.000000,0.000000,0.000000,0.000000,0.000000,819,819,819,819
9101,0,-0.062500,0.000000,0.000000,0.00,0.00,-0.003114,0.006000,0.003129,0.002819,0.000000,0.000000,0.039999,0.000000,-0.000044,0.000050,0.000031,0.000000,0.000000,0.000000,0.000000,819,819,819,819
9110,0,-0.062500,0.000000,0.000000,0.00,0.00,-0.000156,0.007000,0.003128,0.002819,0.000000,0.000000,0.039999,0.000000,-0.000055,0.000050,0.000000,0.000000,0.000000,0.000000,0.000000,819,819,819,819
9120,0,-0.062500,0.000000,0.000000,-0.00,0.00,0.001029,0.007000,0.003127,0.002820,0.000000,0.000000,0.039999,0.000000,-0.000065,0.000032,-0.000011,0.000000,0.000000,0.000000,0.000000,819,819,819,819
9130,0,-0.062500,0.000000,0.000000,-0.00,0.00,0.002124,0.007000,0.003127,0.002821,0.000000,0.000000,0.039999,0.000000,-0.000065,0.000015,-0.000022,0.000000,0.000000,0.000000,0.000000,819,819,819,819
9140,0,-0.062500,0.000000,0.000000,0.00,0.00,0.002179,0.007000,0.003128,0.002819,0.000000,0.000000,0.039999,0.000000,-0.000055,0.000050,-0.000023,0.000000,0.000000,0.000000,0.000000,819,819,819,819
9151,0,-0.062500,0.000000,0.000000,-0.00,0.00,0.000109,0.007000,0.003127,0.002818,0.000000,0.000000,0.039999,0.000000,-0.000065,0.000068,-0.000002,0.000000,0.000000,0.000000,0.000000,819,819,819,819
9160,0,-0.062500,0.000000,0.000000,-0.00,0.00,0.001042,0.007000,0.003127,0.002818,0.000000,0.000000,0.039999,0.000000,-0.000065,0.000068,-0.000011,0.000000,0.000000,0.000000,0.000000,819,819,819,819
9170,0,-0.062500,0.000000,0.000000,-0.00,0.00,-0.000984,0.007000,0.003126,0.002820,0.000000,0.000000,0.039999,0.000000,-0.000076,0.000033,0.000009,0.000000,0.000000,0.000000,0.000000,819,819,819,819
9181,0,-0.062500,0.000000,0.000000,0.00,-0.00,-0.000049,0.007000,0.003128,0.002817,0.000000,0.000000,0.039999,0.000000,-0.000055,0.000085,-0.000000,0.000000,0.000000,0.000000,0.000000,819,819,819,819
9190,0,-0.062500,0.000000,0.000000,0.00,0.00,-0.000002,0.007000,0.003128,0.002819,0.000000,0.000000,0.039999,0.000000,-0.000055,0.000050,-0.000000,0.000000,0.000000,0.000000,0.000000,819,819,819,819
9201,0,-0.062500,0.000000,0.000000,-0.00,-0.00,0.002072,0.007000,0.003126,0.002817,0.000000,0.000000,0.039999,0.000000,-0.000076,0.000085,-0.000021,0.000000,0.000000,0.000000,0.000000,819,819,819,819
9210,0,-0.062500,0.000000,0.000000,0.00,-0.00,-0.000933,0.008000,0.003128,0.002815,0.000000,0.000000,0.039999,0.000000,-0.000055,0.000121,0.000009,0.000000,0.000000,0.000000,0.000000,819,819,819,819
9221,0,-0.062500,0.000000,0.000000,0.00,-0.00,0.002026,0.007000,0.003128,0.002817,0.000000,0.000000,0.039999,0.000000,-0.000055,0.000085,-0.000021,0.000000,0.000000,0.000000,0.000000,819,819,819,819
9231,0,-0.062500,0.000000,0.000000,0.00,0.00,0.000101,0.007000,0.003130,0.002819,0.000000,0.000000,0.039999,0.000000,-0.000034,0.000050,-0.000002,0.000000,0.000000,0.000000,0.000000,819,819,819,819
9241,0,-0.062500,0.000000,0.000000,-0.00,0.00,0.001041,0.008000,0.003127,0.002821,0.000000,0.000000,0.039999,0.000000,-0.000065,0.000033,-0.000011,0.000000,0.000000,0.000000,0.000000,819,819,819,819
9251,0,-0.062500,0.000000,0.000000,0.00,-0.00,0.000052,0.008000,0.003130,0.002817,0.000000,0.000000,0.039999,0.000000,-0.000034,0.000086,-0.000001,0.000000,0.000000,0.000000,0.000000,819,819,819,819
9261,0,-0.062500,0.000000,0.000000,0.00,0.00,0.000003,0.008000,0.003128,0.002818,0.000000,0.000000,0.039999,0.000000,-0.000055,0.000068,-0.000000,0.000000,0.000000,0.000000,0.000000,819,819,819,819
9277,0,-0.062500,0.000000,0.000000,0.00,0.00,-0.001036,0.008000,0.003129,0.002820,0.000000,0.000000,0.039999,0.000000,-0.000045,0.000050,0.000010,0.000000,0.000000,0.000000,0.000000,819,819,819,819
9290,0,-0.062500,0.000000,0.000000,-0.00,-0.00,-0.000052,0.008000,0.003127,0.002816,0.000000,0.000000,0.039999,0.000000,-0.000065,0.000103,-0.000000,0.000000,0.000000,0.000000,0.000000,819,819,819,819
9301,0,-0.062500,0.000000,0.000000,0.00,-0.00,-0.001039,0.008000,0.003129,0.002814,0.000000,0.000000,0.039999,0.000000,-0.000045,0.000138,0.000010,0.000000,0.000000,0.000000,0.000000,819,819,819,819
9311,0,-0.062500,0.000000,0.000000,-0.00,-0.00,0.002021,0.008000,0.003127,0.002817,0.000000,0.000000,0.039999,0.000000,-0.000065,0.000103,-0.000021,0.000000,0.000000,0.000000,0.000000,819,819,819,819
9321,0,-0.062500,0.000000,0.000000,0.00,0.00,0.001137,0.008000,0.003128,0.002822,0.000000,0.000000,0.039999,0.000000,-0.000055,0.000015,-0.000012,0.000000,0.000000,0.000000,0.000000,819,819,819,819
9331,0,-0.062500,0.000000,0.000000,0.00,-0.00,-0.000979,0.008000,0.003129,0.002818,0.000000,0.000000,0.039999,0.000000,-0.000045,0.000086,0.000009,0.000000,0.000000,0.000000,0.000000,819,819,819,819
9341,0,-0.062500,0.000000,0.000000,0.00,0.00,-0.001085,0.008000,0.003128,0.002822,0.000000,0.000000,0.039999,0.000000,-0.000055,0.000015,0.000010,0.000000,0.000000,0.000000,0.000000,819,819,819,819
9351,0,-0.062500,0.000000,0.000000,-0.00,0.00,0.002018,0.008000,0.003127,0.002819,0.000000,0.000000,0.039999,0.000000,-0.000065,0.000068,-0.000021,0.000000,0.000000,0.000000,0.000000,819,819,819,819
9361,0,-0.062500,0.000000,0.000000,0.00,-0.00,0.000101,0.008000,0.003128,0.002818,0.000000,0.000000,0.039999,0.000000,-0.000055,0.000086,-0.000002,0.000000,0.000000,0.000000,0.000000,819,819,819,819
9371,0,-0.062500,0.000000,0.000000,-0.00,-0.00,0.000005,0.008000,0.003127,0.002817,0.000000,0.000000,0.039999,0.000000,-0.000066,0.000103,-0.000000,0.000000,0.000000,0.000000,0.000000,819,819,819,819
9381,0,-0.062500,0.000000,0.000000,0.00,-0.00,0.000000,0.008000,0.003129,0.002818,0.000000,0.000000,0.039999,0.000000,-0.000045,0.000086,-0.000000,0.000000,0.000000,0.000000,0.000000,819,819,819,819
9391,0,-0.062500,0.000000,0.000000,0.00,0.00,0.001036,0.008000,0.003129,0.002821,0.000000,0.000000,0.039999,0.000000,-0.000045,0.000033,-0.000011,0.000000,0.000000,0.000000,0.000000,819,819,819,819
9401,0,-0.062500,0.000000,0.000000,0.00,0.00,0.001088,0.008000,0.003129,0.002819,0.000000,0.000000,0.039999,0.000000,-0.000045,0.000068,-0.000012,0.000000,0.000000,0.000000,0.000000,819,819,819,819
9411,0,-0.062500,0.000000,0.000000,0.00,0.00,0.001091,0.008000,0.003128,0.002820,0.000000,0.000000,0.039999,0.000000,-0.000055,0.000050,-0.000012,0.000000,0.000000,0.000000,0.000000,819,819,819,819
9421,0,-0.062500,0.000000,0.000000,0.00,0.00,0.001091,0.008000,0.003129,0.002819,0.000000,0.000000,0.039999,0.000000,-0.000045,0.000068,-0.000012,0.000000,0.000000,0.000000,0.000000,819,819,819,819
9431,0,-0.062500,0.000000,0.000000,-0.00,-0.00,0.000055,0.008000,0.003127,0.002817,0.000000,0.000000,0.039999,0.000000,-0.000066,0.000103,-0.000001,0.000000,0.000000,0.000000,0.000000,819,819,819,819
9441,0,-0.062500,0.000000,0.000000,-0.00,-0.00,0.002075,0.008000,0.003127,0.002818,0.000000,0.000000,0.039999,0.000000,-0.000066,0.000086,-0.000022,0.000000,0.000000,0.000000,0.000000,819,819,819,819
9451,0,-0.062500,0.000000,0.000000,0.00,-0.00,0.003213,0.008000,0.003128,0.002817,0.000000,0.000000,0.039999,0.000000,-0.000055,0.000103,-0.000033,0.000000,0.000000,0.000000,0.000000,819,819,819,819
9461,0,-0.062500,0.000000,0.000000,-0.00,0.00,0.000161,0.008000,0.003127,0.002819,0.000000,0.000000,0.039999,0.000000,-0.000066,0.000068,-0.000002,0.000000,0.000000,0.000000,0.000000,819,819,819,819
9471,0,-0.062500,0.000000,0.000000,0.00,-0.00,0.000008,0.009000,0.003128,0.002815,0.000000,0.000000,0.039999,0.000000,-0.000055,0.000139,-0.000000,0.000000,0.000000,0.000000,0.000000,819,819,819,819
9481,0,-0.062500,0.000000,0.000000,0.00,-0.00,0.001037,0.009000,0.003129,0.002817,0.000000,0.000000,0.039999,0.000000,-0.000045,0.000104,-0.000011,0.000000,0.000000,0.000000,0.000000,819,819,819,819
9491,0,-0.062500,0.000000,0.000000,-0.00,-0.00,0.001088,0.009000,0.003127,0.002818,0.000000,0.000000,0.039999,0.000000,-0.000066,0.000086,-0.000012,0.000000,0.000000,0.000000,0.000000,819,819,819,819
9501,0,-0.062500,0.000000,0.000000,0.00,-0.00,-0.000982,0.009000,0.003128,0.002817,0.000000,0.000000,0.039999,0.000000,-0.000055,0.000104,0.000009,0.000000,0.000000,0.000000,0.000000,819,819,819,819
9511,0,-0.062500,0.000000,0.000000,-0.00,-0.00,0.002023,0.009000,0.003126,0.002816,0.000000,0.000000,0.039999,0.000000,-0.000076,0.000121,-0.000021,0.000000,0.000000,0.000000,0.000000,819,819,819,819
9521,0,-0.062500,0.000000,0.000000,0.00,-0.00,0.001137,0.009000,0.003128,0.002816,0.000000,0.000000,0.039999,0.000000,-0.000055,0.000121,-0.000012,0.000000,0.000000,0.000000,0.000000,819,819,819,819
9531,0,-0.062500,0.000000,0.000000,0.00,-0.00,0.000057,0.009000,0.003128,0.002818,0.000000,0.000000,0.039999,0.000000,-0.000055,0.000086,-0.000001,0.000000,0.000000,0.000000,0.000000,819,819,819,819
9541,0,-0.062500,0.000000,0.000000,0.00,0.00,0.000003,0.009000,0.003130,0.002822,0.000000,0.000000,0.039999,0.000000,-0.000035,0.000016,-0.000000,0.000000,0.000000,0.000000,0.000000,819,819,819,819
9551,0,-0.062500,0.000000,0.000000,0.00,0.00,-0.001036,0.009000,0.003129,0.002822,0.000000,0.000000,0.039999,0.000000,-0.000045,0.000016,0.000010,0.000000,0.000000,0.000000,0.000000,819,819,819,819
9561,0,-0.062500,0.000000,0.000000,0.00,0.00,-0.003161,0.009000,0.003128,0.002821,0.000000,0.000000,0.039999,0.000000,-0.000055,0.000033,0.000031,0.000000,0.000000,0.000000,0.000000,819,819,819,819
9573,0,-0.062500,0.000000,0.000000,-0.00,0.00,0.001915,0.009000,0.003126,0.002821,0.000000,0.000000,0.039999,0.000000,-0.000076,0.000033,-0.000020,0.000000,0.000000,0.000000,0.000000,819,819,819,819
9583,0,-0.062500,0.000000,0.000000,0.00,0.00,0.001132,0.009000,0.003128,0.002820,0.000000,0.000000,0.039999,0.000000,-0.000055,0.000051,-0.000012,0.000000,0.000000,0.000000,0.000000,819,819,819,819
9599,0,-0.062500,0.000000,0.000000,-0.00,0.00,0.000057,0.009000,0.003126,0.002820,0.000000,0.000000,0.039999,0.000000,-0.000076,0.000051,-0.000001,0.000000,0.000000,0.000000,0.000000,819,819,819,819
9611,0,-0.062500,0.000000,0.000000,-0.00,-0.00,-0.001033,0.009000,0.003127,0.002816,0.000000,0.000000,0.039999,0.000000,-0.000066,0.000121,0.000010,0.000000,0.000000,0.000000,0.000000,819,819,819,819
9621,0,-0.062500,0.000000,0.000000,0.00,-0.00,-0.000052,0.009000,0.003128,0.002817,0.000000,0.000000,0.039999,0.000000,-0.000056,0.000104,-0.000000,0.000000,0.000000,0.000000,0.000000,819,819,819,819
9631,0,-0.062500,0.000000,0.000000,-0.00,-0.00,-0.000003,0.009000,0.003127,0.002817,0.000000,0.000000,0.039999,0.000000,-0.000066,0.000104,-0.000000,0.000000,0.000000,0.000000,0.000000,819,819,819,819
9641,0,-0.062500,0.000000,0.000000,0.00,-0.00,-0.000000,0.059000,0.003128,0.002817,0.000000,0.000000,0.039999,0.000000,-0.000056,0.000104,-0.000000,0.000000,0.000000,0.000000,0.000000,819,819,819,819
9651,0,-0.062500,0.000000,0.000000,-0.00,0.00,-0.002073,0.059000,0.003127,0.002819,0.000000,0.000000,0.039999,0.000000,-0.000066,0.000069,0.000020,0.000000,0.000000,0.000000,0.000000,819,819,819,819
9666,0,-0.062500,0.000000,0.000000,-0.00,0.00,0.000933,0.059000,0.003126,0.002820,0.000000,0.000000,0.039999,0.000000,-0.000076,0.000051,-0.000010,0.000000,0.000000,0.000000,0.000000,819,819,819,819
9678,0,-0.062500,0.000000,0.000000,-0.00,-0.00,0.000047,0.059000,0.003127,0.002816,0.000000,0.000000,0.039999,0.000000,-0.000066,0.000121,-0.000001,0.000000,0.000000,0.000000,0.000000,819,819,819,819
9692,0,-0.062500,0.000000,0.000000,-0.00,0.00,0.001039,0.059000,0.003125,0.002819,0.000000,0.000000,0.039999,0.000000,-0.000087,0.000069,-0.000011,0.000000,0.000000,0.000000,0.000000,819,819,819,819
9702,0,-0.062500,0.000000,0.000000,0.00,0.00,0.001088,0.064000,0.003129,0.002821,0.000000,0.000000,0.039999,0.000000,-0.000045,0.000033,-0.000012,0.000000,0.000000,0.000000,0.000000,819,819,819,819
9713,0,-0.062500,0.000000,0.000000,0.00,-0.00,-0.000982,0.065000,0.003128,0.002817,0.000000,0.000000,0.039999,0.000000,-0.000056,0.000104,0.000009,0.000000,0.000000,0.000000,0.000000,819,819,819,819
9723,0,-0.062500,0.000000,0.000000,0.00,-0.00,-0.002122,0.065000,0.003129,0.002818,0.000000,0.000000,0.039999,0.000000,-0.000045,0.000086,0.000020,0.000000,0.000000,0.000000,0.000000,819,819,819,819
9733,0,-0.062500,0.000000,0.000000,-0.00,-0.00,-0.000106,0.065000,0.003126,0.002818,0.000000,0.000000,0.039999,0.000000,-0.000076,0.000086,0.000000,0.000000,0.000000,0.000000,0.000000,819,819,819,819
9743,0,-0.062500,0.000000,0.000000,0.00,-0.00,-0.000005,0.065000,0.003128,0.002817,0.000000,0.000000,0.039999,0.000000,-0.000056,0.000104,-0.000000,0.000000,0.000000,0.000000,0.000000,819,819,819,819
9753,0,-0.062500,0.000000,0.000000,-0.00,0.00,-0.000000,0.065000,0.003127,0.002819,0.000000,0.000000,0.039999,0.000000,-0.000066,0.000069,-0.000000,0.000000,0.000000,0.000000,0.000000,819,819,819,819
9763,0,-0.062500,0.000000,0.000000,0.00,0.00,0.001036,0.064000,0.003128,0.002819,0.000000,0.000000,0.039999,0.000000,-0.000056,0.000069,-0.000011,0.000000,0.000000,0.000000,0.000000,819,819,819,819
9773,0,-0.062500,0.000000,0.000000,0.00,-0.00,0.000052,0.064000,0.003128,0.002817,0.000000,0.000000,0.039999,0.000000,-0.000056,0.000104,-0.000001,0.000000,0.000000,0.000000,0.000000,819,819,819,819
9783,0,-0.062500,0.000000,0.000000,0.00,-0.00,-0.001034,0.064000,0.003130,0.002817,0.000000,0.000000,0.039999,0.000000,-0.000035,0.000104,0.000010,0.000000,0.000000,0.000000,0.000000,819,819,819,819
9793,0,-0.062500,0.000000,0.000000,0.00,0.00,-0.001088,0.064000,0.003128,0.002821,0.000000,0.000000,0.039999,0.000000,-0.000056,0.000051,0.000010,0.000000,0.000000,0.000000,0.000000,819,819,819,819
9803,0,-0.062500,0.000000,0.000000,0.00,0.00,0.000982,0.065000,0.003128,0.002821,0.000000,0.000000,0.039999,0.000000,-0.000056,0.000051,-0.000011,0.000000,0.000000,0.000000,0.000000,819,819,819,819
9813,0,-0.062500,0.000000,0.000000,0.00,0.00,-0.000987,0.065000,0.003128,0.002820,0.000000,0.000000,0.039999,0.000000,-0.000056,0.000069,0.000009,0.000000,0.000000,0.000000,0.000000,819,819,819,819
9823,0,-0.062500,0.000000,0.000000,-0.00,0.00,-0.002122,0.065000,0.003127,0.002821,0.000000,0.000000,0.039999,0.000000,-0.000066,0.000051,0.000020,0.000000,0.000000,0.000000,0.000000,819,819,819,819
9833,0,-0.062500,0.000000,0.000000,0.00,0.00,-0.001142,0.065000,0.003128,0.002820,0.000000,0.000000,0.039999,0.000000,-0.000056,0.000069,0.000011,0.000000,0.000000,0.000000,0.000000,819,819,819,819
9843,0,-0.062500,0.000000,0.000000,0.00,0.00,-0.001093,0.064000,0.003128,0.002823,0.000000,0.000000,0.039999,0.000000,-0.000056,0.000016,0.000010,0.000000,0.000000,0.000000,0.000000,819,819,819,819
9853,0,-0.062500,0.000000,0.000000,0.00,0.00,-0.000055,0.064000,0.003129,0.002821,0.000000,0.000000,0.039999,0.000000,-0.000046,0.000051,-0.000000,0.000000,0.000000,0.000000,0.000000,819,819,819,819
9862,0,-0.062500,0.000000,0.000000,0.00,0.00,-0.000003,0.064000,0.003129,0.002821,0.000000,0.000000,0.039999,0.000000,-0.000046,0.000051,-0.000000,0.000000,0.000000,0.000000,0.000000,819,819,819,819
9872,0,-0.062500,0.000000,0.000000,-0.00,0.00,0.001036,0.067000,0.003127,0.002822,0.000000,0.000000,0.039999,0.000000,-0.000066,0.000034,-0.000011,0.000000,0.000000,0.000000,0.000000,819,819,819,819
9882,0,-0.062500,0.000000,0.000000,0.00,0.00,0.000052,0.072000,0.003128,0.002820,0.000000,0.000000,0.039999,0.000000,-0.000056,0.000069,-0.000001,0.000000,0.000000,0.000000,0.000000,819,819,819,819
9892,0,-0.062500,0.000000,0.000000,0.00,-0.00,0.000003,0.072000,0.003129,0.002819,0.000000,0.000000,0.039999,0.000000,-0.000046,0.000086,-0.000000,0.000000,0.000000,0.000000,0.000000,819,819,819,819
9902,0,-0.062500,0.000000,0.000000,-0.00,0.00,-0.001036,0.072000,0.003126,0.002821,0.000000,0.000000,0.039999,0.000000,-0.000077,0.000051,0.000010,0.000000,0.000000,0.000000,0.000000,819,819,819,819
9918,0,-0.062500,0.000000,0.000000,-0.00,-0.00,0.000984,0.091000,0.003127,0.002815,0.000000,0.000000,0.039999,0.000000,-0.000066,0.000157,-0.000011,0.000000,0.000000,0.000000,0.000000,819,819,819,819
9933,0,-0.062500,0.000000,0.000000,-0.00,0.00,-0.002023,0.098000,0.003127,0.002820,0.000000,0.000000,0.039999,0.000000,-0.000066,0.000069,0.000020,0.000000,0.000000,0.000000,0.000000,819,819,819,819
9943,0,-0.062500,0.000000,0.000000,-0.00,0.00,0.000935,0.103000,0.003127,0.002820,0.000000,0.000000,0.039999,0.000000,-0.000066,0.000069,-0.000010,0.103125,0.103008,0.103013,0.102855,1000,1000,1000,1000
9953,0,-0.062500,0.000000,0.000000,0.00,-0.00,0.001083,0.103000,0.003132,0.002836,0.000000,0.000000,0.039999,0.000000,-0.000046,0.000122,-0.000012,0.103156,0.102935,0.103088,0.102821,1000,1000,1000,1000
9963,0,-0.062500,0.000000,0.000000,-0.00,-0.00,-0.000982,0.107000,0.003132,0.002857,0.000000,0.000000,0.039999,0.000000,-0.000077,0.000105,0.000009,0.107191,0.106963,0.107019,0.106827,1000,1000,1000,1000
9973,0,-0.062500,0.000000,0.000000,0.00,0.00,-0.002122,0.107000,0.003138,0.002879,0.000000,0.000000,0.039999,0.000000,-0.000046,0.000052,0.000021,0.107119,0.106973,0.106986,0.106922,1000,1000,1000,1000
9983,0,-0.062500,0.000000,0.000000,0.00,0.00,-0.001142,0.107000,0.003140,0.002898,0.000000,0.000000,0.039999,0.000000,-0.000056,0.000070,0.000011,0.107137,0.106975,0.107003,0.106884,1000,1000,1000,1000
9993,0,-0.062500,0.000000,0.000000,-0.00,0.00,-0.000057,0.107000,0.003142,0.002918,0.000000,0.000000,0.039999,0.000000,-0.000067,0.000053,-0.000000,0.107120,0.107014,0.106987,0.106880,1000,1000,1000,1000
10003,0,-0.062500,0.000000,0.000000,-0.01,0.00,-0.004148,0.107000,0.003135,0.002935,0.000000,0.000000,0.039999,0.000000,-0.000170,0.000071,0.000041,0.107282,0.107059,0.106860,0.106799,1000,1000,1000,1000
10013,0,-0.062500,0.000000,0.062500,-0.02,-0.00,-0.000207,0.107000,0.003127,0.002947,0.000000,0.000000,0.039999,0.000000,-0.000274,0.000195,0.000001,0.107470,0.107078,0.106919,0.106532,1000,1000,1000,1000
10023,0,-0.062500,0.000000,0.062500,-0.01,0.01,0.007244,0.107000,0.003137,0.002986,0.000000,0.000000,0.039999,0.000000,-0.000202,-0.000157,-0.000073,0.106971,0.107433,0.106714,0.106882,1000,1000,1000,1000
10033,0,-0.062500,0.000000,0.000000,0.08,0.02,0.008652,0.107000,0.003234,0.003009,0.000000,0.000000,0.039999,0.000000,0.000732,-0.000228,-0.000087,0.105953,0.106583,0.107592,0.107872,1000,1000,1000,1000
10043,0,-0.062500,0.000000,0.000000,-0.02,-0.05,-0.014075,0.107000,0.003142,0.002964,0.000000,0.000000,0.039999,0.000000,-0.000212,0.000848,0.000140,0.108200,0.106224,0.107495,0.106081,1000,1000,1000,1000
10053,0,-0.062500,0.000000,0.000000,-0.03,-0.02,-0.051482,0.107000,0.003135,0.003003,0.000000,0.000000,0.039999,0.000000,-0.000316,0.000478,0.000515,0.108309,0.106322,0.106647,0.106721,1000,1000,1000,1000
10062,0,-0.062500,0.000000,0.000000,-0.02,0.02,-0.041953,0.107000,0.003139,0.003070,0.000000,0.000000,0.039999,0.000000,-0.000295,-0.000350,0.000420,0.107366,0.107225,0.105935,0.107475,1000,1000,1000,1000
10072,0,0.000000,0.000000,0.062500,0.27,0.00,-0.041477,0.107000,0.000309,0.003072,0.000000,0.000000,0.039999,0.000000,0.002689,-0.000085,0.000416,0.104641,0.103980,0.109189,0.110190,1000,1000,1000,1000
10082,0,0.000000,0.000000,0.062500,-0.05,0.00,0.039378,0.107000,-0.000009,0.003081,0.000000,0.000000,0.039999,0.000000,-0.000491,0.000056,-0.000395,0.107152,0.107830,0.106960,0.106058,1000,1000,1000,1000
10092,0,-0.062500,0.000000,0.125000,-0.35,-0.02,0.038239,0.107000,0.002814,0.003074,0.000000,0.000000,0.039999,0.000000,-0.003569,0.000479,-0.000384,0.110665,0.110474,0.104294,0.102568,1000,1000,1000,1000
10102,0,-0.062500,0.062500,0.125000,-0.03,0.25,-0.006378,0.107000,0.003134,-0.001038,0.000000,0.000000,0.039999,0.000000,-0.000400,-0.004311,0.000064,0.103152,0.111648,0.102225,0.110975,1000,1000,1000,1000
10112,0,0.000000,0.062500,0.125000,0.29,-0.04,-0.049025,0.107000,0.000331,-0.001348,0.000000,0.000000,0.039999,0.000000,0.002865,0.000720,0.000491,0.105346,0.102924,0.110094,0.109636,1000,1000,1000,1000
10122,0,0.000000,0.062500,0.125000,-0.00,0.00,-0.050121,0.107000,0.000040,-0.001320,0.000000,0.000000,0.039999,0.000000,-0.000045,-0.000003,0.000502,0.107545,0.106546,0.106450,0.107460,1000,1000,1000,1000
10132,0,0.062500,0.000000,0.187500,0.27,-0.25,-0.082300,0.107000,-0.002815,0.002823,0.000000,0.000000,0.039999,0.000000,0.002722,0.004312,0.000825,0.109416,0.099141,0.113209,0.106234,1000,1000,1000,1000
10142,0,0.187500,-0.062500,0.187500,0.60,-0.13,-0.208264,0.107000,-0.008745,0.007364,0.000000,0.000000,0.039999,0.000000,0.006092,0.002415,0.002088,0.105411,0.096404,0.113419,0.112765,1000,1000,1000,1000
10152,0,0.312500,-0.187500,0.187500,0.60,-0.40,-0.246687,0.107000,-0.015010,0.015955,0.000000,0.000000,0.039999,0.000000,0.006169,0.007178,0.002475,0.110483,0.091178,0.117873,0.108466,1000,1000,1000,1000
10163,0,0.437500,-0.312500,0.187500,0.55,-0.42,-0.173995,0.107000,-0.021330,0.024868,0.000000,0.000000,0.039999,0.000000,0.005760,0.007530,0.001747,0.110516,0.091963,0.118543,0.106978,1000,1000,1000,1000
10173,0,0.437500,-0.312500,0.187500,0.02,0.03,-0.084349,0.107000,-0.021884,0.025490,0.000000,0.000000,0.039999,0.000000,0.000437,-0.000102,0.000849,0.107311,0.105816,0.106486,0.108388,1000,1000,1000,1000
10183,0,0.500000,-0.250000,0.187500,0.36,0.20,-0.029088,0.107000,-0.024700,0.021427,0.000000,0.000000,0.039999,0.000000,0.003816,-0.003092,0.000296,0.100387,0.105980,0.107428,0.114204,1000,1000,1000,1000
10193,0,0.500000,-0.125000,0.125000,0.03,0.42,0.009945,0.107000,-0.025053,0.012964,0.000000,0.000000,0.039999,0.000000,0.000533,-0.006847,-0.000095,0.099525,0.113409,0.100782,0.114285,1000,1000,1000,1000
