t,is_crashed,roll,pitch,yaw,p,q,r,throttle,p_cmd,q_cmd,r_cmd,roll_cmd,pitch_cmd,yaw_cmd,roll_pid_out,pitch_pid_out,yaw_pid_out,motor_fl,motor_bl,motor_fr,motor_br,pwm_fl,pwm_bl,pwm_fr,pwm_br
7082,0,2.875000,1.187500,0.000000,0.06,-0.12,0.000000,0.007000,0.000000,0.000000,0.000000,0.000000,0.000000,0.000000,0.000006,0.000036,0.000000,0.000000,0.000000,0.000000,0.000000,0,0,0,0
7095,0,0.000000,0.000000,0.000000,-10.94,-4.63,-0.059375,0.007000,0.000000,0.000000,0.000000,0.000000,0.000000,0.000000,-0.001097,0.001389,0.000006,0.000000,0.000000,0.000000,0.000000,819,819,819,819
7105,0,0.000000,0.000000,0.000000,0.06,0.18,-0.002969,0.007000,0.000000,0.000000,0.000000,0.000000,0.000000,0.000000,0.000006,-0.000053,0.000000,0.000000,0.000000,0.000000,0.000000,819,819,819,819
7116,0,0.000000,0.000000,0.000000,-0.06,0.06,-0.118898,0.007000,0.000000,0.000000,0.000000,0.000000,0.000000,0.000000,-0.000006,-0.000018,0.000012,0.000000,0.000000,0.000000,0.000000,819,819,819,819
7126,0,0.000000,0.000000,0.000000,0.06,-0.06,-0.065320,0.007000,0.000000,0.000000,0.000000,0.000000,0.000000,0.000000,0.000006,0.000018,0.000007,0.000000,0.000000,0.000000,0.000000,819,819,819,819
7136,0,0.000000,0.000000,0.000000,0.06,-0.06,-0.003266,0.007000,0.000000,0.000000,0.000000,0.000000,0.000000,0.000000,0.000006,0.000018,0.000000,0.000000,0.000000,0.000000,0.000000,819,819,819,819
7146,0,0.000000,0.000000,0.000000,0.00,0.18,-0.118913,0.007000,0.000000,0.000000,0.000000,0.000000,0.000000,0.000000,-0.000000,-0.000053,0.000012,0.000000,0.000000,0.000000,0.000000,819,819,819,819
7156,0,0.000000,0.000000,0.000000,-0.18,0.06,-0.005946,0.007000,0.000000,0.000000,0.000000,0.000000,0.000000,0.000000,-0.000018,-0.000018,0.000000,0.000000,0.000000,0.000000,0.000000,819,819,819,819
7166,0,0.000000,0.000000,0.000000,0.00,0.00,-0.119047,0.007000,0.000000,0.000000,0.000000,0.000000,0.000000,0.000000,-0.000000,0.000000,0.000012,0.000000,0.000000,0.000000,0.000000,819,819,819,819
7176,0,0.000000,0.000000,0.000000,0.06,-0.24,-0.005952,0.007000,0.000000,0.000000,0.000000,0.000000,0.000000,0.000000,0.000006,0.000071,0.000000,0.000000,0.000000,0.000000,0.000000,819,819,819,819
7186,0,0.000000,0.000000,0.000000,0.00,-0.06,-0.000298,0.007000,0.000000,0.000000,0.000000,0.000000,0.000000,0.000000,-0.000000,0.000018,0.000000,0.000000,0.000000,0.000000,0.000000,819,819,819,819
7196,0,0.000000,0.000000,0.000000,-0.06,0.00,0.118735,0.007000,0.000000,0.000000,0.000000,0.000000,0.000000,0.000000,-0.000006,0.000000,-0.000012,0.000000,0.000000,0.000000,0.000000,819,819,819,819
7206,0,0.000000,0.000000,0.000000,0.12,-0.06,-0.053438,0.007000,0.000000,0.000000,0.000000,0.000000,0.000000,0.000000,0.000012,0.000018,0.000005,0.000000,0.000000,0.000000,0.000000,819,819,819,819
7216,0,0.000000,0.000000,0.000000,0.12,-0.06,-0.062047,0.007000,0.000000,0.000000,0.000000,0.000000,0.000000,0.000000,0.000012,0.000018,0.000006,0.000000,0.000000,0.000000,0.000000,819,819,819,819
7232,0,0.000000,0.000000,0.000000,0.12,-0.36,0.056273,0.007000,0.000000,0.000000,0.000000,0.000000,0.000000,0.000000,0.000012,0.000107,-0.000006,0.000000,0.000000,0.000000,0.000000,819,819,819,819
7246,0,0.000000,0.000000,0.000000,-0.06,0.30,-0.175311,0.007000,0.000000,0.000000,0.000000,0.000000,0.000000,0.000000,-0.000006,-0.000089,0.000018,0.000000,0.000000,0.000000,0.000000,819,819,819,819
7256,0,0.000000,0.000000,0.000000,0.12,-0.06,-0.365016,0.007000,0.000000,0.000000,0.000000,0.000000,0.000000,0.000000,0.000012,0.000018,0.000037,0.000000,0.000000,0.000000,0.000000,819,819,819,819
7266,0,0.000000,0.000000,0.000000,-0.06,-0.24,-0.137001,0.007000,0.000000,0.000000,0.000000,0.000000,0.000000,0.000000,-0.000006,0.000071,0.000014,0.000000,0.000000,0.000000,0.000000,819,819,819,819
7276,0,0.000000,0.000000,0.000000,-0.06,0.12,0.111900,0.007000,0.000000,0.000000,0.000000,0.000000,0.000000,0.000000,-0.000006,-0.000035,-0.000011,0.000000,0.000000,0.000000,0.000000,819,819,819,819
7286,0,0.000000,0.000000,0.000000,0.00,0.36,0.183720,0.007000,0.000000,0.000000,0.000000,0.000000,0.000000,0.000000,-0.000000,-0.000107,-0.000018,0.000000,0.000000,0.000000,0.000000,819,819,819,819
7296,0,0.000000,0.000000,0.000000,0.06,0.06,0.306061,0.007000,0.000000,0.000000,0.000000,0.000000,0.000000,0.000000,0.000006,-0.000018,-0.000031,0.000000,0.000000,0.000000,0.000000,819,819,819,819
7306,0,0.000000,0.000000,0.000000,0.06,-0.24,0.193428,0.007000,0.000000,0.000000,0.000000,0.000000,0.000000,0.000000,0.000006,0.000071,-0.000019,0.000000,0.000000,0.000000,0.000000,819,819,819,819
7316,0,0.000000,0.000000,0.000000,-0.12,-0.24,0.009671,0.007000,0.000000,0.000000,0.000000,0.000000,0.000000,0.000000,-0.000012,0.000071,-0.000001,0.000000,0.000000,0.000000,0.000000,819,819,819,819
7326,0,0.000000,0.000000,0.000000,-0.06,-0.24,-0.237016,0.007000,0.000000,0.000000,0.000000,0.000000,0.000000,0.000000,-0.000006,0.000072,0.000024,0.000000,0.000000,0.000000,0.000000,819,819,819,819
7336,0,0.000000,0.000000,0.000000,0.00,0.12,-0.427476,0.007000,0.000000,0.000000,0.000000,0.000000,0.000000,0.000000,-0.000000,-0.000035,0.000043,0.000000,0.000000,0.000000,0.000000,819,819,819,819
7346,0,0.000000,0.000000,0.000000,0.00,0.12,-0.258874,0.007000,0.000000,0.000000,0.000000,0.000000,0.000000,0.000000,-0.000000,-0.000035,0.000026,0.000000,0.000000,0.000000,0.000000,819,819,819,819
7356,0,0.000000,0.000000,0.000000,-0.06,0.00,-0.191069,0.007000,0.000000,0.000000,0.000000,0.000000,0.000000,0.000000,-0.000006,0.000000,0.000019,0.000000,0.000000,0.000000,0.000000,819,819,819,819
7366,0,0.000000,0.000000,0.000000,-0.06,0.00,-0.068928,0.007000,0.000000,0.000000,0.000000,0.000000,0.000000,0.000000,-0.000006,0.000000,0.000007,0.000000,0.000000,0.000000,0.000000,819,819,819,819
7376,0,0.000000,0.000000,0.000000,0.00,-0.06,0.174679,0.007000,0.000000,0.000000,0.000000,0.000000,0.000000,0.000000,-0.000000,0.000018,-0.000017,0.000000,0.000000,0.000000,0.000000,819,819,819,819
7386,0,0.000000,0.000000,0.000000,-0.06,0.06,0.721234,0.007000,0.000000,0.000000,0.000000,0.000000,0.000000,0.000000,-0.000006,-0.000018,-0.000072,0.000000,0.000000,0.000000,0.000000,819,819,819,819
7397,0,0.000000,0.000000,0.000000,-0.12,-0.65,0.986062,0.007000,0.000000,0.000000,0.000000,0.000000,0.000000,0.000000,-0.000012,0.000196,-0.000099,0.000000,0.000000,0.000000,0.000000,819,819,819,819
7406,0,0.000000,0.000000,0.000000,0.00,0.71,0.583678,0.007000,0.000000,0.000000,0.000000,0.000000,0.000000,0.000000,-0.000000,-0.000214,-0.000059,0.000000,0.000000,0.000000,0.000000,819,819,819,819
7417,0,0.000000,0.000000,0.000000,0.00,0.65,0.147934,0.007000,0.000000,0.000000,0.000000,0.000000,0.000000,0.000000,-0.000000,-0.000196,-0.000015,0.000000,0.000000,0.000000,0.000000,819,819,819,819
7427,0,0.000000,0.000000,0.000000,-0.06,0.77,-0.526978,0.007000,0.000000,0.000000,0.000000,0.000000,0.000000,0.000000,-0.000006,-0.000232,0.000053,0.000000,0.000000,0.000000,0.000000,819,819,819,819
7436,0,0.000000,0.000000,0.000000,0.00,0.42,0.448651,0.007000,0.000000,0.000000,0.000000,0.000000,0.000000,0.000000,-0.000000,-0.000125,-0.000045,0.000000,0.000000,0.000000,0.000000,819,819,819,819
7447,0,0.000000,0.000000,0.000000,0.00,0.12,0.022433,0.007000,0.000000,0.000000,0.000000,0.000000,0.000000,0.000000,-0.000000,-0.000036,-0.000002,0.000000,0.000000,0.000000,0.000000,819,819,819,819
7457,0,0.000000,0.000000,0.000000,0.06,0.00,1.366747,0.007000,0.000000,0.000000,0.000000,0.000000,0.000000,0.000000,0.000006,0.000000,-0.000137,0.000000,0.000000,0.000000,0.000000,819,819,819,819
7467,0,0.000000,0.000000,0.000000,-0.12,0.06,0.008962,0.007000,0.000000,0.000000,0.000000,0.000000,0.000000,0.000000,-0.000012,-0.000018,-0.000001,0.000000,0.000000,0.000000,0.000000,819,819,819,819
7477,0,0.000000,0.000000,0.000000,-0.06,-0.12,0.416073,0.007000,0.000000,0.000000,0.000000,0.000000,0.000000,0.000000,-0.000006,0.000036,-0.000042,0.000000,0.000000,0.000000,0.000000,819,819,819,819
7487,0,0.000000,0.000000,0.000000,0.12,-0.12,0.673929,0.007000,0.000000,0.000000,0.000000,0.000000,0.000000,0.000000,0.000012,0.000036,-0.000068,0.000000,0.000000,0.000000,0.000000,819,819,819,819
7497,0,0.000000,0.000000,0.000000,0.06,0.24,0.211821,0.007000,0.000000,0.000000,0.000000,0.000000,0.000000,0.000000,0.000006,-0.000071,-0.000021,0.000000,0.000000,0.000000,0.000000,819,819,819,819
7507,0,0.000000,0.000000,0.000000,-0.06,0.53,-0.167534,0.007000,0.000000,0.000000,0.000000,0.000000,0.000000,0.000000,-0.000006,-0.000160,0.000017,0.000000,0.000000,0.000000,0.000000,819,819,819,819
7517,0,0.000000,0.000000,0.000000,-0.18,0.36,-0.186502,0.007000,0.000000,0.000000,0.000000,0.000000,0.000000,0.000000,-0.000018,-0.000107,0.000019,0.000000,0.000000,0.000000,0.000000,819,819,819,819
7527,0,0.000000,0.000000,0.000000,-0.06,0.06,-1.018700,0.007000,0.000000,0.000000,0.000000,0.000000,0.000000,0.000000,-0.000006,-0.000018,0.000102,0.000000,0.000000,0.000000,0.000000,819,819,819,819
7537,0,0.000000,0.000000,0.000000,0.06,-0.47,-0.407185,0.007000,0.000000,0.000000,0.000000,0.000000,0.000000,0.000000,0.000006,0.000143,0.000041,0.000000,0.000000,0.000000,0.000000,819,819,819,819
7551,0,0.000000,0.000000,0.000000,-0.06,0.36,-0.910984,0.007000,0.000000,0.000000,0.000000,0.000000,0.000000,0.000000,-0.000006,-0.000107,0.000091,0.000000,0.000000,0.000000,0.000000,819,819,819,819
7565,0,0.000000,0.000000,0.000000,-0.06,-0.59,-1.114299,0.007000,0.000000,0.000000,0.000000,0.000000,0.000000,0.000000,-0.000006,0.000178,0.000112,0.000000,0.000000,0.000000,0.000000,819,819,819,819
7576,0,0.000000,0.000000,0.000000,-0.06,0.00,-0.055715,0.007000,0.000000,0.000000,0.000000,0.000000,0.000000,0.000000,-0.000006,0.000000,0.000006,0.000000,0.000000,0.000000,0.000000,819,819,819,819
7586,0,0.000000,0.000000,0.000000,0.12,0.65,0.650339,0.007000,0.000000,0.000000,0.000000,0.000000,0.000000,0.000000,0.000012,-0.000196,-0.000065,0.000000,0.000000,0.000000,0.000000,819,819,819,819
7597,0,0.000000,-0.062500,0.000000,0.06,-0.05,-0.086233,0.007000,0.000000,0.000000,0.000000,0.000000,0.000000,0.000000,0.000006,0.000014,0.000009,0.000000,0.000000,0.000000,0.000000,819,819,819,819
7607,0,0.000000,-0.062500,0.000000,-0.12,-0.12,0.708188,0.007000,0.000000,0.000000,0.000000,0.000000,0.000000,0.000000,-0.000012,0.000036,-0.000071,0.000000,0.000000,0.000000,0.000000,819,819,819,819
7617,0,0.000000,-0.062500,0.000000,-0.06,-0.24,0.391659,0.007000,0.000000,0.000000,0.000000,0.000000,0.000000,0.000000,-0.000006,0.000071,-0.000039,0.000000,0.000000,0.000000,0.000000,819,819,819,819
7627,0,0.000000,-0.062500,0.000000,0.12,0.65,-0.217917,0.007000,0.000000,0.000000,0.000000,0.000000,0.000000,0.000000,0.000012,-0.000196,0.000022,0.000000,0.000000,0.000000,0.000000,819,819,819,819
7637,0,0.000000,-0.062500,0.000000,0.06,-0.18,-0.189021,0.007000,0.000000,0.000000,0.000000,0.000000,0.000000,0.000000,0.000006,0.000054,0.000019,0.000000,0.000000,0.000000,0.000000,819,819,819,819
7647,0,0.000000,-0.062500,0.000000,0.00,0.18,-0.187576,0.007000,0.000000,0.000000,0.000000,0.000000,0.000000,0.000000,-0.000000,-0.000053,0.000019,0.000000,0.000000,0.000000,0.000000,819,819,819,819
7657,0,0.000000,-0.062500,0.000000,0.00,0.77,0.049996,0.007000,0.000000,0.000000,0.000000,0.000000,0.000000,0.000000,-0.000000,-0.000232,-0.000005,0.000000,0.000000,0.000000,0.000000,819,819,819,819
7667,0,0.000000,-0.062500,0.000000,0.00,0.95,-0.413125,0.007000,0.000000,0.000000,0.000000,0.000000,0.000000,0.000000,-0.000000,-0.000285,0.000041,0.000000,0.000000,0.000000,0.000000,819,819,819,819
7677,0,0.000000,-0.062500,0.000000,0.06,0.65,1.048094,0.007000,0.000000,0.000000,0.000000,0.000000,0.000000,0.000000,0.000006,-0.000196,-0.000105,0.000000,0.000000,0.000000,0.000000,819,819,819,819
7687,0,0.000000,-0.062500,0.000000,-0.06,-0.36,0.408655,0.007000,0.000000,0.000000,0.000000,0.000000,0.000000,0.000000,-0.000006,0.000107,-0.000041,0.000000,0.000000,0.000000,0.000000,819,819,819,819
7697,0,0.000000,-0.062500,0.000000,0.00,-0.47,0.970433,0.007000,0.000000,0.000000,0.000000,0.000000,0.000000,0.000000,-0.000000,0.000143,-0.000097,0.000000,0.000000,0.000000,0.000000,819,819,819,819
7707,0,0.000000,-0.062500,0.000000,0.00,0.24,-0.307728,0.007000,0.000000,0.000000,0.000000,0.000000,0.000000,0.000000,-0.000000,-0.000071,0.000031,0.000000,0.000000,0.000000,0.000000,819,819,819,819
7717,0,0.000000,-0.062500,0.000000,-0.12,0.24,-0.668511,0.007000,0.000000,0.000000,0.000000,0.000000,0.000000,0.000000,-0.000012,-0.000071,0.000067,0.000000,0.000000,0.000000,0.000000,819,819,819,819
7727,0,0.000000,-0.062500,0.000000,-0.06,0.06,0.441574,0.007000,0.000000,0.000000,0.000000,0.000000,0.000000,0.000000,-0.000006,-0.000018,-0.000044,0.000000,0.000000,0.000000,0.000000,819,819,819,819
7737,0,0.000000,-0.062500,0.000000,0.06,0.24,0.318954,0.007000,0.000000,0.000000,0.000000,0.000000,0.000000,0.000000,0.000006,-0.000071,-0.000032,0.000000,0.000000,0.000000,0.000000,819,819,819,819
7747,0,0.000000,-0.062500,0.000000,0.00,-0.65,0.253448,0.007000,0.000000,0.000000,0.000000,0.000000,0.000000,0.000000,-0.000000,0.000196,-0.000026,0.000000,0.000000,0.000000,0.000000,819,819,819,819
7757,0,0.000000,-0.062500,0.000000,0.00,0.06,0.072047,0.007000,0.000000,0.000000,0.000000,0.000000,0.000000,0.000000,-0.000000,-0.000018,-0.000007,0.000000,0.000000,0.000000,0.000000,819,819,819,819
7767,0,0.000000,-0.062500,0.000000,0.00,-0.65,-0.293273,0.007000,0.000000,0.000000,0.000000,0.000000,0.000000,0.000000,-0.000000,0.000196,0.000029,0.000000,0.000000,0.000000,0.000000,819,819,819,819
7777,0,0.000000,-0.062500,0.000000,-0.06,0.53,-0.549039,0.007000,0.000000,0.000000,0.000000,0.000000,0.000000,0.000000,-0.000006,-0.000160,0.000055,0.000000,0.000000,0.000000,0.000000,819,819,819,819
7787,0,0.000000,-0.062500,0.000000,0.06,0.36,0.150673,0.007000,0.000000,0.000000,0.000000,0.000000,0.000000,0.000000,0.000006,-0.000107,-0.000015,0.000000,0.000000,0.000000,0.000000,819,819,819,819
7798,0,0.000000,-0.062500,0.000000,-0.06,-0.24,0.126284,0.007000,0.000000,0.000000,0.000000,0.000000,0.000000,0.000000,-0.000006,0.000071,-0.000013,0.000000,0.000000,0.000000,0.000000,819,819,819,819
7808,0,0.000000,-0.062500,0.000000,0.06,-0.18,-0.409311,0.007000,0.000000,0.000000,0.000000,0.000000,0.000000,0.000000,0.000006,0.000053,0.000041,0.000000,0.000000,0.000000,0.000000,819,819,819,819
7818,0,0.000000,-0.062500,0.000000,0.00,-0.18,-0.614216,0.007000,0.000000,0.000000,0.000000,0.000000,0.000000,0.000000,-0.000000,0.000053,0.000062,0.000000,0.000000,0.000000,0.000000,819,819,819,819
7827,0,0.000000,-0.062500,0.000000,0.00,0.24,-0.743211,0.007000,0.000000,0.000000,0.000000,0.000000,0.000000,0.000000,-0.000000,-0.000071,0.000074,0.000000,0.000000,0.000000,0.000000,819,819,819,819
7838,0,0.000000,-0.062500,0.000000,-0.12,0.18,0.497214,0.007000,0.000000,0.000000,0.000000,0.000000,0.000000,0.000000,-0.000012,-0.000053,-0.000050,0.000000,0.000000,0.000000,0.000000,819,819,819,819
7848,0,0.000000,-0.062500,0.000000,0.00,0.24,0.499861,0.007000,0.000000,0.000000,0.000000,0.000000,0.000000,0.000000,-0.000000,-0.000071,-0.000050,0.000000,0.000000,0.000000,0.000000,819,819,819,819
7858,0,0.000000,-0.062500,0.000000,0.00,-0.12,0.856243,0.007000,0.000000,0.000000,0.000000,0.000000,0.000000,0.000000,-0.000000,0.000036,-0.000086,0.000000,0.000000,0.000000,0.000000,819,819,819,819
7870,0,0.000000,-0.062500,0.000000,-0.06,-0.12,-0.610313,0.007000,0.000000,0.000000,0.000000,0.000000,0.000000,0.000000,-0.000006,0.000036,0.000061,0.000000,0.000000,0.000000,0.000000,819,819,819,819
7880,0,0.000000,-0.062500,0.000000,0.00,0.24,-0.208641,0.007000,0.000000,0.000000,0.000000,0.000000,0.000000,0.000000,-0.000000,-0.000071,0.000021,0.000000,0.000000,0.000000,0.000000,819,819,819,819
7890,0,0.000000,-0.062500,0.000000,0.00,0.18,0.227068,0.007000,0.000000,0.000000,0.000000,0.000000,0.000000,0.000000,-0.000000,-0.000054,-0.000023,0.000000,0.000000,0.000000,0.000000,819,819,819,819
7899,0,0.000000,-0.062500,0.000000,0.12,0.30,0.130103,0.007000,0.000000,0.000000,0.000000,0.000000,0.000000,0.000000,0.000011,-0.000089,-0.000013,0.000000,0.000000,0.000000,0.000000,819,819,819,819
7909,0,0.000000,-0.062500,0.000000,-0.06,0.30,0.125255,0.007000,0.000000,0.000000,0.000000,0.000000,0.000000,0.000000,-0.000006,-0.000089,-0.000013,0.000000,0.000000,0.000000,0.000000,819,819,819,819
7919,0,0.000000,-0.062500,0.000000,0.06,0.12,-0.112487,0.007000,0.000000,0.000000,0.000000,0.000000,0.000000,0.000000,0.000006,-0.000036,0.000011,0.000000,0.000000,0.000000,0.000000,819,819,819,819
7933,0,0.000000,-0.062500,0.000000,-0.06,0.00,0.053751,0.007000,0.000000,0.000000,0.000000,0.000000,0.000000,0.000000,-0.000006,-0.000000,-0.000005,0.000000,0.000000,0.000000,0.000000,819,819,819,819
7945,0,0.000000,-0.062500,0.000000,0.12,-0.18,0.002688,0.007000,0.000000,0.000000,0.000000,0.000000,0.000000,0.000000,0.000012,0.000053,-0.000000,0.000000,0.000000,0.000000,0.000000,819,819,819,819
7957,0,0.000000,-0.062500,0.000000,-0.12,0.00,-0.059241,0.007000,0.000000,0.000000,0.000000,0.000000,0.000000,0.000000,-0.000012,-0.000000,0.000006,0.000000,0.000000,0.000000,0.000000,819,819,819,819
7968,0,0.000000,-0.062500,0.000000,0.06,0.06,-0.002962,0.007000,0.000000,0.000000,0.000000,0.000000,0.000000,0.000000,0.000006,-0.000018,0.000000,0.000000,0.000000,0.000000,0.000000,819,819,819,819
7978,0,0.000000,-0.062500,0.000000,-0.12,-0.12,-0.000148,0.007000,0.000000,0.000000,0.000000,0.000000,0.000000,0.000000,-0.000012,0.000036,-0.000000,0.000000,0.000000,0.000000,0.000000,819,819,819,819
7988,0,0.000000,-0.062500,0.000000,-0.06,-0.12,-0.059382,0.007000,0.000000,0.000000,0.000000,0.000000,0.000000,0.000000,-0.000006,0.000036,0.000006,0.000000,0.000000,0.000000,0.000000,819,819,819,819
7998,0,0.000000,-0.062500,0.000000,-0.06,-0.06,-0.002969,0.007000,0.000000,0.000000,0.000000,0.000000,0.000000,0.000000,-0.000006,0.000018,0.000000,0.000000,0.000000,0.000000,0.000000,819,819,819,819
8008,0,0.000000,-0.062500,0.000000,0.06,0.18,-0.000148,0.007000,0.000000,0.000000,0.000000,0.000000,0.000000,0.000000,0.000006,-0.000054,-0.000000,0.000000,0.000000,0.000000,0.000000,819,819,819,819
8018,0,0.000000,-0.062500,0.000000,-0.12,0.06,-0.059382,0.007000,0.000000,0.000000,0.000000,0.000000,0.000000,0.000000,-0.000012,-0.000018,0.000006,0.000000,0.000000,0.000000,0.000000,819,819,819,819
8028,0,0.000000,-0.062500,0.000000,0.00,-0.12,-0.002969,0.007000,0.000000,0.000000,0.000000,0.000000,0.000000,0.000000,-0.000000,0.000036,0.000000,0.000000,0.000000,0.000000,0.000000,819,819,819,819
8038,0,0.000000,-0.062500,0.000000,0.00,0.06,0.059227,0.007000,0.000000,0.000000,0.000000,0.000000,0.000000,0.000000,-0.000000,-0.000018,-0.000006,0.000000,0.000000,0.000000,0.000000,819,819,819,819
8048,0,0.000000,-0.062500,0.000000,-0.12,0.00,-0.056414,0.007000,0.000000,0.000000,0.000000,0.000000,0.000000,0.000000,-0.000012,-0.000000,0.000006,0.000000,0.000000,0.000000,0.000000,819,819,819,819
8058,0,0.000000,-0.062500,0.000000,0.06,-0.18,-0.062196,0.007000,0.000000,0.000000,0.000000,0.000000,0.000000,0.000000,0.000006,0.000053,0.000006,0.000000,0.000000,0.000000,0.000000,819,819,819,819
8068,0,0.000000,-0.062500,0.000000,0.06,-0.06,-0.062485,0.007000,0.000000,0.000000,0.000000,0.000000,0.000000,0.000000,0.000006,0.000018,0.000006,0.000000,0.000000,0.000000,0.000000,819,819,819,819
8078,0,0.000000,-0.062500,0.000000,0.06,-0.06,-0.062499,0.007000,0.000000,0.000000,0.000000,0.000000,0.000000,0.000000,0.000006,0.000018,0.000006,0.000000,0.000000,0.000000,0.000000,819,819,819,819
8088,0,0.000000,-0.062500,0.000000,-0.06,-0.18,-0.003125,0.007000,0.000000,0.000000,0.000000,0.000000,0.000000,0.000000,-0.000006,0.000053,0.000000,0.000000,0.000000,0.000000,0.000000,819,819,819,819
8098,0,0.000000,-0.062500,0.000000,0.06,0.06,-0.059531,0.007000,0.000000,0.000000,0.000000,0.000000,0.000000,0.000000,0.000006,-0.000018,0.000006,0.000000,0.000000,0.000000,0.000000,819,819,819,819
8108,0,0.000000,-0.062500,0.000000,0.12,0.06,-0.121727,0.007000,0.000000,0.000000,0.000000,0.000000,0.000000,0.000000,0.000011,-0.000018,0.000012,0.000000,0.000000,0.000000,0.000000,819,819,819,819
8118,0,0.000000,-0.062500,0.000000,-0.06,-0.06,-0.065461,0.007000,0.000000,0.000000,0.000000,0.000000,0.000000,0.000000,-0.000006,0.000018,0.000007,0.000000,0.000000,0.000000,0.000000,819,819,819,819
8128,0,0.000000,-0.062500,0.000000,0.00,0.00,0.056102,0.007000,0.000000,0.000000,0.000000,0.000000,0.000000,0.000000,-0.000000,-0.000000,-0.000006,0.000000,0.000000,0.000000,0.000000,819,819,819,819
8138,0,0.000000,-0.062500,0.000000,0.00,-0.18,0.062180,0.007000,0.000000,0.000000,0.000000,0.000000,0.000000,0.000000,-0.000000,0.000053,-0.000006,0.000000,0.000000,0.000000,0.000000,819,819,819,819
8149,0,0.000000,-0.062500,0.000000,-0.06,-0.12,-0.115641,0.007000,0.000000,0.000000,0.000000,0.000000,0.000000,0.000000,-0.000006,0.000036,0.000012,0.000000,0.000000,0.000000,0.000000,819,819,819,819
8158,0,0.000000,-0.062500,0.000000,0.00,-0.06,-0.005782,0.007000,0.000000,0.000000,0.000000,0.000000,0.000000,0.000000,-0.000000,0.000018,0.000000,0.000000,0.000000,0.000000,0.000000,819,819,819,819
8168,0,0.000000,-0.062500,0.000000,-0.06,0.06,0.059086,0.007000,0.000000,0.000000,0.000000,0.000000,0.000000,0.000000,-0.000006,-0.000018,-0.000006,0.000000,0.000000,0.000000,0.000000,819,819,819,819
8183,0,0.000000,-0.062500,0.000000,-0.06,0.06,0.062329,0.007000,0.000000,0.000000,0.000000,0.000000,0.000000,0.000000,-0.000006,-0.000018,-0.000006,0.000000,0.000000,0.000000,0.000000,819,819,819,819
8197,0,0.000000,-0.062500,0.000000,0.00,0.06,-0.056259,0.007000,0.000000,0.000000,0.000000,0.000000,0.000000,0.000000,-0.000000,-0.000018,0.000006,0.000000,0.000000,0.000000,0.000000,819,819,819,819
8208,0,0.000000,-0.062500,0.000000,0.06,0.00,-0.121563,0.007000,0.000000,0.000000,0.000000,0.000000,0.000000,0.000000,0.000006,-0.000000,0.000012,0.000000,0.000000,0.000000,0.000000,819,819,819,819
8218,0,0.000000,-0.062500,0.000000,0.06,0.06,-0.065453,0.007000,0.000000,0.000000,0.000000,0.000000,0.000000,0.000000,0.000006,-0.000018,0.000007,0.000000,0.000000,0.000000,0.000000,819,819,819,819
8228,0,0.000000,-0.062500,0.000000,0.00,0.00,-0.062648,0.007000,0.000000,0.000000,0.000000,0.000000,0.000000,0.000000,-0.000000,-0.000000,0.000006,0.000000,0.000000,0.000000,0.000000,819,819,819,819
8239,0,0.000000,-0.062500,0.000000,0.06,0.06,-0.003132,0.007000,0.000000,0.000000,0.000000,0.000000,0.000000,0.000000,0.000006,-0.000018,0.000000,0.000000,0.000000,0.000000,0.000000,819,819,819,819
8249,0,0.000000,-0.062500,0.000000,0.00,0.06,-0.000157,0.007000,0.000000,0.000000,0.000000,0.000000,0.000000,0.000000,-0.000000,-0.000018,-0.000000,0.000000,0.000000,0.000000,0.000000,819,819,819,819
8259,0,0.000000,-0.062500,0.000000,-0.06,0.00,0.059367,0.007000,0.000000,0.000000,0.000000,0.000000,0.000000,0.000000,-0.000006,-0.000000,-0.000006,0.000000,0.000000,0.000000,0.000000,819,819,819,819
8269,0,0.000000,-0.062500,0.000000,0.00,-0.12,0.002968,0.007000,0.000000,0.000000,0.000000,0.000000,0.000000,0.000000,-0.000000,0.000036,-0.000000,0.000000,0.000000,0.000000,0.000000,819,819,819,819
8279,0,0.000000,-0.062500,0.000000,-0.12,0.06,-0.118602,0.007000,0.000000,0.000000,0.000000,0.000000,0.000000,0.000000,-0.000012,-0.000018,0.000012,0.000000,0.000000,0.000000,0.000000,819,819,819,819
8289,0,0.000000,-0.062500,0.000000,-0.06,-0.06,-0.124680,0.007000,0.000000,0.000000,0.000000,0.000000,0.000000,0.000000,-0.000006,0.000018,0.000012,0.000000,0.000000,0.000000,0.000000,819,819,819,819
8299,0,0.000000,-0.062500,0.000000,-0.12,-0.30,-0.006234,0.007000,0.000000,0.000000,0.000000,0.000000,0.000000,0.000000,-0.000012,0.000089,0.000000,0.000000,0.000000,0.000000,0.000000,819,819,819,819
8309,0,0.000000,-0.062500,0.000000,0.00,0.00,-0.000312,0.007000,0.000000,0.000000,0.000000,0.000000,0.000000,0.000000,-0.000000,-0.000000,-0.000000,0.000000,0.000000,0.000000,0.000000,819,819,819,819
8319,0,0.000000,-0.062500,0.000000,0.00,-0.18,-0.000016,0.007000,0.000000,0.000000,0.000000,0.000000,0.000000,0.000000,-0.000000,0.000053,-0.000000,0.000000,0.000000,0.000000,0.000000,819,819,819,819
8329,0,0.000000,-0.062500,0.000000,-0.06,-0.12,-0.178126,0.007000,0.000000,0.000000,0.000000,0.000000,0.000000,0.000000,-0.000006,0.000036,0.000018,0.000000,0.000000,0.000000,0.000000,819,819,819,819
8339,0,0.000000,-0.062500,0.000000,-0.06,0.00,-0.068281,0.007000,0.000000,0.000000,0.000000,0.000000,0.000000,0.000000,-0.000006,0.000000,0.000007,0.000000,0.000000,0.000000,0.000000,819,819,819,819
8349,0,0.000000,-0.062500,0.000000,0.06,0.00,0.115336,0.007000,0.000000,0.000000,0.000000,0.000000,0.000000,0.000000,0.000006,0.000000,-0.000012,0.000000,0.000000,0.000000,0.000000,819,819,819,819
8359,0,0.000000,-0.062500,0.000000,0.00,-0.12,0.005767,0.007000,0.000000,0.000000,0.000000,0.000000,0.000000,0.000000,-0.000000,0.000036,-0.000000,0.000000,0.000000,0.000000,0.000000,819,819,819,819
8369,0,0.000000,-0.062500,0.000000,-0.06,-0.12,0.119038,0.007000,0.000000,0.000000,0.000000,0.000000,0.000000,0.000000,-0.000006,0.000036,-0.000012,0.000000,0.000000,0.000000,0.000000,819,819,819,819
8379,0,0.000000,-0.062500,0.000000,-0.06,-0.18,-0.053423,0.007000,0.000000,0.000000,0.000000,0.000000,0.000000,0.000000,-0.000006,0.000054,0.000005,0.000000,0.000000,0.000000,0.000000,819,819,819,819
8389,0,0.000000,-0.062500,0.000000,0.06,0.00,0.056704,0.007000,0.000000,0.000000,0.000000,0.000000,0.000000,0.000000,0.000006,0.000000,-0.000006,0.000000,0.000000,0.000000,0.000000,819,819,819,819
8399,0,0.000000,-0.062500,0.000000,-0.06,-0.12,0.002835,0.007000,0.000000,0.000000,0.000000,0.000000,0.000000,0.000000,-0.000006,0.000036,-0.000000,0.000000,0.000000,0.000000,0.000000,819,819,819,819
8409,0,0.000000,-0.062500,0.000000,-0.12,0.06,-0.177983,0.007000,0.000000,0.000000,0.000000,0.000000,0.000000,0.000000,-0.000012,-0.000018,0.000018,0.000000,0.000000,0.000000,0.000000,819,819,819,819
8419,0,0.000000,-0.062500,0.000000,0.06,0.00,-0.008899,0.007000,0.000000,0.000000,0.000000,0.000000,0.000000,0.000000,0.000006,0.000000,0.000000,0.000000,0.000000,0.000000,0.000000,819,819,819,819
8429,0,0.000000,-0.062500,0.000000,0.00,-0.06,-0.000445,0.007000,0.000000,0.000000,0.000000,0.000000,0.000000,0.000000,-0.000000,0.000018,0.000000,0.000000,0.000000,0.000000,0.000000,819,819,819,819
8439,0,0.000000,-0.062500,0.000000,-0.06,0.00,-0.059397,0.007000,0.000000,0.000000,0.000000,0.000000,0.000000,0.000000,-0.000006,0.000000,0.000006,0.000000,0.000000,0.000000,0.000000,819,819,819,819
8449,0,0.000000,-0.062500,0.000000,-0.06,-0.12,0.115780,0.007000,0.000000,0.000000,0.000000,0.000000,0.000000,0.000000,-0.000006,0.000036,-0.000012,0.000000,0.000000,0.000000,0.000000,819,819,819,819
8459,0,0.000000,-0.062500,0.000000,0.06,0.00,0.065164,0.007000,0.000000,0.000000,0.000000,0.000000,0.000000,0.000000,0.000006,0.000000,-0.000007,0.000000,0.000000,0.000000,0.000000,819,819,819,819
8469,0,0.000000,-0.062500,0.000000,0.12,-0.06,0.003258,0.007000,0.000000,0.000000,0.000000,0.000000,0.000000,0.000000,0.000011,0.000018,-0.000000,0.000000,0.000000,0.000000,0.000000,819,819,819,819
8479,0,0.000000,-0.062500,0.000000,0.00,-0.12,-0.059212,0.007000,0.000000,0.000000,0.000000,0.000000,0.000000,0.000000,-0.000000,0.000036,0.000006,0.000000,0.000000,0.000000,0.000000,819,819,819,819
8489,0,0.000000,-0.062500,0.000000,0.00,-0.06,-0.062336,0.007000,0.000000,0.000000,0.000000,0.000000,0.000000,0.000000,-0.000000,0.000018,0.000006,0.000000,0.000000,0.000000,0.000000,819,819,819,819
8503,0,0.000000,-0.062500,0.000000,0.00,-0.18,-0.062492,0.007000,0.000000,0.000000,0.000000,0.000000,0.000000,0.000000,-0.000000,0.000054,0.000006,0.000000,0.000000,0.000000,0.000000,819,819,819,819
8517,0,0.000000,-0.062500,0.000000,0.06,0.06,-0.062500,0.007000,0.000000,0.000000,0.000000,0.000000,0.000000,0.000000,0.000006,-0.000018,0.000006,0.000000,0.000000,0.000000,0.000000,819,819,819,819
8529,0,0.000000,-0.062500,0.000000,0.00,0.12,-0.181250,0.007000,0.000000,0.000000,0.000000,0.000000,0.000000,0.000000,-0.000000,-0.000036,0.000018,0.000000,0.000000,0.000000,0.000000,819,819,819,819
8540,0,0.000000,-0.062500,0.000000,-0.06,-0.12,0.050312,0.007000,0.000000,0.000000,0.000000,0.000000,0.000000,0.000000,-0.000006,0.000036,-0.000005,0.000000,0.000000,0.000000,0.000000,819,819,819,819
8550,0,0.000000,-0.062500,0.000000,-0.06,-0.12,0.121266,0.007000,0.000000,0.000000,0.000000,0.000000,0.000000,0.000000,-0.000006,0.000036,-0.000012,0.000000,0.000000,0.000000,0.000000,819,819,819,819
8560,0,0.000000,-0.062500,0.000000,0.06,0.00,0.065438,0.007000,0.000000,0.000000,0.000000,0.000000,0.000000,0.000000,0.000006,0.000000,-0.000007,0.000000,0.000000,0.000000,0.000000,819,819,819,819
8570,0,0.000000,-0.062500,0.000000,0.00,0.12,0.003272,0.007000,0.000000,0.000000,0.000000,0.000000,0.000000,0.000000,-0.000000,-0.000036,-0.000000,0.000000,0.000000,0.000000,0.000000,819,819,819,819
8580,0,0.000000,-0.062500,0.000000,0.06,0.06,-0.059211,0.007000,0.000000,0.000000,0.000000,0.000000,0.000000,0.000000,0.000006,-0.000018,0.000006,0.000000,0.000000,0.000000,0.000000,819,819,819,819
8590,0,0.000000,-0.062500,0.000000,-0.06,0.00,-0.002961,0.007000,0.000000,0.000000,0.000000,0.000000,0.000000,0.000000,-0.000006,0.000000,0.000000,0.000000,0.000000,0.000000,0.000000,819,819,819,819
8600,0,0.000000,-0.062500,0.000000,0.06,-0.12,0.059227,0.007000,0.000000,0.000000,0.000000,0.000000,0.000000,0.000000,0.000006,0.000036,-0.000006,0.000000,0.000000,0.000000,0.000000,819,819,819,819
8610,0,0.000000,-0.062500,0.000000,-0.06,-0.18,0.002961,0.007000,0.000000,0.000000,0.000000,0.000000,0.000000,0.000000,-0.000006,0.000054,-0.000000,0.000000,0.000000,0.000000,0.000000,819,819,819,819
8620,0,0.000000,-0.062500,0.000000,0.06,0.06,-0.059227,0.007000,0.000000,0.000000,0.000000,0.000000,0.000000,0.000000,0.000006,-0.000018,0.000006,0.000000,0.000000,0.000000,0.000000,819,819,819,819
8630,0,0.000000,-0.062500,0.000000,0.06,0.18,-0.062336,0.007000,0.000000,0.000000,0.000000,0.000000,0.000000,0.000000,0.000006,-0.000053,0.000006,0.000000,0.000000,0.000000,0.000000,819,819,819,819
8640,0,0.000000,-0.062500,0.000000,-0.12,-0.06,-0.003117,0.007000,0.000000,0.000000,0.000000,0.000000,0.000000,0.000000,-0.000012,0.000018,0.000000,0.000000,0.000000,0.000000,0.000000,819,819,819,819
8650,0,0.000000,-0.062500,0.000000,0.00,0.00,-0.059531,0.007000,0.000000,0.000000,0.000000,0.000000,0.000000,0.000000,-0.000000,0.000000,0.000006,0.000000,0.000000,0.000000,0.000000,819,819,819,819
8660,0,0.000000,-0.062500,0.000000,0.00,0.24,-0.062352,0.007000,0.000000,0.000000,0.000000,0.000000,0.000000,0.000000,-0.000000,-0.000071,0.000006,0.000000,0.000000,0.000000,0.000000,819,819,819,819
8670,0,0.000000,-0.062500,0.000000,0.12,0.24,-0.003118,0.007000,0.000000,0.000000,0.000000,0.000000,0.000000,0.000000,0.000011,-0.000071,0.000000,0.000000,0.000000,0.000000,0.000000,819,819,819,819
8680,0,0.000000,-0.062500,0.000000,0.06,0.30,0.059219,0.007000,0.000000,0.000000,0.000000,0.000000,0.000000,0.000000,0.000006,-0.000089,-0.000006,0.000000,0.000000,0.000000,0.000000,819,819,819,819
8690,0,0.000000,-0.062500,0.000000,0.06,0.00,0.002961,0.007000,0.000000,0.000000,0.000000,0.000000,0.000000,0.000000,0.000006,0.000000,-0.000000,0.000000,0.000000,0.000000,0.000000,819,819,819,819
8700,0,0.000000,-0.062500,0.000000,-0.06,-0.18,0.059523,0.007000,0.000000,0.000000,0.000000,0.000000,0.000000,0.000000,-0.000006,0.000054,-0.000006,0.000000,0.000000,0.000000,0.000000,819,819,819,819
8710,0,0.000000,-0.062500,0.000000,-0.06,0.06,0.002976,0.007000,0.000000,0.000000,0.000000,0.000000,0.000000,0.000000,-0.000006,-0.000018,-0.000000,0.000000,0.000000,0.000000,0.000000,819,819,819,819
8720,0,0.000000,-0.062500,0.000000,0.00,0.00,0.000149,0.007000,0.000000,0.000000,0.000000,0.000000,0.000000,0.000000,-0.000000,0.000000,-0.000000,0.000000,0.000000,0.000000,0.000000,819,819,819,819
8730,0,0.000000,-0.062500,0.000000,0.00,0.00,0.000007,0.007000,0.000000,0.000000,0.000000,0.000000,0.000000,0.000000,-0.000000,0.000000,-0.000000,0.000000,0.000000,0.000000,0.000000,819,819,819,819
8740,0,0.000000,-0.062500,0.000000,0.12,-0.06,0.118750,0.007000,0.000000,0.000000,0.000000,0.000000,0.000000,0.000000,0.000011,0.000018,-0.000012,0.000000,0.000000,0.000000,0.000000,819,819,819,819
8750,0,0.000000,-0.062500,0.000000,-0.24,-0.18,-0.112812,0.007000,0.000000,0.000000,0.000000,0.000000,0.000000,0.000000,-0.000024,0.000054,0.000011,0.000000,0.000000,0.000000,0.000000,819,819,819,819
8760,0,0.000000,-0.062500,0.000000,-0.06,0.00,-0.183766,0.007000,0.000000,0.000000,0.000000,0.000000,0.000000,0.000000,-0.000006,0.000000,0.000018,0.000000,0.000000,0.000000,0.000000,819,819,819,819
8770,0,0.000000,-0.062500,0.000000,0.00,-0.06,-0.068563,0.007000,0.000000,0.000000,0.000000,0.000000,0.000000,0.000000,-0.000000,0.000018,0.000007,0.000000,0.000000,0.000000,0.000000,819,819,819,819
8783,0,0.000000,-0.062500,0.000000,-0.06,0.06,-0.003428,0.007000,0.000000,0.000000,0.000000,0.000000,0.000000,0.000000,-0.000006,-0.000018,0.000000,0.000000,0.000000,0.000000,0.000000,819,819,819,819
8793,0,0.000000,-0.062500,0.000000,0.00,0.06,0.177954,0.007000,0.000000,0.000000,0.000000,0.000000,0.000000,0.000000,-0.000000,-0.000018,-0.000018,0.000000,0.000000,0.000000,0.000000,819,819,819,819
8802,0,0.000000,-0.062500,0.000000,0.00,-0.06,0.008898,0.007000,0.000000,0.000000,0.000000,0.000000,0.000000,0.000000,-0.000000,0.000018,-0.000000,0.000000,0.000000,0.000000,0.000000,819,819,819,819
8818,0,0.000000,-0.062500,0.000000,-0.06,0.00,0.000445,0.007000,0.000000,0.000000,0.000000,0.000000,0.000000,0.000000,-0.000006,0.000000,-0.000000,0.000000,0.000000,0.000000,0.000000,819,819,819,819
8832,0,0.000000,-0.062500,0.000000,-0.06,0.18,-0.059353,0.007000,0.000000,0.000000,0.000000,0.000000,0.000000,0.000000,-0.000006,-0.000053,0.000006,0.000000,0.000000,0.000000,0.000000,819,819,819,819
8842,0,0.000000,-0.062500,0.000000,0.12,0.06,-0.062343,0.007000,0.000000,0.000000,0.000000,0.000000,0.000000,0.000000,0.000011,-0.000018,0.000006,0.000000,0.000000,0.000000,0.000000,819,819,819,819
8852,0,0.000000,-0.062500,0.000000,0.00,-0.06,0.056258,0.007000,0.000000,0.000000,0.000000,0.000000,0.000000,0.000000,-0.000000,0.000018,-0.000006,0.000000,0.000000,0.000000,0.000000,819,819,819,819
8862,0,0.000000,-0.062500,0.000000,0.06,-0.06,0.180938,0.007000,0.000000,0.000000,0.000000,0.000000,0.000000,0.000000,0.000006,0.000018,-0.000018,0.000000,0.000000,0.000000,0.000000,819,819,819,819
8872,0,0.000000,-0.062500,0.000000,0.00,0.06,0.068422,0.007000,0.000000,0.000000,0.000000,0.000000,0.000000,0.000000,-0.000000,-0.000018,-0.000007,0.000000,0.000000,0.000000,0.000000,819,819,819,819
8881,0,0.000000,-0.062500,0.000000,-0.06,0.12,0.003421,0.007000,0.000000,0.000000,0.000000,0.000000,0.000000,0.000000,-0.000006,-0.000036,-0.000000,0.000000,0.000000,0.000000,0.000000,819,819,819,819
8891,0,0.000000,-0.062500,0.000000,0.00,-0.06,-0.118579,0.007000,0.000000,0.000000,0.000000,0.000000,0.000000,0.000000,-0.000000,0.000018,0.000012,0.000000,0.000000,0.000000,0.000000,819,819,819,819
8901,0,0.000000,-0.062500,0.000000,0.06,0.12,-0.005929,0.007000,0.000000,0.000000,0.000000,0.000000,0.000000,0.000000,0.000006,-0.000036,0.000000,0.000000,0.000000,0.000000,0.000000,819,819,819,819
8910,0,0.000000,-0.062500,0.000000,-0.06,-0.06,0.059079,0.007000,0.000000,0.000000,0.000000,0.000000,0.000000,0.000000,-0.000006,0.000018,-0.000006,0.000000,0.000000,0.000000,0.000000,819,819,819,819
8920,0,0.000000,-0.062500,0.000000,0.06,0.06,0.002954,0.007000,0.000000,0.000000,0.000000,0.000000,0.000000,0.000000,0.000006,-0.000018,-0.000000,0.000000,0.000000,0.000000,0.000000,819,819,819,819
8930,0,0.000000,-0.062500,0.000000,0.00,0.00,0.000148,0.007000,0.000000,0.000000,0.000000,0.000000,0.000000,0.000000,-0.000000,0.000000,-0.000000,0.000000,0.000000,0.000000,0.000000,819,819,819,819
8940,0,0.000000,-0.062500,0.000000,0.06,0.18,0.000007,0.007000,0.000000,0.000000,0.000000,0.000000,0.000000,0.000000,0.000006,-0.000053,-0.000000,0.000000,0.000000,0.000000,0.000000,819,819,819,819
8951,0,0.000000,-0.062500,0.000000,-0.06,-0.06,0.059375,0.007000,0.000000,0.000000,0.000000,0.000000,0.000000,0.000000,-0.000006,0.000018,-0.000006,0.000000,0.000000,0.000000,0.000000,819,819,819,819
8961,0,0.000000,-0.062500,0.000000,-0.12,-0.12,0.062344,0.007000,0.000000,0.000000,0.000000,0.000000,0.000000,0.000000,-0.000012,0.000036,-0.000006,0.000000,0.000000,0.000000,0.000000,819,819,819,819
8971,0,0.000000,-0.062500,0.000000,-0.06,-0.06,0.121867,0.007000,0.000000,0.000000,0.000000,0.000000,0.000000,0.000000,-0.000006,0.000018,-0.000012,0.000000,0.000000,0.000000,0.000000,819,819,819,819
8980,0,0.000000,-0.062500,0.000000,0.00,0.00,-0.053282,0.007000,0.000000,0.000000,0.000000,0.000000,0.000000,0.000000,-0.000000,0.000000,0.000005,0.000000,0.000000,0.000000,0.000000,819,819,819,819
8991,0,0.000000,-0.062500,0.000000,-0.06,-0.06,-0.180789,0.007000,0.000000,0.000000,0.000000,0.000000,0.000000,0.000000,-0.000006,0.000018,0.000018,0.000000,0.000000,0.000000,0.000000,819,819,819,819
9001,0,0.000000,-0.062500,0.000000,0.12,0.12,-0.187164,0.007000,0.000000,0.000000,0.000000,0.000000,0.000000,0.000000,0.000011,-0.000036,0.000019,0.000000,0.000000,0.000000,0.000000,819,819,819,819
9011,0,0.000000,-0.062500,0.000000,0.06,-0.06,-0.009358,0.007000,0.000000,0.000000,0.000000,0.000000,0.000000,0.000000,0.000006,0.000018,0.000000,0.000000,0.000000,0.000000,0.000000,819,819,819,819
9021,0,0.000000,-0.062500,0.000000,-0.06,-0.06,-0.000468,0.007000,0.000000,0.000000,0.000000,0.000000,0.000000,0.000000,-0.000006,0.000018,0.000000,0.000000,0.000000,0.000000,0.000000,819,819,819,819
9031,0,0.000000,-0.062500,0.000000,-0.06,0.18,0.059352,0.007000,0.000000,0.000000,0.000000,0.000000,0.000000,0.000000,-0.000006,-0.000053,-0.000006,0.000000,0.000000,0.000000,0.000000,819,819,819,819
9041,0,0.000000,-0.062500,0.000000,0.00,0.06,0.002968,0.007000,0.000000,0.000000,0.000000,0.000000,0.000000,0.000000,-0.000000,-0.000018,-0.000000,0.000000,0.000000,0.000000,0.000000,819,819,819,819
9051,0,0.000000,-0.062500,0.000000,-0.06,0.00,0.000148,0.007000,0.000000,0.000000,0.000000,0.000000,0.000000,0.000000,-0.000006,0.000000,-0.000000,0.000000,0.000000,0.000000,0.000000,819,819,819,819
9061,0,0.000000,-0.062500,0.000000,-0.12,-0.12,-0.118743,0.007000,0.000000,0.000000,0.000000,0.000000,0.000000,0.000000,-0.000012,0.000036,0.000012,0.000000,0.000000,0.000000,0.000000,819,819,819,819
9071,0,0.000000,-0.062500,0.000000,-0.12,0.06,-0.124687,0.007000,0.000000,0.000000,0.000000,0.000000,0.000000,0.000000,-0.000012,-0.000018,0.000012,0.000000,0.000000,0.000000,0.000000,819,819,819,819
9081,0,0.000000,-0.062500,0.000000,0.00,0.06,-0.184359,0.007000,0.000000,0.000000,0.000000,0.000000,0.000000,0.000000,-0.000000,-0.000018,0.000018,0.000000,0.000000,0.000000,0.000000,819,819,819,819
9091,0,0.000000,-0.062500,0.000000,0.06,0.00,-0.246718,0.007000,0.000000,0.000000,0.000000,0.000000,0.000000,0.000000,0.000005,0.000000,0.000025,0.000000,0.000000,0.000000,0.000000,819,819,819,819
9101,0,0.000000,-0.062500,0.000000,0.06,-0.06,-0.249836,0.007000,0.000000,0.000000,0.000000,0.000000,0.000000,0.000000,0.000005,0.000018,0.000025,0.000000,0.000000,0.000000,0.000000,819,819,819,819
9111,0,0.000000,-0.062500,0.000000,-0.06,0.06,-0.071867,0.007000,0.000000,0.000000,0.000000,0.000000,0.000000,0.000000,-0.000006,-0.000018,0.000007,0.000000,0.000000,0.000000,0.000000,819,819,819,819
9121,0,0.000000,-0.062500,0.000000,0.00,0.00,-0.062968,0.007000,0.000000,0.000000,0.000000,0.000000,0.000000,0.000000,-0.000000,0.000000,0.000006,0.000000,0.000000,0.000000,0.000000,819,819,819,819
9137,0,0.000000,-0.062500,0.000000,0.00,-0.06,0.115602,0.007000,0.000000,0.000000,0.000000,0.000000,0.000000,0.000000,-0.000000,0.000018,-0.000012,0.000000,0.000000,0.000000,0.000000,819,819,819,819
9150,0,0.000000,-0.062500,0.000000,-0.12,0.24,0.183905,0.007000,0.000000,0.000000,0.000000,0.000000,0.000000,0.000000,-0.000012,-0.000071,-0.000018,0.000000,0.000000,0.000000,0.000000,819,819,819,819
9161,0,0.000000,-0.062500,0.000000,-0.12,0.24,0.187320,0.007000,0.000000,0.000000,0.000000,0.000000,0.000000,0.000000,-0.000012,-0.000071,-0.000019,0.000000,0.000000,0.000000,0.000000,819,819,819,819
9171,0,0.000000,-0.062500,0.000000,-0.06,-0.18,0.068741,0.007000,0.000000,0.000000,0.000000,0.000000,0.000000,0.000000,-0.000006,0.000053,-0.000007,0.000000,0.000000,0.000000,0.000000,819,819,819,819
9181,0,0.000000,-0.062500,0.000000,-0.06,-0.12,0.003437,0.007000,0.000000,0.000000,0.000000,0.000000,0.000000,0.000000,-0.000006,0.000036,-0.000000,0.000000,0.000000,0.000000,0.000000,819,819,819,819
9191,0,0.000000,-0.062500,0.000000,0.00,0.12,-0.118578,0.007000,0.000000,0.000000,0.000000,0.000000,0.000000,0.000000,-0.000000,-0.000036,0.000012,0.000000,0.000000,0.000000,0.000000,819,819,819,819
9201,0,0.000000,-0.062500,0.000000,0.06,0.12,-0.124679,0.007000,0.000000,0.000000,0.000000,0.000000,0.000000,0.000000,0.000005,-0.000036,0.000013,0.000000,0.000000,0.000000,0.000000,819,819,819,819
9211,0,0.000000,-0.062500,0.000000,0.06,-0.06,-0.065609,0.007000,0.000000,0.000000,0.000000,0.000000,0.000000,0.000000,0.000005,0.000018,0.000007,0.000000,0.000000,0.000000,0.000000,819,819,819,819
9221,0,0.000000,-0.062500,0.000000,0.00,0.12,0.056095,0.007000,0.000000,0.000000,0.000000,0.000000,0.000000,0.000000,-0.000000,-0.000036,-0.000006,0.000000,0.000000,0.000000,0.000000,819,819,819,819
9231,0,0.000000,-0.062500,0.000000,0.06,0.00,0.002805,0.007000,0.000000,0.000000,0.000000,0.000000,0.000000,0.000000,0.000005,-0.000000,-0.000000,0.000000,0.000000,0.000000,0.000000,819,819,819,819
9241,0,0.000000,-0.062500,0.000000,-0.06,-0.12,0.000140,0.007000,0.000000,0.000000,0.000000,0.000000,0.000000,0.000000,-0.000006,0.000036,-0.000000,0.000000,0.000000,0.000000,0.000000,819,819,819,819
9252,0,0.000000,-0.062500,0.000000,0.00,-0.06,0.118757,0.007000,0.000000,0.000000,0.000000,0.000000,0.000000,0.000000,-0.000000,0.000018,-0.000012,0.000000,0.000000,0.000000,0.000000,819,819,819,819
9261,0,0.000000,-0.062500,0.000000,0.00,-0.18,0.065313,0.007000,0.000000,0.000000,0.000000,0.000000,0.000000,0.000000,-0.000000,0.000053,-0.000007,0.000000,0.000000,0.000000,0.000000,819,819,819,819
9271,0,0.000000,-0.062500,0.000000,0.18,-0.06,0.181391,0.007000,0.000000,0.000000,0.000000,0.000000,0.000000,0.000000,0.000017,0.000018,-0.000018,0.000000,0.000000,0.000000,0.000000,819,819,819,819
9281,0,0.000000,-0.062500,0.000000,0.06,0.12,0.127820,0.007000,0.000000,0.000000,0.000000,0.000000,0.000000,0.000000,0.000005,-0.000036,-0.000013,0.000000,0.000000,0.000000,0.000000,819,819,819,819
9292,0,0.000000,-0.062500,0.000000,0.00,0.12,0.065766,0.007000,0.000000,0.000000,0.000000,0.000000,0.000000,0.000000,-0.000000,-0.000036,-0.000007,0.000000,0.000000,0.000000,0.000000,819,819,819,819
9302,0,0.000000,-0.062500,0.000000,0.00,0.12,0.181413,0.007000,0.000000,0.000000,0.000000,0.000000,0.000000,0.000000,-0.000000,-0.000036,-0.000018,0.000000,0.000000,0.000000,0.000000,819,819,819,819
9312,0,0.000000,-0.062500,0.000000,0.06,0.00,0.068446,0.007000,0.000000,0.000000,0.000000,0.000000,0.000000,0.000000,0.000005,-0.000000,-0.000007,0.000000,0.000000,0.000000,0.000000,819,819,819,819
9322,0,0.000000,-0.062500,0.000000,0.12,0.06,-0.055953,0.007000,0.000000,0.000000,0.000000,0.000000,0.000000,0.000000,0.000011,-0.000018,0.000006,0.000000,0.000000,0.000000,0.000000,819,819,819,819
9332,0,0.000000,-0.062500,0.000000,0.06,-0.06,-0.002798,0.007000,0.000000,0.000000,0.000000,0.000000,0.000000,0.000000,0.000006,0.000018,0.000000,0.000000,0.000000,0.000000,0.000000,819,819,819,819
9342,0,0.000000,-0.062500,0.000000,0.00,0.06,0.059235,0.007000,0.000000,0.000000,0.000000,0.000000,0.000000,0.000000,-0.000000,-0.000018,-0.000006,0.000000,0.000000,0.000000,0.000000,819,819,819,819
9352,0,0.000000,-0.062500,0.000000,0.00,0.12,0.181087,0.007000,0.000000,0.000000,0.000000,0.000000,0.000000,0.000000,-0.000000,-0.000036,-0.000018,0.000000,0.000000,0.000000,0.000000,819,819,819,819
9362,0,0.000000,-0.062500,0.000000,-0.06,0.18,0.246554,0.007000,0.000000,0.000000,0.000000,0.000000,0.000000,0.000000,-0.000006,-0.000053,-0.000025,0.000000,0.000000,0.000000,0.000000,819,819,819,819
9372,0,0.000000,-0.062500,0.000000,0.00,-0.06,0.190453,0.007000,0.000000,0.000000,0.000000,0.000000,0.000000,0.000000,-0.000000,0.000018,-0.000019,0.000000,0.000000,0.000000,0.000000,819,819,819,819
9382,0,0.000000,-0.062500,0.000000,-0.06,-0.12,0.187648,0.007000,0.000000,0.000000,0.000000,0.000000,0.000000,0.000000,-0.000006,0.000036,-0.000019,0.000000,0.000000,0.000000,0.000000,819,819,819,819
9392,0,0.000000,-0.062500,0.000000,0.00,0.00,0.068757,0.007000,0.000000,0.000000,0.000000,0.000000,0.000000,0.000000,-0.000000,-0.000000,-0.000007,0.000000,0.000000,0.000000,0.000000,819,819,819,819
9402,0,0.000000,-0.062500,0.000000,-0.12,0.06,0.003438,0.007000,0.000000,0.000000,0.000000,0.000000,0.000000,0.000000,-0.000012,-0.000018,-0.000000,0.000000,0.000000,0.000000,0.000000,819,819,819,819
9412,0,0.000000,-0.062500,0.000000,0.06,0.12,-0.177953,0.007000,0.000000,0.000000,0.000000,0.000000,0.000000,0.000000,0.000005,-0.000036,0.000018,0.000000,0.000000,0.000000,0.000000,819,819,819,819
9422,0,0.000000,-0.062500,0.000000,-0.12,0.00,-0.246398,0.007000,0.000000,0.000000,0.000000,0.000000,0.000000,0.000000,-0.000012,-0.000000,0.000025,0.000000,0.000000,0.000000,0.000000,819,819,819,819
9432,0,0.000000,-0.062500,0.000000,-0.06,0.00,-0.012320,0.007000,0.000000,0.000000,0.000000,0.000000,0.000000,0.000000,-0.000006,-0.000000,0.000001,0.000000,0.000000,0.000000,0.000000,819,819,819,819
9442,0,0.000000,-0.062500,0.000000,0.00,0.12,-0.000616,0.007000,0.000000,0.000000,0.000000,0.000000,0.000000,0.000000,-0.000000,-0.000036,0.000000,0.000000,0.000000,0.000000,0.000000,819,819,819,819
9456,0,0.000000,-0.062500,0.000000,0.06,0.12,0.059344,0.007000,0.000000,0.000000,0.000000,0.000000,0.000000,0.000000,0.000005,-0.000036,-0.000006,0.000000,0.000000,0.000000,0.000000,819,819,819,819
9469,0,0.000000,-0.062500,0.000000,0.06,-0.06,0.299842,0.007000,0.000000,0.000000,0.000000,0.000000,0.000000,0.000000,0.000005,0.000018,-0.000030,0.000000,0.000000,0.000000,0.000000,819,819,819,819
9481,0,0.000000,-0.062500,0.000000,-0.06,0.00,0.252492,0.007000,0.000000,0.000000,0.000000,0.000000,0.000000,0.000000,-0.000006,-0.000000,-0.000025,0.000000,0.000000,0.000000,0.000000,819,819,819,819
9492,0,0.000000,-0.062500,0.000000,0.00,-0.06,0.012625,0.007000,0.000000,0.000000,0.000000,0.000000,0.000000,0.000000,-0.000000,0.000018,-0.000001,0.000000,0.000000,0.000000,0.000000,819,819,819,819
9502,0,0.000000,-0.062500,0.000000,-0.12,0.00,0.000631,0.007000,0.000000,0.000000,0.000000,0.000000,0.000000,0.000000,-0.000012,-0.000000,-0.000000,0.000000,0.000000,0.000000,0.000000,819,819,819,819
9512,0,0.000000,-0.062500,0.000000,-0.06,0.18,0.000032,0.007000,0.000000,0.000000,0.000000,0.000000,0.000000,0.000000,-0.000006,-0.000054,-0.000000,0.000000,0.000000,0.000000,0.000000,819,819,819,819
9522,0,0.000000,-0.062500,0.000000,0.00,-0.06,-0.178123,0.007000,0.000000,0.000000,0.000000,0.000000,0.000000,0.000000,-0.000000,0.000018,0.000018,0.000000,0.000000,0.000000,0.000000,819,819,819,819
9532,0,0.000000,-0.062500,0.000000,0.18,0.00,-0.068281,0.007000,0.000000,0.000000,0.000000,0.000000,0.000000,0.000000,0.000017,-0.000000,0.000007,0.000000,0.000000,0.000000,0.000000,819,819,819,819
9542,0,0.000000,-0.062500,0.000000,-0.06,0.24,-0.003414,0.007000,0.000000,0.000000,0.000000,0.000000,0.000000,0.000000,-0.000006,-0.000071,0.000000,0.000000,0.000000,0.000000,0.000000,819,819,819,819
9552,0,0.000000,-0.062500,0.000000,0.00,0.12,-0.000171,0.007000,0.000000,0.000000,0.000000,0.000000,0.000000,0.000000,-0.000000,-0.000036,-0.000000,0.000000,0.000000,0.000000,0.000000,819,819,819,819
9562,0,0.000000,-0.062500,0.000000,0.00,0.06,0.118741,0.007000,0.000000,0.000000,0.000000,0.000000,0.000000,0.000000,-0.000000,-0.000018,-0.000012,0.000000,0.000000,0.000000,0.000000,819,819,819,819
9572,0,0.000000,-0.062500,0.000000,0.00,0.12,0.184062,0.007000,0.000000,0.000000,0.000000,0.000000,0.000000,0.000000,-0.000000,-0.000036,-0.000019,0.000000,0.000000,0.000000,0.000000,819,819,819,819
9582,0,0.000000,-0.062500,0.000000,0.06,-0.18,0.187328,0.007000,0.000000,0.000000,0.000000,0.000000,0.000000,0.000000,0.000005,0.000053,-0.000019,0.000000,0.000000,0.000000,0.000000,819,819,819,819
9592,0,0.000000,-0.062500,0.000000,0.06,-0.06,0.365616,0.007000,0.000000,0.000000,0.000000,0.000000,0.000000,0.000000,0.000005,0.000018,-0.000037,0.000000,0.000000,0.000000,0.000000,819,819,819,819
9602,0,0.000000,-0.062500,0.000000,0.00,-0.12,0.196406,0.007000,0.000000,0.000000,0.000000,0.000000,0.000000,0.000000,-0.000000,0.000036,-0.000020,0.000000,0.000000,0.000000,0.000000,819,819,819,819
9612,0,0.000000,-0.062500,0.000000,0.00,0.00,-0.049555,0.007000,0.000000,0.000000,0.000000,0.000000,0.000000,0.000000,-0.000000,-0.000000,0.000005,0.000000,0.000000,0.000000,0.000000,819,819,819,819
9622,0,0.000000,-0.062500,0.000000,-0.06,0.18,-0.358728,0.007000,0.000000,0.000000,0.000000,0.000000,0.000000,0.000000,-0.000006,-0.000054,0.000036,0.000000,0.000000,0.000000,0.000000,819,819,819,819
9635,0,0.000000,-0.062500,0.000000,0.00,0.00,-0.314811,0.007000,0.000000,0.000000,0.000000,0.000000,0.000000,0.000000,-0.000000,-0.000000,0.000031,0.000000,0.000000,0.000000,0.000000,819,819,819,819
9645,0,0.000000,-0.062500,0.000000,0.00,0.00,-0.371991,0.007000,0.000000,0.000000,0.000000,0.000000,0.000000,0.000000,-0.000000,-0.000000,0.000037,0.000000,0.000000,0.000000,0.000000,819,819,819,819
9654,0,0.000000,-0.062500,0.000000,0.00,-0.12,-0.077975,0.007000,0.000000,0.000000,0.000000,0.000000,0.000000,0.000000,-0.000000,0.000036,0.000008,0.000000,0.000000,0.000000,0.000000,819,819,819,819
9664,0,0.000000,-0.062500,0.000000,0.00,0.24,0.055476,0.007000,0.000000,0.000000,0.000000,0.000000,0.000000,0.000000,-0.000000,-0.000071,-0.000006,0.000000,0.000000,0.000000,0.000000,819,819,819,819
9674,0,0.000000,-0.062500,0.000000,0.00,0.12,0.299649,0.007000,0.000000,0.000000,0.000000,0.000000,0.000000,0.000000,-0.000000,-0.000036,-0.000030,0.000000,0.000000,0.000000,0.000000,819,819,819,819
9684,0,0.000000,-0.062500,0.000000,-0.06,-0.06,0.371232,0.007000,0.000000,0.000000,0.000000,0.000000,0.000000,0.000000,-0.000006,0.000018,-0.000037,0.000000,0.000000,0.000000,0.000000,819,819,819,819
9694,0,0.000000,-0.062500,0.000000,-0.18,0.18,0.315437,0.007000,0.000000,0.000000,0.000000,0.000000,0.000000,0.000000,-0.000018,-0.000054,-0.000032,0.000000,0.000000,0.000000,0.000000,819,819,819,819
9704,0,0.000000,-0.062500,0.000000,0.06,0.06,-0.162353,0.007000,0.000000,0.000000,0.000000,0.000000,0.000000,0.000000,0.000005,-0.000018,0.000016,0.000000,0.000000,0.000000,0.000000,819,819,819,819
9714,0,0.000000,-0.062500,0.000000,-0.06,0.00,-0.245618,0.007000,0.000000,0.000000,0.000000,0.000000,0.000000,0.000000,-0.000006,-0.000000,0.000025,0.000000,0.000000,0.000000,0.000000,819,819,819,819
9723,0,0.000000,-0.062500,0.000000,0.00,0.00,-0.427906,0.007000,0.000000,0.000000,0.000000,0.000000,0.000000,0.000000,-0.000000,-0.000000,0.000043,0.000000,0.000000,0.000000,0.000000,819,819,819,819
9733,0,0.000000,-0.062500,0.000000,-0.06,-0.12,-0.437020,0.007000,0.000000,0.000000,0.000000,0.000000,0.000000,0.000000,-0.000006,0.000036,0.000044,0.000000,0.000000,0.000000,0.000000,819,819,819,819
9743,0,0.000000,-0.062500,0.000000,0.06,0.06,-0.199976,0.007000,0.000000,0.000000,0.000000,0.000000,0.000000,0.000000,0.000005,-0.000018,0.000020,0.000000,0.000000,0.000000,0.000000,819,819,819,819
9753,0,0.000000,-0.062500,0.000000,0.00,0.00,-0.128749,0.007000,0.000000,0.000000,0.000000,0.000000,0.000000,0.000000,-0.000000,-0.000000,0.000013,0.000000,0.000000,0.000000,0.000000,819,819,819,819
9769,0,0.000000,-0.062500,0.000000,0.06,0.12,0.231063,0.007000,0.000000,0.000000,0.000000,0.000000,0.000000,0.000000,0.000005,-0.000036,-0.000023,0.000000,0.000000,0.000000,0.000000,819,819,819,819
9782,0,0.000000,-0.062500,0.000000,0.12,0.00,0.427178,0.007000,0.000000,0.000000,0.000000,0.000000,0.000000,0.000000,0.000011,-0.000000,-0.000043,0.000000,0.000000,0.000000,0.000000,819,819,819,819
9793,0,0.000000,-0.062500,0.000000,0.00,0.00,0.199484,0.007000,0.000000,0.000000,0.000000,0.000000,0.000000,0.000000,-0.000000,-0.000000,-0.000020,0.000000,0.000000,0.000000,0.000000,819,819,819,819
9803,0,0.000000,-0.062500,0.000000,0.00,0.00,0.009974,0.007000,0.000000,0.000000,0.000000,0.000000,0.000000,0.000000,-0.000000,-0.000000,-0.000001,0.000000,0.000000,0.000000,0.000000,819,819,819,819
9813,0,0.000000,-0.062500,0.000000,0.00,0.00,-0.177626,0.007000,0.000000,0.000000,0.000000,0.000000,0.000000,0.000000,-0.000000,-0.000000,0.000018,0.000000,0.000000,0.000000,0.000000,819,819,819,819
9823,0,0.000000,-0.062500,0.000000,-0.06,0.00,-0.365131,0.007000,0.000000,0.000000,0.000000,0.000000,0.000000,0.000000,-0.000006,-0.000000,0.000037,0.000000,0.000000,0.000000,0.000000,819,819,819,819
9833,0,0.000000,-0.062500,0.000000,0.00,-0.12,-0.433882,0.007000,0.000000,0.000000,0.000000,0.000000,0.000000,0.000000,-0.000000,0.000036,0.000043,0.000000,0.000000,0.000000,0.000000,819,819,819,819
9843,0,0.000000,-0.062500,0.000000,-0.06,-0.12,-0.259194,0.007000,0.000000,0.000000,0.000000,0.000000,0.000000,0.000000,-0.000006,0.000036,0.000026,0.000000,0.000000,0.000000,0.000000,819,819,819,819
9853,0,0.000000,-0.062500,0.000000,0.00,0.06,0.105790,0.007000,0.000000,0.000000,0.000000,0.000000,0.000000,0.000000,-0.000000,-0.000018,-0.000011,0.000000,0.000000,0.000000,0.000000,819,819,819,819
9863,0,0.000000,-0.062500,0.000000,-0.06,-0.06,0.242790,0.007000,0.000000,0.000000,0.000000,0.000000,0.000000,0.000000,-0.000006,0.000018,-0.000024,0.000000,0.000000,0.000000,0.000000,819,819,819,819
9873,0,0.000000,-0.062500,0.000000,-0.06,0.00,0.368389,0.007000,0.000000,0.000000,0.000000,0.000000,0.000000,0.000000,-0.000006,-0.000000,-0.000037,0.000000,0.000000,0.000000,0.000000,819,819,819,819
9883,0,0.000000,-0.062500,0.000000,0.00,0.24,0.374669,0.007000,0.000000,0.000000,0.000000,0.000000,0.000000,0.000000,-0.000000,-0.000071,-0.000038,0.000000,0.000000,0.000000,0.000000,819,819,819,819
9893,0,0.000000,-0.062500,0.000000,0.00,0.00,0.256233,0.007000,0.000000,0.000000,0.000000,0.000000,0.000000,0.000000,-0.000000,-0.000000,-0.000026,0.000000,0.000000,0.000000,0.000000,819,819,819,819
9903,0,0.000000,-0.062500,0.000000,-0.12,-0.18,0.012812,0.007000,0.000000,0.000000,0.000000,0.000000,0.000000,0.000000,-0.000012,0.000053,-0.000001,0.000000,0.000000,0.000000,0.000000,819,819,819,819
9913,0,0.000000,-0.062500,0.000000,0.00,0.00,-0.236859,0.007000,0.000000,0.000000,0.000000,0.000000,0.000000,0.000000,-0.000000,-0.000000,0.000024,0.000000,0.000000,0.000000,0.000000,819,819,819,819
9923,0,0.000000,-0.062500,0.000000,0.00,-0.06,-0.368093,0.007000,0.000000,0.000000,0.000000,0.000000,0.000000,0.000000,-0.000000,0.000018,0.000037,0.000000,0.000000,0.000000,0.000000,819,819,819,819
9933,0,0.000000,-0.062500,0.000000,0.12,0.12,-0.493405,0.007000,0.000000,0.000000,0.000000,0.000000,0.000000,0.000000,0.000011,-0.000036,0.000049,0.000000,0.000000,0.000000,0.000000,819,819,819,819
9943,0,0.000000,-0.062500,0.000000,0.00,0.00,-0.202795,0.007000,0.000000,0.000000,0.000000,0.000000,0.000000,0.000000,-0.000000,-0.000000,0.000020,0.000000,0.000000,0.000000,0.000000,819,819,819,819
9953,0,0.000000,-0.062500,0.000000,0.06,0.30,-0.010140,0.007000,0.000000,0.000000,0.000000,0.000000,0.000000,0.000000,0.000005,-0.000089,0.000001,0.000000,0.000000,0.000000,0.000000,819,819,819,819
9963,0,0.000000,-0.062500,0.000000,0.00,0.12,0.118243,0.007000,0.000000,0.000000,0.000000,0.000000,0.000000,0.000000,-0.000000,-0.000036,-0.000012,0.000000,0.000000,0.000000,0.000000,819,819,819,819
9973,0,0.000000,-0.062500,0.000000,-0.12,-0.06,0.362162,0.007000,0.000000,0.000000,0.000000,0.000000,0.000000,0.000000,-0.000012,0.000018,-0.000036,0.000000,0.000000,0.000000,0.000000,819,819,819,819
9983,0,0.000000,-0.062500,0.000000,0.06,-0.12,0.374358,0.007000,0.000000,0.000000,0.000000,0.000000,0.000000,0.000000,0.000005,0.000036,-0.000038,0.000000,0.000000,0.000000,0.000000,819,819,819,819
9993,0,0.000000,-0.062500,0.000000,0.06,-0.12,0.196843,0.007000,0.000000,0.000000,0.000000,0.000000,0.000000,0.000000,0.000005,0.000036,-0.000020,0.000000,0.000000,0.000000,0.000000,819,819,819,819
10004,0,0.000000,-0.062500,0.000000,0.00,0.18,-0.108908,0.007000,0.000000,0.000000,0.000000,0.000000,0.000000,0.000000,-0.000000,-0.000054,0.000011,0.000000,0.000000,0.000000,0.000000,819,819,819,819
10013,0,0.000000,-0.062500,0.000000,-0.06,-0.06,-0.302320,0.008000,0.000000,0.000000,0.000000,0.000000,0.000000,0.000000,-0.000006,0.000018,0.000030,0.000000,0.000000,0.000000,0.000000,819,819,819,819
10023,0,0.000000,-0.062500,0.000000,-0.06,0.18,-0.371366,0.008000,0.000000,0.000000,0.000000,0.000000,0.000000,0.000000,-0.000006,-0.000054,0.000037,0.000000,0.000000,0.000000,0.000000,819,819,819,819
10033,0,0.000000,-0.062500,0.000000,-0.06,0.00,-0.256068,0.008000,0.000000,0.000000,0.000000,0.000000,0.000000,0.000000,-0.000006,-0.000000,0.000026,0.000000,0.000000,0.000000,0.000000,819,819,819,819
10043,0,0.000000,-0.062500,0.000000,0.06,-0.06,-0.131553,0.008000,0.000000,0.000000,0.000000,0.000000,0.000000,0.000000,0.000005,0.000018,0.000013,0.000000,0.000000,0.000000,0.000000,819,819,819,819
10054,0,0.000000,-0.062500,0.000000,0.00,0.12,-0.125328,0.008000,0.000000,0.000000,0.000000,0.000000,0.000000,0.000000,-0.000000,-0.000036,0.000013,0.000000,0.000000,0.000000,0.000000,819,819,819,819
10064,0,0.000000,-0.062500,0.000000,0.06,0.00,0.171859,0.008000,0.000000,0.000000,0.000000,0.000000,0.000000,0.000000,0.000005,-0.000000,-0.000017,0.000000,0.000000,0.000000,0.000000,819,819,819,819
10073,0,0.000000,-0.062500,0.000000,0.06,0.00,0.305468,0.008000,0.000000,0.000000,0.000000,0.000000,0.000000,0.000000,0.000005,-0.000000,-0.000031,0.000000,0.000000,0.000000,0.000000,819,819,819,819
10090,0,0.000000,-0.062500,0.000000,0.00,0.18,0.312148,0.008000,0.000000,0.000000,0.000000,0.000000,0.000000,0.000000,-0.000000,-0.000054,-0.000031,0.000000,0.000000,0.000000,0.000000,819,819,819,819
10103,0,0.000000,-0.062500,0.000000,-0.06,0.24,0.074982,0.008000,0.000000,0.000000,0.000000,0.000000,0.000000,0.000000,-0.000006,-0.000071,-0.000008,0.000000,0.000000,0.000000,0.000000,819,819,819,819
10113,0,0.000000,-0.062500,0.000000,-0.12,0.12,-0.233751,0.008000,0.000000,0.000000,0.000000,0.000000,0.000000,0.000000,-0.000012,-0.000036,0.000023,0.000000,0.000000,0.000000,0.000000,819,819,819,819
10123,0,0.000000,-0.062500,0.000000,-0.12,-0.06,-0.308563,0.008000,0.000000,0.000000,0.000000,0.000000,0.000000,0.000000,-0.000012,0.000018,0.000031,0.000000,0.000000,0.000000,0.000000,819,819,819,819
10134,0,0.000000,-0.062500,0.000000,0.00,-0.06,-0.252928,0.008000,0.000000,0.000000,0.000000,0.000000,0.000000,0.000000,-0.000000,0.000018,0.000025,0.000000,0.000000,0.000000,0.000000,819,819,819,819
10144,0,0.000000,-0.062500,0.000000,0.06,-0.12,-0.072021,0.008000,0.000000,0.000000,0.000000,0.000000,0.000000,0.000000,0.000005,0.000036,0.000007,0.000000,0.000000,0.000000,0.000000,819,819,819,819
10154,0,0.000000,-0.062500,0.000000,0.06,0.00,0.055774,0.008000,0.000000,0.000000,0.000000,0.000000,0.000000,0.000000,0.000005,-0.000000,-0.000006,0.000000,0.000000,0.000000,0.000000,819,819,819,819
10164,0,0.000000,-0.062500,0.000000,0.06,0.12,0.240289,0.008000,0.000000,0.000000,0.000000,0.000000,0.000000,0.000000,0.000005,-0.000036,-0.000024,0.000000,0.000000,0.000000,0.000000,819,819,819,819
10174,0,0.000000,-0.062500,0.000000,0.06,0.00,0.130764,0.008000,0.000000,0.000000,0.000000,0.000000,0.000000,0.000000,0.000005,-0.000000,-0.000013,0.000000,0.000000,0.000000,0.000000,819,819,819,819
