t,is_crashed,roll,pitch,yaw,p,q,r,throttle,p_cmd,q_cmd,r_cmd,roll_cmd,pitch_cmd,yaw_cmd,roll_pid_out,pitch_pid_out,yaw_pid_out,motor_fl,motor_bl,motor_fr,motor_br,pwm_fl,pwm_bl,pwm_fr,pwm_br
7002,0,0.625000,0.337500,71.987503,0.00,0.00,0.000207,0.005000,0.000000,0.000000,0.000000,0.000000,0.000000,0.000000,0.000000,-0.000002,-0.000002,0.000000,0.000000,0.000000,0.000000,0,0,0,0
7014,0,1.000000,0.540000,129.577499,0.16,0.08,0.000291,0.005000,0.000000,0.000000,0.000000,0.000000,0.000000,0.000000,0.000630,-0.000680,-0.000003,0.000000,0.000000,0.000000,0.000000,819,819,819,819
7024,0,1.300000,0.702000,175.649506,0.29,0.16,0.000367,0.005000,0.000000,0.000000,0.000000,0.000000,0.000000,0.000000,0.001173,-0.001265,-0.000004,0.000000,0.000000,0.000000,0.000000,819,819,819,819
7034,0,1.540000,0.831600,-147.492889,0.38,0.21,0.000436,0.005000,0.000000,0.000000,0.000000,0.000000,0.000000,0.000000,0.001540,-0.001660,-0.000004,0.000000,0.000000,0.000000,0.000000,819,819,819,819
7044,0,1.732000,0.935280,-118.006805,0.44,0.24,0.000291,0.005000,0.000000,0.000000,0.000000,0.000000,0.000000,0.000000,0.001774,-0.001913,-0.000003,0.000000,0.000000,0.000000,0.000000,819,819,819,819
7054,0,1.885600,1.018224,-94.417938,0.47,0.26,0.000263,0.005000,0.000000,0.000000,0.000000,0.000000,0.000000,0.000000,0.001908,-0.002054,-0.000003,0.000000,0.000000,0.000000,0.000000,819,819,819,819
7064,0,2.008480,1.084579,-75.546844,0.49,0.26,0.000135,0.005000,0.000000,0.000000,0.000000,0.000000,0.000000,0.000000,0.001967,-0.002118,-0.000001,0.000000,0.000000,0.000000,0.000000,819,819,819,819
7074,0,2.106784,1.137663,-60.449982,0.49,0.26,0.000225,0.005000,0.000000,0.000000,0.000000,0.000000,0.000000,0.000000,0.001970,-0.002120,-0.000002,0.000000,0.000000,0.000000,0.000000,819,819,819,819
7088,0,2.185427,1.180131,-48.372498,0.47,0.25,0.000411,0.005000,0.000000,0.000000,0.000000,0.000000,0.000000,0.000000,0.001889,-0.002032,-0.000004,0.000000,0.000000,0.000000,0.000000,819,819,819,819
7102,0,2.248342,1.214105,-38.710510,0.44,0.24,0.000269,0.005000,0.000000,0.000000,0.000000,0.000000,0.000000,0.000000,0.001793,-0.001927,-0.000003,0.000000,0.000000,0.000000,0.000000,819,819,819,819
7114,0,2.298674,1.241284,-30.980927,0.42,0.23,0.000243,0.005000,0.000000,0.000000,0.000000,0.000000,0.000000,0.000000,0.001701,-0.001826,-0.000002,0.000000,0.000000,0.000000,0.000000,819,819,819,819
7124,0,2.338939,1.263027,-24.797241,0.40,0.21,0.000324,0.005000,0.000000,0.000000,0.000000,0.000000,0.000000,0.000000,0.001614,-0.001734,-0.000003,0.000000,0.000000,0.000000,0.000000,819,819,819,819
7135,0,2.371151,1.280422,-19.850311,0.37,0.20,0.000293,0.005000,0.000000,0.000000,0.000000,0.000000,0.000000,0.000000,0.001514,-0.001627,-0.000003,0.000000,0.000000,0.000000,0.000000,819,819,819,819
7145,0,2.396921,1.294337,-15.892761,0.35,0.19,0.000369,0.005000,0.000000,0.000000,0.000000,0.000000,0.000000,0.000000,0.001422,-0.001528,-0.000004,0.000000,0.000000,0.000000,0.000000,819,819,819,819
7154,0,2.417537,1.305470,-12.726715,0.32,0.18,0.000437,0.005000,0.000000,0.000000,0.000000,0.000000,0.000000,0.000000,0.001325,-0.001424,-0.000004,0.000000,0.000000,0.000000,0.000000,819,819,819,819
7164,0,2.434030,1.314376,-10.193878,0.30,0.16,0.000292,0.005000,0.000000,0.000000,0.000000,0.000000,0.000000,0.000000,0.001228,-0.001318,-0.000003,0.000000,0.000000,0.000000,0.000000,819,819,819,819
7175,0,2.447224,1.321501,-8.167603,0.28,0.15,0.000264,0.005000,0.000000,0.000000,0.000000,0.000000,0.000000,0.000000,0.001133,-0.001214,-0.000003,0.000000,0.000000,0.000000,0.000000,819,819,819,819
7185,0,2.457779,1.327201,-6.546600,0.25,0.14,0.000343,0.005000,0.000000,0.000000,0.000000,0.000000,0.000000,0.000000,0.001044,-0.001117,-0.000003,0.000000,0.000000,0.000000,0.000000,819,819,819,819
7194,0,2.466223,1.331760,-5.249786,0.23,0.13,0.000518,0.005000,0.000000,0.000000,0.000000,0.000000,0.000000,0.000000,0.000961,-0.001027,-0.000005,0.000000,0.000000,0.000000,0.000000,819,819,819,819
7204,0,2.472979,1.335408,-4.212341,0.21,0.12,0.000676,0.005000,0.000000,0.000000,0.000000,0.000000,0.000000,0.000000,0.000882,-0.000941,-0.000007,0.000000,0.000000,0.000000,0.000000,819,819,819,819
7215,0,2.478383,1.338327,-3.382385,0.19,0.11,0.000611,0.005000,0.000000,0.000000,0.000000,0.000000,0.000000,0.000000,0.000806,-0.000857,-0.000006,0.000000,0.000000,0.000000,0.000000,819,819,819,819
7225,0,2.482707,1.340661,-2.718414,0.18,0.10,0.000657,0.005000,0.000000,0.000000,0.000000,0.000000,0.000000,0.000000,0.000737,-0.000784,-0.000007,0.000000,0.000000,0.000000,0.000000,819,819,819,819
7235,0,2.486165,1.342529,-2.187225,0.16,0.09,0.000595,0.005000,0.000000,0.000000,0.000000,0.000000,0.000000,0.000000,0.000673,-0.000716,-0.000006,0.000000,0.000000,0.000000,0.000000,819,819,819,819
7245,0,2.488932,1.344023,-1.762299,0.15,0.08,0.000745,0.005000,0.000000,0.000000,0.000000,0.000000,0.000000,0.000000,0.000614,-0.000653,-0.000008,0.000000,0.000000,0.000000,0.000000,819,819,819,819
7255,0,2.491146,1.345219,-1.422333,0.13,0.07,0.000778,0.005000,0.000000,0.000000,0.000000,0.000000,0.000000,0.000000,0.000560,-0.000593,-0.000008,0.000000,0.000000,0.000000,0.000000,819,819,819,819
7265,0,2.492917,1.346175,-1.150360,0.12,0.07,0.000601,0.005000,0.000000,0.000000,0.000000,0.000000,0.000000,0.000000,0.000510,-0.000540,-0.000006,0.000000,0.000000,0.000000,0.000000,819,819,819,819
7275,0,2.494334,1.346940,-0.932800,0.11,0.06,0.000751,0.005000,0.000000,0.000000,0.000000,0.000000,0.000000,0.000000,0.000465,-0.000491,-0.000008,0.000000,0.000000,0.000000,0.000000,819,819,819,819
7285,0,2.495467,1.347552,-0.758759,0.10,0.05,0.000576,0.005000,0.000000,0.000000,0.000000,0.000000,0.000000,0.000000,0.000424,-0.000447,-0.000006,0.000000,0.000000,0.000000,0.000000,819,819,819,819
7295,0,2.496374,1.348042,-0.619507,0.09,0.05,0.000210,0.005000,0.000000,0.000000,0.000000,0.000000,0.000000,0.000000,0.000387,-0.000407,-0.000002,0.000000,0.000000,0.000000,0.000000,819,819,819,819
7305,0,2.497099,1.348433,-0.508118,0.08,0.04,0.000398,0.005000,0.000000,0.000000,0.000000,0.000000,0.000000,0.000000,0.000352,-0.000368,-0.000004,0.000000,0.000000,0.000000,0.000000,819,819,819,819
7315,0,2.497679,1.348747,-0.419006,0.07,0.04,0.000360,0.005000,0.000000,0.000000,0.000000,0.000000,0.000000,0.000000,0.000321,-0.000331,-0.000004,0.000000,0.000000,0.000000,0.000000,819,819,819,819
7325,0,2.498144,1.348997,-0.347717,0.07,0.04,0.000533,0.005000,0.000000,0.000000,0.000000,0.000000,0.000000,0.000000,0.000293,-0.000303,-0.000005,0.000000,0.000000,0.000000,0.000000,819,819,819,819
7335,0,2.498515,1.349198,-0.290680,0.06,0.03,0.000482,0.005000,0.000000,0.000000,0.000000,0.000000,0.000000,0.000000,0.000268,-0.000276,-0.000005,0.000000,0.000000,0.000000,0.000000,819,819,819,819
7345,0,2.498812,1.349358,-0.245056,0.05,0.03,0.000436,0.005000,0.000000,0.000000,0.000000,0.000000,0.000000,0.000000,0.000244,-0.000251,-0.000004,0.000000,0.000000,0.000000,0.000000,819,819,819,819
7355,0,2.499050,1.349487,-0.208557,0.05,0.03,0.000395,0.005000,0.000000,0.000000,0.000000,0.000000,0.000000,0.000000,0.000223,-0.000227,-0.000004,0.000000,0.000000,0.000000,0.000000,819,819,819,819
7365,0,2.499240,1.349589,-0.179352,0.04,0.02,0.000461,0.005000,0.000000,0.000000,0.000000,0.000000,0.000000,0.000000,0.000204,-0.000206,-0.000005,0.000000,0.000000,0.000000,0.000000,819,819,819,819
7375,0,2.499392,1.349671,-0.155975,0.04,0.02,0.000210,0.005000,0.000000,0.000000,0.000000,0.000000,0.000000,0.000000,0.000187,-0.000188,-0.000002,0.000000,0.000000,0.000000,0.000000,819,819,819,819
7385,0,2.499514,1.349737,-0.137299,0.04,0.02,-0.000017,0.005000,0.000000,0.000000,0.000000,0.000000,0.000000,0.000000,0.000172,-0.000171,0.000000,0.000000,0.000000,0.000000,0.000000,819,819,819,819
7395,0,2.499611,1.349790,-0.122345,0.03,0.02,-0.000119,0.005000,0.000000,0.000000,0.000000,0.000000,0.000000,0.000000,0.000159,-0.000156,0.000001,0.000000,0.000000,0.000000,0.000000,819,819,819,819
7411,0,2.499689,1.349832,-0.110382,0.03,0.02,-0.000004,0.005000,0.000000,0.000000,0.000000,0.000000,0.000000,0.000000,0.000147,-0.000143,-0.000000,0.000000,0.000000,0.000000,0.000000,819,819,819,819
7425,0,2.499751,1.349865,-0.100800,0.03,0.01,-0.000211,0.005000,0.000000,0.000000,0.000000,0.000000,0.000000,0.000000,0.000135,-0.000134,0.000002,0.000000,0.000000,0.000000,0.000000,819,819,819,819
7435,0,2.499801,1.349892,-0.093140,0.02,0.01,-0.000087,0.005000,0.000000,0.000000,0.000000,0.000000,0.000000,0.000000,0.000125,-0.000123,0.000000,0.000000,0.000000,0.000000,0.000000,819,819,819,819
7445,0,2.499841,1.349914,-0.087006,0.02,0.01,-0.000183,0.005000,0.000000,0.000000,0.000000,0.000000,0.000000,0.000000,0.000116,-0.000114,0.000002,0.000000,0.000000,0.000000,0.000000,819,819,819,819
7455,0,2.499873,1.349931,-0.082123,0.02,0.01,0.000146,0.005000,0.000000,0.000000,0.000000,0.000000,0.000000,0.000000,0.000108,-0.000104,-0.000002,0.000000,0.000000,0.000000,0.000000,819,819,819,819
7465,0,2.499898,1.349945,-0.078217,0.02,0.01,-0.000283,0.005000,0.000000,0.000000,0.000000,0.000000,0.000000,0.000000,0.000101,-0.000095,0.000003,0.000000,0.000000,0.000000,0.000000,819,819,819,819
7475,0,2.499919,1.349956,-0.075073,0.02,0.00,-0.000360,0.005000,0.000000,0.000000,0.000000,0.000000,0.000000,0.000000,0.000094,-0.000087,0.000004,0.000000,0.000000,0.000000,0.000000,819,819,819,819
7486,0,2.499935,1.349965,-0.072571,0.01,0.00,-0.000429,0.005000,0.000000,0.000000,0.000000,0.000000,0.000000,0.000000,0.000087,-0.000079,0.000004,0.000000,0.000000,0.000000,0.000000,819,819,819,819
7496,0,2.499948,1.349972,-0.070557,0.01,0.00,-0.000492,0.005000,0.000000,0.000000,0.000000,0.000000,0.000000,0.000000,0.000081,-0.000072,0.000005,0.000000,0.000000,0.000000,0.000000,819,819,819,819
7505,0,2.499959,1.349977,-0.068939,0.01,0.00,-0.000549,0.005000,0.000000,0.000000,0.000000,0.000000,0.000000,0.000000,0.000077,-0.000066,0.000005,0.000000,0.000000,0.000000,0.000000,819,819,819,819
7515,0,2.499967,1.349982,-0.067657,0.01,0.00,-0.000393,0.005000,0.000000,0.000000,0.000000,0.000000,0.000000,0.000000,0.000074,-0.000059,0.000004,0.000000,0.000000,0.000000,0.000000,819,819,819,819
7526,0,2.499974,1.349985,-0.066620,0.01,0.00,-0.000563,0.005000,0.000000,0.000000,0.000000,0.000000,0.000000,0.000000,0.000070,-0.000055,0.000006,0.000000,0.000000,0.000000,0.000000,819,819,819,819
7536,0,2.499979,1.349988,-0.065796,0.00,0.00,-0.000613,0.005000,0.000000,0.000000,0.000000,0.000000,0.000000,0.000000,0.000066,-0.000051,0.000006,0.000000,0.000000,0.000000,0.000000,819,819,819,819
7546,0,2.499983,1.349991,-0.065155,0.00,0.00,-0.000451,0.005000,0.000000,0.000000,0.000000,0.000000,0.000000,0.000000,0.000063,-0.000045,0.000004,0.000000,0.000000,0.000000,0.000000,819,819,819,819
7556,0,2.499987,1.349993,-0.064636,0.00,0.00,-0.000408,0.005000,0.000000,0.000000,0.000000,0.000000,0.000000,0.000000,0.000060,-0.000042,0.000004,0.000000,0.000000,0.000000,0.000000,819,819,819,819
7566,0,2.499990,1.349994,-0.064209,0.00,0.00,-0.000370,0.005000,0.000000,0.000000,0.000000,0.000000,0.000000,0.000000,0.000058,-0.000037,0.000004,0.000000,0.000000,0.000000,0.000000,819,819,819,819
7576,0,2.499992,1.349995,-0.063873,0.00,0.00,-0.000438,0.005000,0.000000,0.000000,0.000000,0.000000,0.000000,0.000000,0.000055,-0.000036,0.000004,0.000000,0.000000,0.000000,0.000000,819,819,819,819
7586,0,2.499993,1.349996,-0.063599,0.00,0.00,-0.000293,0.005000,0.000000,0.000000,0.000000,0.000000,0.000000,0.000000,0.000053,-0.000037,0.000003,0.000000,0.000000,0.000000,0.000000,819,819,819,819
7596,0,2.499995,1.349997,-0.063385,0.00,0.00,-0.000369,0.005000,0.000000,0.000000,0.000000,0.000000,0.000000,0.000000,0.000052,-0.000035,0.000004,0.000000,0.000000,0.000000,0.000000,819,819,819,819
7606,0,2.499996,1.349998,-0.063202,0.00,0.00,-0.000645,0.005000,0.000000,0.000000,0.000000,0.000000,0.000000,0.000000,0.000049,-0.000032,0.000006,0.000000,0.000000,0.000000,0.000000,819,819,819,819
7616,0,2.499997,1.349998,-0.063080,0.00,0.00,-0.000687,0.005000,0.000000,0.000000,0.000000,0.000000,0.000000,0.000000,0.000048,-0.000031,0.000007,0.000000,0.000000,0.000000,0.000000,819,819,819,819
7626,0,2.499998,1.349998,-0.062958,0.00,0.00,-0.000622,0.005000,0.000000,0.000000,0.000000,0.000000,0.000000,0.000000,0.000046,-0.000028,0.000006,0.000000,0.000000,0.000000,0.000000,819,819,819,819
7636,0,2.499998,1.349999,-0.062866,0.00,0.00,-0.000666,0.005000,0.000000,0.000000,0.000000,0.000000,0.000000,0.000000,0.000046,-0.000026,0.000007,0.000000,0.000000,0.000000,0.000000,819,819,819,819
7646,0,2.499999,1.349999,-0.062805,0.00,0.00,-0.000396,0.005000,0.000000,0.000000,0.000000,0.000000,0.000000,0.000000,0.000045,-0.000023,0.000004,0.000000,0.000000,0.000000,0.000000,819,819,819,819
7656,0,2.499999,1.349999,-0.062744,0.00,0.00,-0.000462,0.005000,0.000000,0.000000,0.000000,0.000000,0.000000,0.000000,0.000043,-0.000024,0.000005,0.000000,0.000000,0.000000,0.000000,819,819,819,819
7666,0,2.499999,1.349999,-0.062714,0.00,0.00,-0.000314,0.005000,0.000000,0.000000,0.000000,0.000000,0.000000,0.000000,0.000043,-0.000022,0.000003,0.000000,0.000000,0.000000,0.000000,819,819,819,819
7676,0,2.500000,1.349999,-0.062683,0.00,0.00,-0.000492,0.005000,0.000000,0.000000,0.000000,0.000000,0.000000,0.000000,0.000041,-0.000022,0.000005,0.000000,0.000000,0.000000,0.000000,819,819,819,819
7686,0,2.500000,1.350000,-0.062653,0.00,0.00,-0.000549,0.005000,0.000000,0.000000,0.000000,0.000000,0.000000,0.000000,0.000040,-0.000021,0.000005,0.000000,0.000000,0.000000,0.000000,819,819,819,819
7696,0,2.500000,1.350000,-0.062622,0.00,0.00,-0.000600,0.005000,0.000000,0.000000,0.000000,0.000000,0.000000,0.000000,0.000040,-0.000020,0.000006,0.000000,0.000000,0.000000,0.000000,819,819,819,819
7706,0,2.500000,1.350000,-0.062592,0.00,0.00,-0.000439,0.005000,0.000000,0.000000,0.000000,0.000000,0.000000,0.000000,0.000039,-0.000019,0.000004,0.000000,0.000000,0.000000,0.000000,819,819,819,819
7716,0,2.500000,1.350000,-0.062592,0.00,0.00,-0.000916,0.005000,0.000000,0.000000,0.000000,0.000000,0.000000,0.000000,0.000040,-0.000018,0.000009,0.000000,0.000000,0.000000,0.000000,819,819,819,819
7732,0,2.500000,1.350000,-0.062592,0.00,-0.00,-0.000725,0.005000,0.000000,0.000000,0.000000,0.000000,0.000000,0.000000,0.000038,-0.000017,0.000007,0.000000,0.000000,0.000000,0.000000,819,819,819,819
7745,0,2.500000,1.350000,-0.062592,0.00,0.00,-0.000967,0.005000,0.000000,0.000000,0.000000,0.000000,0.000000,0.000000,0.000039,-0.000019,0.000010,0.000000,0.000000,0.000000,0.000000,819,819,819,819
7757,0,2.500000,1.350000,-0.062592,0.00,0.00,-0.001083,0.005000,0.000000,0.000000,0.000000,0.000000,0.000000,0.000000,0.000038,-0.000019,0.000011,0.000000,0.000000,0.000000,0.000000,819,819,819,819
7767,0,2.500000,1.350000,-0.062592,0.00,0.00,-0.001187,0.005000,0.000000,0.000000,0.000000,0.000000,0.000000,0.000000,0.000038,-0.000019,0.000012,0.000000,0.000000,0.000000,0.000000,819,819,819,819
7777,0,2.500000,1.350000,-0.062592,0.00,0.00,-0.000867,0.005000,0.000000,0.000000,0.000000,0.000000,0.000000,0.000000,0.000038,-0.000019,0.000009,0.000000,0.000000,0.000000,0.000000,819,819,819,819
7787,0,2.500000,1.350000,-0.062592,0.00,-0.00,-0.000681,0.005000,0.000000,0.000000,0.000000,0.000000,0.000000,0.000000,0.000037,-0.000017,0.000007,0.000000,0.000000,0.000000,0.000000,819,819,819,819
7797,0,2.500000,1.350000,-0.062592,0.00,-0.00,-0.000616,0.005000,0.000000,0.000000,0.000000,0.000000,0.000000,0.000000,0.000037,-0.000015,0.000006,0.000000,0.000000,0.000000,0.000000,819,819,819,819
7807,0,2.500000,1.350000,-0.062592,0.00,0.00,-0.000558,0.005000,0.000000,0.000000,0.000000,0.000000,0.000000,0.000000,0.000037,-0.000019,0.000006,0.000000,0.000000,0.000000,0.000000,819,819,819,819
7817,0,2.500000,1.350000,-0.062592,0.00,0.00,-0.000608,0.005000,0.000000,0.000000,0.000000,0.000000,0.000000,0.000000,0.000037,-0.000021,0.000006,0.000000,0.000000,0.000000,0.000000,819,819,819,819
7827,0,2.500000,1.350000,-0.062592,0.00,0.00,-0.000551,0.005000,0.000000,0.000000,0.000000,0.000000,0.000000,0.000000,0.000036,-0.000022,0.000006,0.000000,0.000000,0.000000,0.000000,819,819,819,819
7836,0,2.500000,1.350000,-0.062592,0.00,0.00,-0.000809,0.005000,0.000000,0.000000,0.000000,0.000000,0.000000,0.000000,0.000035,-0.000022,0.000008,0.000000,0.000000,0.000000,0.000000,819,819,819,819
7846,0,2.500000,1.350000,-0.062592,0.00,0.00,-0.000940,0.005000,0.000000,0.000000,0.000000,0.000000,0.000000,0.000000,0.000036,-0.000023,0.000009,0.000000,0.000000,0.000000,0.000000,819,819,819,819
7860,0,2.500000,1.350000,-0.062592,0.00,0.00,-0.001058,0.005000,0.000000,0.000000,0.000000,0.000000,0.000000,0.000000,0.000037,-0.000024,0.000011,0.000000,0.000000,0.000000,0.000000,819,819,819,819
7871,0,2.500000,1.350000,-0.062592,0.00,0.00,-0.000957,0.005000,0.000000,0.000000,0.000000,0.000000,0.000000,0.000000,0.000037,-0.000023,0.000010,0.000000,0.000000,0.000000,0.000000,819,819,819,819
7883,0,2.500000,1.350000,-0.062592,0.00,0.00,-0.000970,0.005000,0.000000,0.000000,0.000000,0.000000,0.000000,0.000000,0.000036,-0.000023,0.000010,0.000000,0.000000,0.000000,0.000000,819,819,819,819
7894,0,2.500000,1.350000,-0.062592,0.00,0.00,-0.000774,0.005000,0.000000,0.000000,0.000000,0.000000,0.000000,0.000000,0.000036,-0.000021,0.000008,0.000000,0.000000,0.000000,0.000000,819,819,819,819
7905,0,2.500000,1.350000,-0.062592,0.00,0.00,-0.000597,0.006000,0.000000,0.000000,0.000000,0.000000,0.000000,0.000000,0.000036,-0.000019,0.000006,0.000000,0.000000,0.000000,0.000000,819,819,819,819
7917,0,2.500000,1.350000,-0.062592,0.00,0.00,-0.000437,0.006000,0.000000,0.000000,0.000000,0.000000,0.000000,0.000000,0.000036,-0.000018,0.000004,0.000000,0.000000,0.000000,0.000000,819,819,819,819
7927,0,2.500000,1.350000,-0.062592,0.00,0.00,-0.000810,0.005000,0.000000,0.000000,0.000000,0.000000,0.000000,0.000000,0.000036,-0.000019,0.000008,0.000000,0.000000,0.000000,0.000000,819,819,819,819
7937,0,2.500000,1.350000,-0.062592,0.00,0.00,-0.000733,0.005000,0.000000,0.000000,0.000000,0.000000,0.000000,0.000000,0.000036,-0.000021,0.000007,0.000000,0.000000,0.000000,0.000000,819,819,819,819
7947,0,2.500000,1.350000,-0.062592,0.00,0.00,-0.000767,0.006000,0.000000,0.000000,0.000000,0.000000,0.000000,0.000000,0.000036,-0.000021,0.000008,0.000000,0.000000,0.000000,0.000000,819,819,819,819
7957,0,2.500000,1.350000,-0.062592,0.00,0.00,-0.000694,0.006000,0.000000,0.000000,0.000000,0.000000,0.000000,0.000000,0.000036,-0.000022,0.000007,0.000000,0.000000,0.000000,0.000000,819,819,819,819
7967,0,2.500000,1.350000,-0.062592,0.00,0.00,-0.000835,0.006000,0.000000,0.000000,0.000000,0.000000,0.000000,0.000000,0.000036,-0.000021,0.000008,0.000000,0.000000,0.000000,0.000000,819,819,819,819
7977,0,2.500000,1.350000,-0.062592,0.00,0.00,-0.000963,0.006000,0.000000,0.000000,0.000000,0.000000,0.000000,0.000000,0.000035,-0.000019,0.000010,0.000000,0.000000,0.000000,0.000000,819,819,819,819
7987,0,2.500000,1.350000,-0.062592,0.00,-0.00,-0.000872,0.006000,0.000000,0.000000,0.000000,0.000000,0.000000,0.000000,0.000036,-0.000017,0.000009,0.000000,0.000000,0.000000,0.000000,819,819,819,819
7997,0,2.500000,1.350000,-0.062592,0.00,0.00,-0.000685,0.006000,0.000000,0.000000,0.000000,0.000000,0.000000,0.000000,0.000035,-0.000018,0.000007,0.000000,0.000000,0.000000,0.000000,819,819,819,819
8007,0,2.500000,1.350000,-0.062592,0.00,0.00,-0.000620,0.006000,0.000000,0.000000,0.000000,0.000000,0.000000,0.000000,0.000035,-0.000019,0.000006,0.000000,0.000000,0.000000,0.000000,819,819,819,819
8017,0,2.500000,1.350000,-0.062592,0.00,0.00,-0.000665,0.006000,0.000000,0.000000,0.000000,0.000000,0.000000,0.000000,0.000035,-0.000019,0.000007,0.000000,0.000000,0.000000,0.000000,819,819,819,819
8027,0,2.500000,1.350000,-0.062592,0.00,0.00,-0.000705,0.006000,0.000000,0.000000,0.000000,0.000000,0.000000,0.000000,0.000035,-0.000022,0.000007,0.000000,0.000000,0.000000,0.000000,819,819,819,819
8037,0,2.500000,1.350000,-0.062592,0.00,0.00,-0.000846,0.006000,0.000000,0.000000,0.000000,0.000000,0.000000,0.000000,0.000036,-0.000020,0.000009,0.000000,0.000000,0.000000,0.000000,819,819,819,819
8052,0,2.500000,1.350000,-0.062592,0.00,0.00,-0.000972,0.006000,0.000000,0.000000,0.000000,0.000000,0.000000,0.000000,0.000036,-0.000019,0.000010,0.000000,0.000000,0.000000,0.000000,819,819,819,819
8066,0,2.500000,1.350000,-0.062592,0.00,0.00,-0.000776,0.006000,0.000000,0.000000,0.000000,0.000000,0.000000,0.000000,0.000035,-0.000019,0.000008,0.000000,0.000000,0.000000,0.000000,819,819,819,819
8078,0,2.500000,1.350000,-0.062592,0.00,0.00,-0.000806,0.006000,0.000000,0.000000,0.000000,0.000000,0.000000,0.000000,0.000034,-0.000018,0.000008,0.000000,0.000000,0.000000,0.000000,819,819,819,819
8087,0,2.500000,1.350000,-0.062592,0.00,-0.00,-0.000522,0.006000,0.000000,0.000000,0.000000,0.000000,0.000000,0.000000,0.000034,-0.000017,0.000005,0.000000,0.000000,0.000000,0.000000,819,819,819,819
8097,0,2.500000,1.350000,-0.062592,0.00,-0.00,-0.000784,0.006000,0.000000,0.000000,0.000000,0.000000,0.000000,0.000000,0.000036,-0.000017,0.000008,0.000000,0.000000,0.000000,0.000000,819,819,819,819
8107,0,2.500000,1.350000,-0.062592,0.00,-0.00,-0.000709,0.006000,0.000000,0.000000,0.000000,0.000000,0.000000,0.000000,0.000034,-0.000013,0.000007,0.000000,0.000000,0.000000,0.000000,819,819,819,819
8117,0,2.500000,1.350000,-0.062592,0.00,-0.00,-0.000642,0.007000,0.000000,0.000000,0.000000,0.000000,0.000000,0.000000,0.000034,-0.000012,0.000007,0.000000,0.000000,0.000000,0.000000,819,819,819,819
8127,0,2.500000,1.350000,-0.062592,0.00,-0.00,-0.000581,0.007000,0.000000,0.000000,0.000000,0.000000,0.000000,0.000000,0.000035,-0.000012,0.000006,0.000000,0.000000,0.000000,0.000000,819,819,819,819
8137,0,2.500000,1.350000,-0.062592,0.00,-0.00,-0.000629,0.007000,0.000000,0.000000,0.000000,0.000000,0.000000,0.000000,0.000034,-0.000012,0.000006,0.000000,0.000000,0.000000,0.000000,819,819,819,819
8147,0,2.500000,1.350000,-0.062592,0.00,-0.00,-0.000570,0.007000,0.000000,0.000000,0.000000,0.000000,0.000000,0.000000,0.000035,-0.000011,0.000006,0.000000,0.000000,0.000000,0.000000,819,819,819,819
8157,0,2.500000,1.350000,-0.062592,0.00,-0.00,-0.000619,0.007000,0.000000,0.000000,0.000000,0.000000,0.000000,0.000000,0.000034,-0.000010,0.000006,0.000000,0.000000,0.000000,0.000000,819,819,819,819
8167,0,2.500000,1.350000,-0.062592,0.00,-0.00,-0.000664,0.007000,0.000000,0.000000,0.000000,0.000000,0.000000,0.000000,0.000034,-0.000009,0.000007,0.000000,0.000000,0.000000,0.000000,819,819,819,819
8177,0,2.500000,1.350000,-0.062592,0.00,-0.00,-0.000394,0.007000,0.000000,0.000000,0.000000,0.000000,0.000000,0.000000,0.000033,-0.000011,0.000004,0.000000,0.000000,0.000000,0.000000,819,819,819,819
8187,0,2.500000,1.350000,-0.062592,0.00,-0.00,-0.000253,0.007000,0.000000,0.000000,0.000000,0.000000,0.000000,0.000000,0.000032,-0.000011,0.000003,0.000000,0.000000,0.000000,0.000000,819,819,819,819
8197,0,2.500000,1.350000,-0.062592,0.00,-0.00,-0.000229,0.007000,0.000000,0.000000,0.000000,0.000000,0.000000,0.000000,0.000032,-0.000011,0.000002,0.000000,0.000000,0.000000,0.000000,819,819,819,819
8207,0,2.500000,1.350000,-0.062592,-0.00,-0.00,-0.000207,0.007000,0.000000,0.000000,0.000000,0.000000,0.000000,0.000000,0.000031,-0.000012,0.000002,0.000000,0.000000,0.000000,0.000000,819,819,819,819
8217,0,2.500000,1.350000,-0.062592,-0.00,-0.00,-0.000084,0.007000,0.000000,0.000000,0.000000,0.000000,0.000000,0.000000,0.000031,-0.000012,0.000001,0.000000,0.000000,0.000000,0.000000,819,819,819,819
8227,0,2.500000,1.350000,-0.062592,-0.00,-0.00,0.000028,0.007000,0.000000,0.000000,0.000000,0.000000,0.000000,0.000000,0.000031,-0.000013,-0.000000,0.000000,0.000000,0.000000,0.000000,819,819,819,819
8237,0,2.500000,1.350000,-0.062592,0.00,-0.00,-0.000078,0.007000,0.000000,0.000000,0.000000,0.000000,0.000000,0.000000,0.000032,-0.000016,0.000000,0.000000,0.000000,0.000000,0.000000,819,819,819,819
8247,0,2.500000,1.350000,-0.062592,-0.00,-0.00,0.000136,0.007000,0.000000,0.000000,0.000000,0.000000,0.000000,0.000000,0.000032,-0.000015,-0.000001,0.000000,0.000000,0.000000,0.000000,819,819,819,819
8257,0,2.500000,1.350000,-0.062592,-0.00,-0.00,0.000227,0.007000,0.000000,0.000000,0.000000,0.000000,0.000000,0.000000,0.000032,-0.000014,-0.000002,0.000000,0.000000,0.000000,0.000000,819,819,819,819
8267,0,2.500000,1.350000,-0.062592,-0.00,-0.00,-0.000002,0.007000,0.000000,0.000000,0.000000,0.000000,0.000000,0.000000,0.000032,-0.000014,0.000000,0.000000,0.000000,0.000000,0.000000,819,819,819,819
8277,0,2.500000,1.350000,-0.062592,-0.00,-0.00,-0.000105,0.007000,0.000000,0.000000,0.000000,0.000000,0.000000,0.000000,0.000031,-0.000015,0.000001,0.000000,0.000000,0.000000,0.000000,819,819,819,819
8287,0,2.500000,1.350000,-0.062592,-0.00,-0.00,-0.000302,0.007000,0.000000,0.000000,0.000000,0.000000,0.000000,0.000000,0.000030,-0.000014,0.000003,0.000000,0.000000,0.000000,0.000000,819,819,819,819
8297,0,2.500000,1.350000,-0.062592,-0.00,-0.00,-0.000274,0.007000,0.000000,0.000000,0.000000,0.000000,0.000000,0.000000,0.000031,-0.000013,0.000003,0.000000,0.000000,0.000000,0.000000,819,819,819,819
8307,0,2.500000,1.350000,-0.062592,-0.00,-0.00,-0.000248,0.007000,0.000000,0.000000,0.000000,0.000000,0.000000,0.000000,0.000030,-0.000012,0.000003,0.000000,0.000000,0.000000,0.000000,819,819,819,819
8317,0,2.500000,1.350000,-0.062592,-0.00,-0.00,-0.000431,0.008000,0.000000,0.000000,0.000000,0.000000,0.000000,0.000000,0.000030,-0.000012,0.000004,0.000000,0.000000,0.000000,0.000000,819,819,819,819
8327,0,2.500000,1.350000,-0.062592,-0.00,-0.00,-0.000390,0.008000,0.000000,0.000000,0.000000,0.000000,0.000000,0.000000,0.000031,-0.000013,0.000004,0.000000,0.000000,0.000000,0.000000,819,819,819,819
8338,0,2.500000,1.350000,-0.062592,-0.00,-0.00,-0.000250,0.008000,0.000000,0.000000,0.000000,0.000000,0.000000,0.000000,0.000031,-0.000014,0.000003,0.000000,0.000000,0.000000,0.000000,819,819,819,819
8348,0,2.500000,1.350000,-0.062592,-0.00,-0.00,-0.000330,0.008000,0.000000,0.000000,0.000000,0.000000,0.000000,0.000000,0.000030,-0.000012,0.000003,0.000000,0.000000,0.000000,0.000000,819,819,819,819
8357,0,2.500000,1.350000,-0.062592,-0.00,-0.00,-0.000195,0.008000,0.000000,0.000000,0.000000,0.000000,0.000000,0.000000,0.000030,-0.000013,0.000002,0.000000,0.000000,0.000000,0.000000,819,819,819,819
8374,0,2.500000,1.350000,-0.062592,-0.00,-0.00,-0.000073,0.008000,0.000000,0.000000,0.000000,0.000000,0.000000,0.000000,0.000030,-0.000012,0.000000,0.000000,0.000000,0.000000,0.000000,819,819,819,819
8387,0,2.500000,1.350000,-0.062592,-0.00,-0.00,-0.000066,0.008000,0.000000,0.000000,0.000000,0.000000,0.000000,0.000000,0.000031,-0.000013,0.000000,0.000000,0.000000,0.000000,0.000000,819,819,819,819
8397,0,2.500000,1.350000,-0.062592,-0.00,-0.00,-0.000059,0.008000,0.000000,0.000000,0.000000,0.000000,0.000000,0.000000,0.000031,-0.000013,0.000000,0.000000,0.000000,0.000000,0.000000,819,819,819,819
8407,0,2.500000,1.350000,-0.062592,-0.00,-0.00,-0.000157,0.008000,0.000000,0.000000,0.000000,0.000000,0.000000,0.000000,0.000031,-0.000013,0.000002,0.000000,0.000000,0.000000,0.000000,819,819,819,819
8418,0,2.500000,1.350000,-0.062592,-0.00,-0.00,-0.000039,0.008000,0.000000,0.000000,0.000000,0.000000,0.000000,0.000000,0.000031,-0.000012,0.000000,0.000000,0.000000,0.000000,0.000000,819,819,819,819
8428,0,2.500000,1.350000,-0.062592,-0.00,-0.00,-0.000139,0.008000,0.000000,0.000000,0.000000,0.000000,0.000000,0.000000,0.000031,-0.000013,0.000002,0.000000,0.000000,0.000000,0.000000,819,819,819,819
8438,0,2.500000,1.350000,-0.062592,0.00,-0.00,-0.000022,0.008000,0.000000,0.000000,0.000000,0.000000,0.000000,0.000000,0.000032,-0.000014,0.000000,0.000000,0.000000,0.000000,0.000000,819,819,819,819
8448,0,2.500000,1.350000,-0.062592,0.00,-0.00,0.000187,0.008000,0.000000,0.000000,0.000000,0.000000,0.000000,0.000000,0.000032,-0.000016,-0.000002,0.000000,0.000000,0.000000,0.000000,819,819,819,819
8458,0,2.500000,1.350000,-0.062592,0.00,0.00,0.000480,0.008000,0.000000,0.000000,0.000000,0.000000,0.000000,0.000000,0.000033,-0.000018,-0.000005,0.000000,0.000000,0.000000,0.000000,819,819,819,819
8468,0,2.500000,1.350000,-0.062592,0.00,-0.00,0.000228,0.008000,0.000000,0.000000,0.000000,0.000000,0.000000,0.000000,0.000033,-0.000017,-0.000002,0.000000,0.000000,0.000000,0.000000,819,819,819,819
8478,0,2.500000,1.350000,-0.062592,0.00,0.00,0.000206,0.008000,0.000000,0.000000,0.000000,0.000000,0.000000,0.000000,0.000032,-0.000018,-0.000002,0.000000,0.000000,0.000000,0.000000,819,819,819,819
8488,0,2.500000,1.350000,-0.062592,0.00,-0.00,0.000394,0.008000,0.000000,0.000000,0.000000,0.000000,0.000000,0.000000,0.000032,-0.000017,-0.000004,0.000000,0.000000,0.000000,0.000000,819,819,819,819
8498,0,2.500000,1.350000,-0.062592,0.00,-0.00,0.000253,0.008000,0.000000,0.000000,0.000000,0.000000,0.000000,0.000000,0.000033,-0.000016,-0.000002,0.000000,0.000000,0.000000,0.000000,819,819,819,819
8508,0,2.500000,1.350000,-0.062592,0.00,-0.00,0.000125,0.008000,0.000000,0.000000,0.000000,0.000000,0.000000,0.000000,0.000033,-0.000017,-0.000001,0.000000,0.000000,0.000000,0.000000,819,819,819,819
8518,0,2.500000,1.350000,-0.062592,0.00,0.00,0.000217,0.008000,0.000000,0.000000,0.000000,0.000000,0.000000,0.000000,0.000032,-0.000019,-0.000002,0.000000,0.000000,0.000000,0.000000,819,819,819,819
8528,0,2.500000,1.350000,-0.062592,0.00,0.00,0.000196,0.009000,0.000000,0.000000,0.000000,0.000000,0.000000,0.000000,0.000032,-0.000019,-0.000002,0.000000,0.000000,0.000000,0.000000,819,819,819,819
8538,0,2.500000,1.350000,-0.062592,0.00,0.00,0.000178,0.009000,0.000000,0.000000,0.000000,0.000000,0.000000,0.000000,0.000032,-0.000018,-0.000002,0.000000,0.000000,0.000000,0.000000,819,819,819,819
8548,0,2.500000,1.350000,-0.062592,-0.00,0.00,0.000161,0.009000,0.000000,0.000000,0.000000,0.000000,0.000000,0.000000,0.000031,-0.000017,-0.000001,0.000000,0.000000,0.000000,0.000000,819,819,819,819
8558,0,2.500000,1.350000,-0.062592,-0.00,0.00,0.000249,0.009000,0.000000,0.000000,0.000000,0.000000,0.000000,0.000000,0.000031,-0.000020,-0.000002,0.000000,0.000000,0.000000,0.000000,819,819,819,819
8568,0,2.500000,1.350000,-0.062592,-0.00,0.00,0.000329,0.009000,0.000000,0.000000,0.000000,0.000000,0.000000,0.000000,0.000030,-0.000020,-0.000003,0.000000,0.000000,0.000000,0.000000,819,819,819,819
8578,0,2.500000,1.350000,-0.062592,-0.00,0.00,0.000194,0.022000,0.000000,0.000000,0.000000,0.000000,0.000000,0.000000,0.000030,-0.000022,-0.000002,0.021947,0.021993,0.022010,0.022050,1000,1000,1000,1000
8588,0,2.500000,1.350000,-0.062592,-0.00,0.00,0.000176,0.031000,0.000000,0.000000,0.000000,0.000000,0.000000,0.000000,0.000031,-0.000020,-0.000002,0.030947,0.030991,0.031012,0.031049,1000,1000,1000,1000
8598,0,2.500000,1.350000,-0.062592,-0.00,0.00,0.000263,0.031000,0.000000,0.000000,0.000000,0.000000,0.000000,0.000000,0.000030,-0.000019,-0.000003,0.030948,0.030991,0.031014,0.031047,1000,1000,1000,1000
8608,0,2.500000,1.350000,-0.062592,-0.00,0.00,0.000134,0.052000,0.000000,0.000000,0.000000,0.000000,0.000000,0.000000,0.000030,-0.000018,-0.000001,0.051950,0.051989,0.052014,0.052047,1000,1000,1000,1000
8618,0,2.500000,1.350000,-0.062592,-0.00,0.00,0.001779,0.056000,0.000000,0.000000,0.000000,0.000000,0.000000,0.000000,0.000031,-0.000019,-0.000018,0.055933,0.056006,0.056029,0.056032,1000,1000,1000,1000
8629,0,2.487500,1.350000,-72.050079,-0.00,-0.00,0.003683,0.056000,0.000000,0.000000,0.000000,0.000000,0.000000,0.000000,0.000004,-0.000011,-0.000037,0.055948,0.056044,0.056029,0.055978,1000,1000,1000,1000
8639,0,2.477500,1.350000,-129.640060,-0.01,-0.00,0.005716,0.056000,0.000000,0.000000,0.000000,0.000000,0.000000,0.000000,-0.000021,-0.000010,-0.000057,0.055954,0.056088,0.056026,0.055932,1000,1000,1000,1000
8649,0,2.469500,1.350000,-175.712051,-0.02,-0.00,0.012117,0.064000,0.000000,0.000000,0.000000,0.000000,0.000000,0.000000,-0.000048,-0.000003,-0.000121,0.063924,0.064173,0.064070,0.063833,1000,1000,1000,1000
8659,0,2.450600,1.350000,147.442856,-0.03,-0.00,0.014696,0.065000,0.000000,0.000000,0.000000,0.000000,0.000000,0.000000,-0.000095,0.000006,-0.000147,0.064954,0.065236,0.065058,0.064751,1000,1000,1000,1000
8669,0,2.435480,1.350000,117.966782,-0.04,-0.00,0.011435,0.065000,0.000000,0.000000,0.000000,0.000000,0.000000,0.000000,-0.000120,0.000013,-0.000115,0.065019,0.065222,0.065007,0.064752,1000,1000,1000,1000
8679,0,2.435884,1.350000,94.385925,-0.03,-0.00,0.007758,0.065000,0.000000,0.000000,0.000000,0.000000,0.000000,0.000000,-0.000105,0.000009,-0.000078,0.065037,0.065174,0.064982,0.064808,1000,1000,1000,1000
8693,0,2.436208,1.350000,75.521240,-0.03,-0.00,0.005466,0.065000,0.000000,0.000000,0.000000,0.000000,0.000000,0.000000,-0.000086,-0.000003,-0.000055,0.065028,0.065143,0.064966,0.064862,1000,1000,1000,1000
8708,0,2.436466,1.337500,60.416992,-0.02,-0.00,0.001942,0.066000,0.000000,0.000000,0.000000,0.000000,0.000000,0.000000,-0.000069,0.000016,-0.000020,0.066065,0.066072,0.065967,0.065896,1000,1000,1000,1000
8718,0,2.436673,1.327500,48.333595,-0.02,-0.00,-0.001870,0.066000,0.000000,0.000000,0.000000,0.000000,0.000000,0.000000,-0.000054,0.000045,0.000019,0.066117,0.065991,0.065972,0.065920,1000,1000,1000,1000
8728,0,2.449338,1.319500,38.666878,-0.01,-0.01,-0.005216,0.066000,0.000000,0.000000,0.000000,0.000000,0.000000,0.000000,-0.000016,0.000071,0.000052,0.066139,0.065892,0.066004,0.065965,1000,1000,1000,1000
8739,0,2.459471,1.313100,30.933502,-0.00,-0.01,-0.006274,0.066000,0.000000,0.000000,0.000000,0.000000,0.000000,0.000000,0.000011,0.000093,0.000063,0.066144,0.065833,0.066041,0.065981,1000,1000,1000,1000
8749,0,2.467577,1.307980,24.746801,0.00,-0.02,-0.003606,0.066000,0.000000,0.000000,0.000000,0.000000,0.000000,0.000000,0.000031,0.000112,0.000036,0.066117,0.065822,0.066106,0.065955,1000,1000,1000,1000
8759,0,2.461561,1.303884,19.797441,-0.00,-0.02,0.001607,0.066000,0.000000,0.000000,0.000000,0.000000,0.000000,0.000000,0.000006,0.000120,-0.000016,0.066098,0.065890,0.066142,0.065869,1000,1000,1000,1000
8769,0,2.456749,1.300607,15.850453,-0.02,-0.02,0.005911,0.066000,0.000000,0.000000,0.000000,0.000000,0.000000,0.000000,-0.000032,0.000121,-0.000059,0.066093,0.065970,0.066148,0.065788,1000,1000,1000,1000
8779,0,2.452899,1.297986,12.705362,-0.02,-0.02,0.004935,0.067000,0.000000,0.000000,0.000000,0.000000,0.000000,0.000000,-0.000070,0.000117,-0.000050,0.067136,0.067003,0.067097,0.066764,1000,1000,1000,1000
8789,0,2.462320,1.295889,10.201791,-0.03,-0.02,-0.001752,0.067000,0.000000,0.000000,0.000000,0.000000,0.000000,0.000000,-0.000075,0.000110,0.000017,0.067203,0.066948,0.067017,0.066832,1000,1000,1000,1000
8799,0,2.482356,1.294211,8.198934,-0.02,-0.02,-0.014643,0.067000,0.000000,0.000000,0.000000,0.000000,0.000000,0.000000,-0.000053,0.000106,0.000147,0.067305,0.066800,0.066906,0.066988,1000,1000,1000,1000
8809,0,2.510885,1.292869,6.609147,-0.00,-0.02,-0.029625,0.067000,0.000000,0.000000,0.000000,0.000000,0.000000,0.000000,-0.000005,0.000105,0.000297,0.067407,0.066603,0.066803,0.067187,1000,1000,1000,1000
8819,0,2.558708,1.291795,5.337318,0.01,-0.01,-0.039453,0.067000,0.000000,0.000000,0.000000,0.000000,0.000000,0.000000,0.000090,0.000095,0.000396,0.067401,0.066420,0.066789,0.067391,1000,1000,1000,1000
8829,0,2.596966,1.290936,4.319855,0.03,-0.01,-0.037467,0.067000,0.000000,0.000000,0.000000,0.000000,0.000000,0.000000,0.000166,0.000065,0.000376,0.067275,0.066392,0.066856,0.067477,1000,1000,1000,1000
8839,0,2.615073,1.290249,3.505884,0.04,-0.00,-0.028001,0.067000,0.000000,0.000000,0.000000,0.000000,0.000000,0.000000,0.000199,0.000048,0.000281,0.067131,0.066472,0.066966,0.067432,1000,1000,1000,1000
8850,0,2.617059,1.289699,2.854707,0.04,-0.00,-0.017983,0.069000,0.000000,0.000000,0.000000,0.000000,0.000000,0.000000,0.000190,0.000056,0.000181,0.069047,0.068574,0.069064,0.069315,1000,1000,1000,1000
8860,0,2.606147,1.289260,2.333766,0.03,-0.00,-0.006430,0.069000,0.000000,0.000000,0.000000,0.000000,0.000000,0.000000,0.000142,0.000054,0.000065,0.068977,0.068739,0.069130,0.069153,1000,1000,1000,1000
8870,0,2.597418,1.288908,1.917012,0.02,-0.01,0.004440,0.075000,0.000000,0.000000,0.000000,0.000000,0.000000,0.000000,0.000103,0.000061,-0.000044,0.074915,0.074880,0.075208,0.074998,1000,1000,1000,1000
8880,0,2.577934,1.288626,1.583610,0.00,-0.00,0.009200,0.075000,0.000000,0.000000,0.000000,0.000000,0.000000,0.000000,0.000048,0.000053,-0.000092,0.074914,0.074991,0.075193,0.074903,1000,1000,1000,1000
8890,0,2.549847,1.288401,1.316888,-0.01,-0.00,0.016202,0.075000,0.000000,0.000000,0.000000,0.000000,0.000000,0.000000,-0.000015,0.000042,-0.000162,0.074896,0.075135,0.075189,0.074780,1000,1000,1000,1000
8900,0,2.527378,1.288221,1.103510,-0.02,-0.00,0.022124,0.075000,0.000000,0.000000,0.000000,0.000000,0.000000,0.000000,-0.000053,0.000043,-0.000221,0.074875,0.075232,0.075211,0.074682,1000,1000,1000,1000
8909,0,2.496902,1.288077,0.932808,-0.04,-0.00,0.022613,0.084000,0.000000,0.000000,0.000000,0.000000,0.000000,0.000000,-0.000111,0.000020,-0.000226,0.083905,0.084317,0.084136,0.083642,1000,1000,1000,1000
8919,0,2.472522,1.287962,0.796247,-0.04,-0.00,0.023781,0.086000,0.000000,0.000000,0.000000,0.000000,0.000000,0.000000,-0.000144,0.000020,-0.000238,0.085926,0.086361,0.086115,0.085598,1000,1000,1000,1000
8929,0,2.465517,1.287869,0.686997,-0.04,-0.00,0.013024,0.086000,0.000000,0.000000,0.000000,0.000000,0.000000,0.000000,-0.000142,0.000008,-0.000130,0.086019,0.086264,0.085997,0.085720,1000,1000,1000,1000
8939,0,2.459914,1.287796,0.599598,-0.04,-0.00,0.007123,0.094000,0.000000,0.000000,0.000000,0.000000,0.000000,0.000000,-0.000137,0.000000,-0.000071,0.094066,0.094208,0.093935,0.093792,1000,1000,1000,1000
8949,0,2.467931,1.287737,0.529678,-0.03,-0.00,-0.004434,0.094000,0.000000,0.000000,0.000000,0.000000,0.000000,0.000000,-0.000104,0.000002,0.000045,0.094150,0.094057,0.093854,0.093939,1000,1000,1000,1000
8959,0,2.486845,1.287689,0.473743,-0.02,-0.00,-0.009505,0.094000,0.000000,0.000000,0.000000,0.000000,0.000000,0.000000,-0.000047,0.000011,0.000095,0.094153,0.093941,0.093868,0.094038,1000,1000,1000,1000
8969,0,2.501976,1.287652,0.428994,-0.00,-0.00,-0.013473,0.094000,0.000000,0.000000,0.000000,0.000000,0.000000,0.000000,-0.000007,0.000020,0.000135,0.094162,0.093852,0.093877,0.094108,1000,1000,1000,1000
8980,0,2.514081,1.287621,0.393195,-0.00,-0.00,-0.011986,0.101000,0.000000,0.000000,0.000000,0.000000,0.000000,0.000000,0.000018,0.000032,0.000120,0.101135,0.100830,0.100929,0.101106,1000,1000,1000,1000
8990,0,2.523765,1.287597,0.364556,0.00,-0.00,-0.010951,0.103000,0.000000,0.000000,0.000000,0.000000,0.000000,0.000000,0.000036,0.000025,0.000110,0.103099,0.102829,0.102950,0.103121,1000,1000,1000,1000
9004,0,2.531512,1.287578,0.341645,0.00,-0.00,-0.005454,0.103000,0.000000,0.000000,0.000000,0.000000,0.000000,0.000000,0.000043,0.000013,0.000055,0.103025,0.102890,0.103000,0.103085,1000,1000,1000,1000
9018,0,2.537710,1.287562,0.323316,0.00,-0.00,-0.001931,0.103000,0.000000,0.000000,0.000000,0.000000,0.000000,0.000000,0.000050,0.000006,0.000020,0.102976,0.102923,0.103037,0.103064,1000,1000,1000,1000
9028,0,2.530168,1.287550,0.308653,0.00,-0.00,0.001154,0.109000,0.000000,0.000000,0.000000,0.000000,0.000000,0.000000,0.000034,0.000006,-0.000011,0.108960,0.108971,0.109052,0.109017,1000,1000,1000,1000
9039,0,2.524134,1.287540,0.296922,-0.00,-0.00,0.006744,0.109000,0.000000,0.000000,0.000000,0.000000,0.000000,0.000000,0.000023,0.000001,-0.000067,0.108912,0.109043,0.109091,0.108954,1000,1000,1000,1000
9049,0,2.506808,1.287532,0.287538,-0.01,-0.00,0.007969,0.111000,0.000000,0.000000,0.000000,0.000000,0.000000,0.000000,-0.000015,0.000006,-0.000080,0.110942,0.111089,0.111071,0.110899,1000,1000,1000,1000
9059,0,2.492946,1.287526,0.280030,-0.02,-0.00,0.009284,0.111000,0.000000,0.000000,0.000000,0.000000,0.000000,0.000000,-0.000042,0.000010,-0.000093,0.110959,0.111125,0.111061,0.110855,1000,1000,1000,1000
9069,0,2.481857,1.287521,0.274024,-0.02,-0.00,0.010164,0.111000,0.000000,0.000000,0.000000,0.000000,0.000000,0.000000,-0.000062,0.000015,-0.000102,0.110975,0.111148,0.111055,0.110822,1000,1000,1000,1000
9079,0,2.472986,1.287517,0.269219,-0.02,-0.00,0.006504,0.114000,0.000000,0.000000,0.000000,0.000000,0.000000,0.000000,-0.000070,-0.000005,-0.000065,0.114000,0.114139,0.113991,0.113870,1000,1000,1000,1000
9089,0,2.465889,1.287513,0.265375,-0.02,-0.00,-0.000746,0.114000,0.000000,0.000000,0.000000,0.000000,0.000000,0.000000,-0.000069,-0.000012,0.000008,0.114064,0.114074,0.113911,0.113951,1000,1000,1000,1000
9099,0,2.460211,1.287511,0.262300,-0.02,0.00,-0.007826,0.114000,0.000000,0.000000,0.000000,0.000000,0.000000,0.000000,-0.000069,-0.000018,0.000079,0.114130,0.114008,0.113835,0.114028,1000,1000,1000,1000
9109,0,2.480669,1.287509,0.259840,-0.01,-0.00,-0.012471,0.115000,0.000000,0.000000,0.000000,0.000000,0.000000,0.000000,-0.000018,-0.000011,0.000125,0.115133,0.114904,0.114846,0.115118,1000,1000,1000,1000
9119,0,2.497035,1.287507,0.257872,-0.00,-0.00,-0.013981,0.115000,0.000000,0.000000,0.000000,0.000000,0.000000,0.000000,0.000016,-0.000007,0.000140,0.115118,0.114851,0.114868,0.115163,1000,1000,1000,1000
9129,0,2.510128,1.287506,0.256298,0.00,-0.00,-0.010269,0.115000,0.000000,0.000000,0.000000,0.000000,0.000000,0.000000,0.000040,-0.000004,0.000103,0.115059,0.114860,0.114933,0.115148,1000,1000,1000,1000
9140,0,2.508102,1.287505,0.255038,0.00,-0.00,-0.006703,0.115000,0.000000,0.000000,0.000000,0.000000,0.000000,0.000000,0.000034,0.000004,0.000068,0.115038,0.114894,0.114971,0.115098,1000,1000,1000,1000
9149,0,2.506482,1.287504,0.254031,0.00,-0.00,-0.004408,0.115000,0.000000,0.000000,0.000000,0.000000,0.000000,0.000000,0.000033,-0.000005,0.000045,0.115006,0.114928,0.114983,0.115083,1000,1000,1000,1000
9159,0,2.505186,1.287503,0.253224,0.00,-0.00,-0.002020,0.115000,0.000000,0.000000,0.000000,0.000000,0.000000,0.000000,0.000032,-0.000011,0.000021,0.114978,0.114958,0.115001,0.115063,1000,1000,1000,1000
9169,0,2.504148,1.287503,0.252580,0.00,0.00,0.000348,0.115000,0.000000,0.000000,0.000000,0.000000,0.000000,0.000000,0.000032,-0.000023,-0.000003,0.114942,0.114994,0.115012,0.115052,1000,1000,1000,1000
9179,0,2.503319,1.287502,0.252064,-0.00,0.00,0.001351,0.116000,0.000000,0.000000,0.000000,0.000000,0.000000,0.000000,0.000027,-0.000025,-0.000013,0.115934,0.116011,0.116015,0.116039,1000,1000,1000,1000
9190,0,2.502655,1.287502,0.251651,-0.00,0.00,-0.000021,0.116000,0.000000,0.000000,0.000000,0.000000,0.000000,0.000000,0.000024,-0.000021,0.000000,0.115956,0.115997,0.116002,0.116045,1000,1000,1000,1000
9200,0,2.502124,1.287501,0.251321,-0.00,-0.00,0.002986,0.116000,0.000000,0.000000,0.000000,0.000000,0.000000,0.000000,0.000019,-0.000011,-0.000030,0.115940,0.116021,0.116038,0.116001,1000,1000,1000,1000
9210,0,2.501699,1.287501,0.251057,-0.00,-0.00,0.003117,0.120000,0.000000,0.000000,0.000000,0.000000,0.000000,0.000000,0.000025,0.000000,-0.000031,0.119945,0.120006,0.120056,0.119993,1000,1000,1000,1000
9220,0,2.488859,1.287501,0.250845,-0.00,-0.00,0.006034,0.120000,0.000000,0.000000,0.000000,0.000000,0.000000,0.000000,0.000003,0.000003,-0.000060,0.119940,0.120054,0.120067,0.119940,1000,1000,1000,1000
9230,0,2.478588,1.287501,0.250676,-0.01,-0.00,0.003802,0.120000,0.000000,0.000000,0.000000,0.000000,0.000000,0.000000,-0.000011,-0.000007,-0.000038,0.119967,0.120056,0.120019,0.119958,1000,1000,1000,1000
9240,0,2.470370,1.287501,0.250541,-0.01,-0.00,0.005721,0.132000,0.000000,0.000000,0.000000,0.000000,0.000000,0.000000,-0.000028,-0.000006,-0.000057,0.131965,0.132091,0.132023,0.131921,1000,1000,1000,1000
9250,0,2.463796,1.287501,0.250433,-0.02,-0.00,0.004659,0.132000,0.000000,0.000000,0.000000,0.000000,0.000000,0.000000,-0.000042,-0.000002,-0.000046,0.131994,0.132090,0.132002,0.131914,1000,1000,1000,1000
9260,0,2.458537,1.287501,0.250346,-0.02,-0.00,0.005875,0.132000,0.000000,0.000000,0.000000,0.000000,0.000000,0.000000,-0.000047,-0.000000,-0.000059,0.131988,0.132107,0.132010,0.131895,1000,1000,1000,1000
9270,0,2.454329,1.287501,0.250277,-0.02,-0.00,0.002104,0.132000,0.000000,0.000000,0.000000,0.000000,0.000000,0.000000,-0.000049,-0.000005,-0.000021,0.132024,0.132075,0.131967,0.131935,1000,1000,1000,1000
9280,0,2.450964,1.287501,0.250222,-0.02,-0.00,0.002215,0.140000,0.000000,0.000000,0.000000,0.000000,0.000000,0.000000,-0.000046,-0.000010,-0.000022,0.140013,0.140078,0.139966,0.139943,1000,1000,1000,1000
9290,0,2.460771,1.287501,0.250177,-0.01,-0.00,-0.001622,0.141000,0.000000,0.000000,0.000000,0.000000,0.000000,0.000000,-0.000018,-0.000010,0.000017,0.141025,0.141011,0.140956,0.141008,1000,1000,1000,1000
9300,0,2.468617,1.287501,0.250142,-0.00,-0.00,-0.000432,0.141000,0.000000,0.000000,0.000000,0.000000,0.000000,0.000000,0.000007,0.000002,0.000005,0.141000,0.140986,0.141004,0.141010,1000,1000,1000,1000
9310,0,2.474894,1.287501,0.250113,-0.00,-0.00,-0.004432,0.143000,0.000000,0.000000,0.000000,0.000000,0.000000,0.000000,0.000021,-0.000015,0.000045,0.143009,0.142950,0.142960,0.143081,1000,1000,1000,1000
9326,0,2.479915,1.287501,0.250091,-0.00,-0.00,-0.004840,0.143000,0.000000,0.000000,0.000000,0.000000,0.000000,0.000000,0.000027,-0.000008,0.000049,0.143014,0.142932,0.142970,0.143084,1000,1000,1000,1000
9339,0,2.483932,1.287501,0.250073,0.00,-0.00,-0.000235,0.143000,0.000000,0.000000,0.000000,0.000000,0.000000,0.000000,0.000032,0.000003,0.000003,0.142973,0.142962,0.143033,0.143032,1000,1000,1000,1000
9349,0,2.487146,1.287501,0.250058,0.00,-0.00,0.003932,0.143000,0.000000,0.000000,0.000000,0.000000,0.000000,0.000000,0.000038,0.000013,-0.000039,0.142936,0.142989,0.143089,0.142986,1000,1000,1000,1000
9359,0,2.477216,1.287501,0.250046,-0.00,-0.00,0.004906,0.144000,0.000000,0.000000,0.000000,0.000000,0.000000,0.000000,0.000021,0.000020,-0.000049,0.143950,0.144008,0.144090,0.143952,1000,1000,1000,1000
9370,0,2.469273,1.287501,0.250037,-0.00,-0.00,0.002678,0.144000,0.000000,0.000000,0.000000,0.000000,0.000000,0.000000,0.000009,0.000016,-0.000027,0.143980,0.144002,0.144051,0.143967,1000,1000,1000,1000
9380,0,2.475419,1.287501,0.250030,-0.00,-0.00,-0.000789,0.145000,0.000000,0.000000,0.000000,0.000000,0.000000,0.000000,0.000027,0.000007,0.000008,0.144988,0.144958,0.145025,0.145028,1000,1000,1000,1000
9390,0,2.480335,1.287501,0.250024,0.00,-0.00,-0.001854,0.145000,0.000000,0.000000,0.000000,0.000000,0.000000,0.000000,0.000034,-0.000011,0.000019,0.144973,0.144959,0.145004,0.145064,1000,1000,1000,1000
9400,0,2.484268,1.287501,0.250019,0.00,-0.00,-0.001470,0.145000,0.000000,0.000000,0.000000,0.000000,0.000000,0.000000,0.000038,-0.000009,0.000015,0.144968,0.144956,0.145014,0.145062,1000,1000,1000,1000
9410,0,2.487415,1.287501,0.250015,0.00,-0.00,0.000016,0.152000,0.000000,0.000000,0.000000,0.000000,0.000000,0.000000,0.000041,-0.000009,0.000000,0.151950,0.151968,0.152031,0.152050,1000,1000,1000,1000
9420,0,2.477432,1.287501,0.250012,-0.00,-0.00,0.003538,0.152000,0.000000,0.000000,0.000000,0.000000,0.000000,0.000000,0.000018,-0.000005,-0.000035,0.151942,0.152021,0.152049,0.151988,1000,1000,1000,1000
9430,0,2.469445,1.287501,0.250010,-0.00,-0.00,0.004860,0.152000,0.000000,0.000000,0.000000,0.000000,0.000000,0.000000,0.000005,-0.000000,-0.000048,0.151946,0.152045,0.152052,0.151957,1000,1000,1000,1000
9440,0,2.463056,1.287501,0.250008,-0.00,-0.00,0.001290,0.154000,0.000000,0.000000,0.000000,0.000000,0.000000,0.000000,0.000002,0.000003,-0.000013,0.153988,0.154008,0.154017,0.153987,1000,1000,1000,1000
9450,0,2.470445,1.287501,0.250006,-0.00,-0.00,-0.000076,0.154000,0.000000,0.000000,0.000000,0.000000,0.000000,0.000000,0.000014,0.000009,0.000001,0.153997,0.153976,0.154022,0.154006,1000,1000,1000,1000
9460,0,2.463856,1.287501,0.250005,-0.00,-0.00,0.004387,0.154000,0.000000,0.000000,0.000000,0.000000,0.000000,0.000000,-0.000005,0.000015,-0.000044,0.153977,0.154034,0.154054,0.153936,1000,1000,1000,1000
9470,0,2.458585,1.287501,0.250004,-0.01,-0.00,0.005110,0.154000,0.000000,0.000000,0.000000,0.000000,0.000000,0.000000,-0.000019,0.000006,-0.000051,0.153974,0.154063,0.154039,0.153924,1000,1000,1000,1000
9480,0,2.454368,1.287501,0.250003,-0.01,-0.00,0.002656,0.159000,0.000000,0.000000,0.000000,0.000000,0.000000,0.000000,-0.000021,-0.000006,-0.000026,0.158989,0.159053,0.159000,0.158959,1000,1000,1000,1000
9490,0,2.450994,1.287501,0.250003,-0.01,0.00,-0.000913,0.159000,0.000000,0.000000,0.000000,0.000000,0.000000,0.000000,-0.000017,-0.000019,0.000009,0.159007,0.159027,0.158954,0.159011,1000,1000,1000,1000
9500,0,2.460796,1.287501,0.250002,-0.00,0.00,-0.004453,0.159000,0.000000,0.000000,0.000000,0.000000,0.000000,0.000000,0.000014,-0.000022,0.000045,0.159008,0.158963,0.158947,0.159082,1000,1000,1000,1000
9510,0,2.468637,1.287501,0.250002,0.00,0.00,-0.004445,0.159000,0.000000,0.000000,0.000000,0.000000,0.000000,0.000000,0.000031,-0.000017,0.000045,0.158997,0.158941,0.158970,0.159093,1000,1000,1000,1000
9520,0,2.474909,1.287501,0.250001,0.00,0.00,-0.004540,0.159000,0.000000,0.000000,0.000000,0.000000,0.000000,0.000000,0.000036,-0.000016,0.000046,0.158994,0.158935,0.158973,0.159098,1000,1000,1000,1000
9530,0,2.479928,1.287501,0.262501,0.00,-0.00,-0.001208,0.159000,0.000000,0.000000,0.000000,0.000000,0.000000,0.000000,0.000038,-0.000012,0.000012,0.158962,0.158962,0.159013,0.159062,1000,1000,1000,1000
9543,0,2.483942,1.287501,0.272501,0.00,-0.00,-0.003684,0.163000,0.000000,0.000000,0.000000,0.000000,0.000000,0.000000,0.000044,-0.000013,0.000037,0.162981,0.162932,0.162994,0.163093,1000,1000,1000,1000
9554,0,2.487154,1.287501,0.268001,0.00,-0.00,-0.002815,0.163000,0.000000,0.000000,0.000000,0.000000,0.000000,0.000000,0.000055,0.000002,0.000029,0.162976,0.162915,0.163028,0.163081,1000,1000,1000,1000
9566,0,2.489723,1.287501,0.264401,0.00,-0.00,-0.004206,0.163000,0.000000,0.000000,0.000000,0.000000,0.000000,0.000000,0.000058,-0.000008,0.000042,0.162976,0.162907,0.163008,0.163109,1000,1000,1000,1000
9578,0,2.491779,1.287501,0.261520,0.00,-0.00,0.000028,0.164000,0.000000,0.000000,0.000000,0.000000,0.000000,0.000000,0.000058,-0.000011,0.000000,0.163930,0.163953,0.164047,0.164070,1000,1000,1000,1000
9590,0,2.480923,1.287501,0.271716,-0.00,0.00,0.003341,0.164000,0.000000,0.000000,0.000000,0.000000,0.000000,0.000000,0.000027,-0.000017,-0.000033,0.163923,0.164024,0.164043,0.164011,1000,1000,1000,1000
9600,0,2.472238,1.287501,0.279873,-0.00,-0.00,0.004993,0.165000,0.000000,0.000000,0.000000,0.000000,0.000000,0.000000,0.000011,-0.000012,-0.000050,0.164927,0.165051,0.165048,0.164973,1000,1000,1000,1000
9610,0,2.465291,1.287501,0.273899,-0.00,-0.00,0.005140,0.167000,0.000000,0.000000,0.000000,0.000000,0.000000,0.000000,0.000004,-0.000003,-0.000051,0.166942,0.167049,0.167053,0.166956,1000,1000,1000,1000
9620,0,2.459733,1.287501,0.269119,-0.00,-0.00,0.003616,0.167000,0.000000,0.000000,0.000000,0.000000,0.000000,0.000000,-0.000003,-0.000011,-0.000036,0.166955,0.167050,0.167022,0.166973,1000,1000,1000,1000
9630,0,2.455286,1.287501,0.265295,-0.01,-0.00,0.000371,0.167000,0.000000,0.000000,0.000000,0.000000,0.000000,0.000000,-0.000011,-0.000011,-0.000003,0.166996,0.167025,0.166982,0.166997,1000,1000,1000,1000
9644,0,2.451729,1.287501,0.274736,-0.01,-0.00,0.000232,0.168000,0.000000,0.000000,0.000000,0.000000,0.000000,0.000000,-0.000017,-0.000011,-0.000002,0.168003,0.168030,0.167974,0.167993,1000,1000,1000,1000
9656,0,2.448883,1.287501,0.282289,-0.01,-0.00,-0.002174,0.168000,0.000000,0.000000,0.000000,0.000000,0.000000,0.000000,-0.000016,-0.000006,0.000022,0.168032,0.168000,0.167956,0.168012,1000,1000,1000,1000
9668,0,2.446607,1.287501,0.288331,-0.01,-0.00,-0.002382,0.169000,0.000000,0.000000,0.000000,0.000000,0.000000,0.000000,-0.000016,-0.000006,0.000024,0.169034,0.168998,0.168954,0.169014,1000,1000,1000,1000
9680,0,2.444785,1.287501,0.293165,-0.01,0.00,-0.000601,0.169000,0.000000,0.000000,0.000000,0.000000,0.000000,0.000000,-0.000016,-0.000017,0.000006,0.169005,0.169026,0.168961,0.169007,1000,1000,1000,1000
9690,0,2.443328,1.287501,0.297032,-0.01,-0.00,-0.002202,0.171000,0.000000,0.000000,0.000000,0.000000,0.000000,0.000000,-0.000013,-0.000015,0.000022,0.171020,0.171006,0.170949,0.171024,1000,1000,1000,1000
9701,0,2.442163,1.287501,0.300126,-0.01,-0.00,-0.002304,0.171000,0.000000,0.000000,0.000000,0.000000,0.000000,0.000000,-0.000012,-0.000014,0.000023,0.171021,0.171003,0.170950,0.171026,1000,1000,1000,1000
9711,0,2.441230,1.287501,0.302600,-0.00,-0.00,-0.003225,0.172000,0.000000,0.000000,0.000000,0.000000,0.000000,0.000000,-0.000008,-0.000004,0.000033,0.172036,0.171980,0.171955,0.172029,1000,1000,1000,1000
9721,0,2.440484,1.287501,0.304580,-0.01,-0.00,-0.003747,0.172000,0.000000,0.000000,0.000000,0.000000,0.000000,0.000000,-0.000012,-0.000010,0.000038,0.172040,0.171983,0.171941,0.172036,1000,1000,1000,1000
9731,0,2.439888,1.287501,0.306164,-0.00,0.00,-0.002977,0.172000,0.000000,0.000000,0.000000,0.000000,0.000000,0.000000,-0.000008,-0.000019,0.000030,0.172019,0.171998,0.171942,0.172041,1000,1000,1000,1000
9741,0,2.439410,1.287501,0.307431,-0.00,0.00,-0.003109,0.174000,0.000000,0.000000,0.000000,0.000000,0.000000,0.000000,-0.000004,-0.000021,0.000031,0.174015,0.173993,0.173944,0.174048,1000,1000,1000,1000
9751,0,2.451528,1.287501,0.308445,0.00,-0.00,-0.004575,0.176000,0.000000,0.000000,0.000000,0.000000,0.000000,0.000000,0.000030,-0.000013,0.000046,0.176003,0.175938,0.175970,0.176089,1000,1000,1000,1000
9761,0,2.461223,1.287501,0.309256,0.00,0.00,-0.007767,0.176000,0.000000,0.000000,0.000000,0.000000,0.000000,0.000000,0.000046,-0.000020,0.000078,0.176012,0.175896,0.175948,0.176145,1000,1000,1000,1000
9771,0,2.468978,1.287501,0.309905,0.00,0.00,-0.009724,0.179000,0.000000,0.000000,0.000000,0.000000,0.000000,0.000000,0.000059,-0.000025,0.000098,0.179014,0.178868,0.178936,0.179182,1000,1000,1000,1000
9781,0,2.475183,1.287501,0.310424,0.00,0.00,-0.009629,0.183000,0.000000,0.000000,0.000000,0.000000,0.000000,0.000000,0.000063,-0.000026,0.000097,0.183008,0.182866,0.182941,0.183186,1000,1000,1000,1000
9791,0,2.480146,1.287501,0.310839,0.01,0.00,-0.008714,0.183000,0.000000,0.000000,0.000000,0.000000,0.000000,0.000000,0.000072,-0.000025,0.000088,0.182991,0.182864,0.182960,0.183185,1000,1000,1000,1000
9801,0,2.484117,1.287501,0.311171,0.01,0.00,-0.003845,0.183000,0.000000,0.000000,0.000000,0.000000,0.000000,0.000000,0.000076,-0.000019,0.000039,0.182944,0.182903,0.183018,0.183134,1000,1000,1000,1000
9811,0,2.487294,1.287501,0.311437,0.01,0.00,-0.001096,0.190000,0.000000,0.000000,0.000000,0.000000,0.000000,0.000000,0.000082,-0.000020,0.000012,0.189909,0.189926,0.190051,0.190114,1000,1000,1000,1000
9821,0,2.477335,1.287501,0.311650,0.00,0.00,0.004189,0.192000,0.000000,0.000000,0.000000,0.000000,0.000000,0.000000,0.000057,-0.000023,-0.000041,0.191879,0.192007,0.192076,0.192038,1000,1000,1000,1000
9831,0,2.469368,1.287501,0.311820,0.00,0.00,0.006797,0.192000,0.000000,0.000000,0.000000,0.000000,0.000000,0.000000,0.000038,-0.000022,-0.000068,0.191872,0.192052,0.192084,0.191993,1000,1000,1000,1000
9841,0,2.450494,1.300001,0.311956,-0.00,0.00,0.012990,0.192000,0.000000,0.000000,0.000000,0.000000,0.000000,0.000000,-0.000005,-0.000052,-0.000130,0.191823,0.192186,0.192073,0.191917,1000,1000,1000,1000
9851,0,2.435395,1.310000,0.312065,-0.02,0.00,0.014658,0.192000,0.000000,0.000000,0.000000,0.000000,0.000000,0.000000,-0.000035,-0.000077,-0.000147,0.191811,0.192259,0.192034,0.191896,1000,1000,1000,1000
9861,0,2.423316,1.318000,0.312152,-0.02,0.01,0.014716,0.192000,0.000000,0.000000,0.000000,0.000000,0.000000,0.000000,-0.000055,-0.000107,-0.000147,0.191801,0.192310,0.191984,0.191905,1000,1000,1000,1000
9871,0,2.413653,1.324400,0.312221,-0.02,0.02,0.009898,0.207000,0.000000,0.000000,0.000000,0.000000,0.000000,0.000000,-0.000066,-0.000139,-0.000099,0.206828,0.207304,0.206894,0.206974,1000,1009,1000,1009
9881,0,2.418422,1.329520,0.299777,-0.02,0.02,0.005020,0.208000,0.000000,0.000000,0.000000,0.000000,0.000000,0.000000,-0.000043,-0.000146,-0.000050,0.207847,0.208238,0.207862,0.208053,1000,1010,1000,1010
9891,0,2.422238,1.333616,0.289822,-0.01,0.02,-0.002607,0.208000,0.000000,0.000000,0.000000,0.000000,0.000000,0.000000,-0.000028,-0.000157,0.000026,0.207897,0.208159,0.207789,0.208156,1000,1010,1000,1010
9901,0,2.425291,1.336893,0.281857,-0.01,0.02,-0.004225,0.208000,0.000000,0.000000,0.000000,0.000000,0.000000,0.000000,-0.000016,-0.000144,0.000043,0.207915,0.208118,0.207797,0.208170,1000,1010,1000,1010
9911,0,2.427732,1.339514,0.275486,-0.00,0.02,-0.004756,0.208000,0.000000,0.000000,0.000000,0.000000,0.000000,0.000000,-0.000010,-0.000152,0.000048,0.207906,0.208113,0.207791,0.208190,1000,1010,1000,1010
9921,0,2.429686,1.341612,0.270389,-0.00,0.02,-0.003061,0.208000,0.000000,0.000000,0.000000,0.000000,0.000000,0.000000,-0.000002,-0.000137,0.000031,0.207896,0.208107,0.207831,0.208166,1000,1010,1000,1010
9931,0,2.431249,1.343289,0.266311,-0.00,0.01,-0.002770,0.208000,0.000000,0.000000,0.000000,0.000000,0.000000,0.000000,0.000005,-0.000128,0.000028,0.207895,0.208095,0.207849,0.208161,1000,1010,1000,1010
9941,0,2.432499,1.344631,0.263049,-0.00,0.01,-0.002092,0.210000,0.000000,0.000000,0.000000,0.000000,0.000000,0.000000,0.000012,-0.000113,0.000021,0.209896,0.210080,0.209877,0.210146,1000,1011,1000,1011
9951,0,2.433499,1.345705,0.260439,-0.00,0.01,0.000904,0.210000,0.000000,0.000000,0.000000,0.000000,0.000000,0.000000,0.000016,-0.000115,-0.000009,0.209860,0.210108,0.209910,0.210123,1000,1011,1000,1011
9968,0,2.434299,1.346564,0.270851,-0.00,0.01,0.005067,0.210000,0.000000,0.000000,0.000000,0.000000,0.000000,0.000000,0.000017,-0.000107,-0.000050,0.209826,0.210141,0.209960,0.210073,1000,1011,1000,1011
9980,0,2.422440,1.347251,0.279181,-0.00,0.00,0.008420,0.210000,0.000000,0.000000,0.000000,0.000000,0.000000,0.000000,-0.000005,-0.000092,-0.000084,0.209828,0.210181,0.209987,0.210004,1000,1011,1000,1011
9992,0,2.412952,1.347801,0.285845,-0.01,0.01,0.008242,0.210000,0.000000,0.000000,0.000000,0.000000,0.000000,0.000000,-0.000018,-0.000093,-0.000082,0.209843,0.210194,0.209971,0.209993,1000,1011,1000,1011
10002,0,2.405361,1.348241,0.291176,-0.01,0.00,0.004039,0.211000,0.000000,0.000000,0.000000,0.000000,0.000000,0.000000,-0.000028,-0.000092,-0.000040,0.210896,0.211160,0.210920,0.211023,1000,1012,1000,1012
10012,0,2.411789,1.336093,0.282941,-0.00,0.00,-0.003080,0.212000,0.000000,0.000000,0.000000,0.000000,0.000000,0.000000,-0.000008,-0.000050,0.000031,0.211988,0.212027,0.211911,0.212074,1000,1013,1000,1013
10022,0,2.416931,1.326374,0.276353,-0.00,-0.00,-0.006000,0.212000,0.000000,0.000000,0.000000,0.000000,0.000000,0.000000,0.000010,-0.000002,0.000060,0.212048,0.211932,0.211947,0.212072,1000,1013,1000,1013
10032,0,2.421045,1.318599,0.271082,-0.00,-0.00,-0.010197,0.212000,0.000000,0.000000,0.000000,0.000000,0.000000,0.000000,0.000019,0.000035,0.000102,0.212118,0.211843,0.211952,0.212087,1000,1013,1000,1013
10042,0,2.436836,1.324880,0.266866,0.00,-0.00,-0.012855,0.215000,0.000000,0.000000,0.000000,0.000000,0.000000,0.000000,0.000053,0.000017,0.000129,0.215093,0.214800,0.214941,0.215165,1000,1015,1000,1015
10052,0,2.449469,1.329904,0.275993,0.01,-0.00,-0.013292,0.215000,0.000000,0.000000,0.000000,0.000000,0.000000,0.000000,0.000071,-0.000006,0.000134,0.215056,0.214802,0.214931,0.215211,1000,1015,1000,1015
10062,0,2.459575,1.333923,0.283294,0.01,0.00,-0.012548,0.215000,0.000000,0.000000,0.000000,0.000000,0.000000,0.000000,0.000085,-0.000020,0.000126,0.215021,0.214808,0.214939,0.215232,1000,1015,1000,1015
10072,0,2.467660,1.337138,0.289135,0.02,0.00,-0.007210,0.216000,0.000000,0.000000,0.000000,0.000000,0.000000,0.000000,0.000093,-0.000034,0.000073,0.215945,0.215868,0.215986,0.216200,1000,1016,1000,1016
10082,0,2.474128,1.327211,0.293808,0.02,-0.00,-0.006733,0.216000,0.000000,0.000000,0.000000,0.000000,0.000000,0.000000,0.000102,-0.000009,0.000068,0.215957,0.215839,0.216025,0.216179,1000,1016,1000,1016
