t,is_crashed,roll,pitch,yaw,p,q,r,throttle,p_cmd,q_cmd,r_cmd,roll_cmd,pitch_cmd,yaw_cmd,roll_pid_out,pitch_pid_out,yaw_pid_out,motor_fl,motor_bl,motor_fr,motor_br,pwm_fl,pwm_bl,pwm_fr,pwm_br
7043,0,2.250000,0.687500,-1.125000,-0.06,0.06,-0.118750,0.039000,0.000000,0.000000,0.000000,0.000000,0.000000,0.000000,-0.000596,-0.001011,0.001191,0.000000,0.000000,0.000000,0.000000,0,0,0,0
7055,0,0.000000,0.000000,-1.125000,-9.38,-3.04,-0.124688,0.039000,0.000000,0.000000,0.000000,0.000000,0.000000,0.000000,-0.094049,0.051823,0.001251,0.000000,0.000000,0.000000,0.000000,819,819,819,819
7064,0,0.000000,0.000000,-1.125000,0.00,-0.12,-0.065609,0.039000,0.000000,0.000000,0.000000,0.000000,0.000000,0.000000,-0.000033,0.002033,0.000659,0.000000,0.000000,0.000000,0.000000,819,819,819,819
7074,0,0.000000,0.000000,-1.125000,0.00,-0.12,0.115470,0.039000,0.000000,0.000000,0.000000,0.000000,0.000000,0.000000,-0.000033,0.002033,-0.001157,0.000000,0.000000,0.000000,0.000000,819,819,819,819
7084,0,0.000000,0.000000,-1.125000,-0.06,0.00,0.065148,0.039000,0.000000,0.000000,0.000000,0.000000,0.000000,0.000000,-0.000629,0.000011,-0.000653,0.000000,0.000000,0.000000,0.000000,819,819,819,819
7094,0,0.000000,0.000000,-1.125000,0.06,0.12,0.003257,0.039000,0.000000,0.000000,0.000000,0.000000,0.000000,0.000000,0.000562,-0.002011,-0.000032,0.000000,0.000000,0.000000,0.000000,819,819,819,819
7104,0,0.000000,0.000000,-1.125000,-0.12,0.18,-0.059212,0.039000,0.000000,0.000000,0.000000,0.000000,0.000000,0.000000,-0.001225,-0.003023,0.000594,0.000000,0.000000,0.000000,0.000000,819,819,819,819
7114,0,0.000000,0.000000,-1.125000,0.00,-0.06,0.056414,0.039000,0.000000,0.000000,0.000000,0.000000,0.000000,0.000000,-0.000034,0.001022,-0.000565,0.000000,0.000000,0.000000,0.000000,819,819,819,819
7124,0,0.000000,0.000000,-1.125000,0.06,0.00,-0.056554,0.039000,0.000000,0.000000,0.000000,0.000000,0.000000,0.000000,0.000562,0.000011,0.000568,0.000000,0.000000,0.000000,0.000000,819,819,819,819
7134,0,0.000000,0.000000,-1.125000,-0.06,-0.12,-0.121578,0.039000,0.000000,0.000000,0.000000,0.000000,0.000000,0.000000,-0.000629,0.002033,0.001220,0.000000,0.000000,0.000000,0.000000,819,819,819,819
7144,0,0.000000,0.000000,-1.125000,-0.06,-0.06,0.053296,0.039000,0.000000,0.000000,0.000000,0.000000,0.000000,0.000000,-0.000629,0.001022,-0.000534,0.000000,0.000000,0.000000,0.000000,819,819,819,819
7154,0,0.000000,0.000000,-1.125000,0.12,0.30,0.002665,0.039000,0.000000,0.000000,0.000000,0.000000,0.000000,0.000000,0.001157,-0.005045,-0.000026,0.000000,0.000000,0.000000,0.000000,819,819,819,819
7164,0,0.000000,0.000000,-1.125000,-0.06,0.00,0.000133,0.039000,0.000000,0.000000,0.000000,0.000000,0.000000,0.000000,-0.000629,0.000010,-0.000000,0.000000,0.000000,0.000000,0.000000,819,819,819,819
7174,0,0.000000,0.000000,-1.125000,0.00,-0.06,-0.059368,0.039000,0.000000,0.000000,0.000000,0.000000,0.000000,0.000000,-0.000034,0.001021,0.000596,0.000000,0.000000,0.000000,0.000000,819,819,819,819
7184,0,0.000000,0.000000,-1.125000,0.00,0.00,-0.002968,0.039000,0.000000,0.000000,0.000000,0.000000,0.000000,0.000000,-0.000034,0.000010,0.000031,0.000000,0.000000,0.000000,0.000000,819,819,819,819
7194,0,0.000000,0.000000,-1.125000,-0.06,-0.12,-0.000148,0.039000,0.000000,0.000000,0.000000,0.000000,0.000000,0.000000,-0.000629,0.002033,0.000003,0.000000,0.000000,0.000000,0.000000,819,819,819,819
7210,0,0.000000,0.000000,-1.125000,0.00,0.24,-0.059382,0.039000,0.000000,0.000000,0.000000,0.000000,0.000000,0.000000,-0.000034,-0.004034,0.000597,0.000000,0.000000,0.000000,0.000000,819,819,819,819
7223,0,0.000000,0.000000,-1.125000,0.00,0.18,-0.062344,0.039000,0.000000,0.000000,0.000000,0.000000,0.000000,0.000000,-0.000034,-0.003024,0.000627,0.000000,0.000000,0.000000,0.000000,819,819,819,819
7235,0,0.000000,0.000000,-1.125000,0.00,0.00,0.115633,0.039000,0.000000,0.000000,0.000000,0.000000,0.000000,0.000000,-0.000034,0.000009,-0.001158,0.000000,0.000000,0.000000,0.000000,819,819,819,819
7244,0,0.000000,0.000000,-1.125000,-0.18,-0.12,0.005782,0.039000,0.000000,0.000000,0.000000,0.000000,0.000000,0.000000,-0.001821,0.002032,-0.000057,0.000000,0.000000,0.000000,0.000000,819,819,819,819
7254,0,0.000000,0.000000,-1.125000,-0.06,0.06,0.000289,0.039000,0.000000,0.000000,0.000000,0.000000,0.000000,0.000000,-0.000630,-0.001002,-0.000002,0.000000,0.000000,0.000000,0.000000,819,819,819,819
7264,0,0.000000,0.000000,-1.125000,-0.06,0.06,-0.059361,0.039000,0.000000,0.000000,0.000000,0.000000,0.000000,0.000000,-0.000630,-0.001002,0.000597,0.000000,0.000000,0.000000,0.000000,819,819,819,819
7274,0,0.000000,0.000000,-1.125000,0.00,0.00,-0.062343,0.039000,0.000000,0.000000,0.000000,0.000000,0.000000,0.000000,-0.000035,0.000009,0.000627,0.000000,0.000000,0.000000,0.000000,819,819,819,819
7284,0,0.000000,0.000000,-1.125000,-0.12,0.00,-0.121867,0.039000,0.000000,0.000000,0.000000,0.000000,0.000000,0.000000,-0.001226,0.000009,0.001224,0.000000,0.000000,0.000000,0.000000,819,819,819,819
7294,0,0.000000,0.000000,-1.125000,0.06,-0.12,-0.065468,0.039000,0.000000,0.000000,0.000000,0.000000,0.000000,0.000000,0.000560,0.002032,0.000659,0.000000,0.000000,0.000000,0.000000,819,819,819,819
7304,0,0.000000,0.000000,-1.125000,-0.06,-0.12,0.056102,0.039000,0.000000,0.000000,0.000000,0.000000,0.000000,0.000000,-0.000631,0.002032,-0.000561,0.000000,0.000000,0.000000,0.000000,819,819,819,819
7314,0,0.000000,0.000000,-1.125000,0.06,0.00,0.002805,0.039000,0.000000,0.000000,0.000000,0.000000,0.000000,0.000000,0.000560,0.000010,-0.000026,0.000000,0.000000,0.000000,0.000000,819,819,819,819
7324,0,0.000000,0.000000,-1.125000,-0.06,-0.12,-0.059235,0.039000,0.000000,0.000000,0.000000,0.000000,0.000000,0.000000,-0.000631,0.002033,0.000596,0.000000,0.000000,0.000000,0.000000,819,819,819,819
7334,0,0.000000,0.000000,-1.125000,0.06,-0.06,-0.062337,0.039000,0.000000,0.000000,0.000000,0.000000,0.000000,0.000000,0.000560,0.001022,0.000628,0.000000,0.000000,0.000000,0.000000,819,819,819,819
7344,0,0.000000,0.000000,-1.125000,0.00,-0.12,-0.121867,0.039000,0.000000,0.000000,0.000000,0.000000,0.000000,0.000000,-0.000035,0.002033,0.001225,0.000000,0.000000,0.000000,0.000000,819,819,819,819
7354,0,0.000000,0.000000,-1.125000,-0.06,-0.36,-0.124843,0.039000,0.000000,0.000000,0.000000,0.000000,0.000000,0.000000,-0.000631,0.006078,0.001255,0.000000,0.000000,0.000000,0.000000,819,819,819,819
7364,0,0.000000,0.000000,-1.125000,-0.06,-0.59,0.053133,0.039000,0.000000,0.000000,0.000000,0.000000,0.000000,0.000000,-0.000631,0.010125,-0.000530,0.000000,0.000000,0.000000,0.000000,819,819,819,819
7374,0,0.000000,0.000000,-1.125000,0.00,0.06,-0.175468,0.039000,0.000000,0.000000,0.000000,0.000000,0.000000,0.000000,-0.000036,-0.000997,0.001763,0.000000,0.000000,0.000000,0.000000,819,819,819,819
7384,0,0.000000,0.000000,-1.125000,0.00,-0.36,0.050602,0.039000,0.000000,0.000000,0.000000,0.000000,0.000000,0.000000,-0.000036,0.006082,-0.000504,0.000000,0.000000,0.000000,0.000000,819,819,819,819
7394,0,0.000000,0.000000,-1.125000,0.06,0.30,-0.294345,0.039000,0.000000,0.000000,0.000000,0.000000,0.000000,0.000000,0.000560,-0.005040,0.002956,0.000000,0.000000,0.000000,0.000000,819,819,819,819
7404,0,0.000000,0.000000,-1.125000,-0.12,0.06,-0.133467,0.039000,0.000000,0.000000,0.000000,0.000000,0.000000,0.000000,-0.001227,-0.000997,0.001343,0.000000,0.000000,0.000000,0.000000,819,819,819,819
7414,0,0.000000,0.000000,-1.125000,-0.06,0.42,-0.184798,0.039000,0.000000,0.000000,0.000000,0.000000,0.000000,0.000000,-0.000631,-0.007064,0.001859,0.000000,0.000000,0.000000,0.000000,819,819,819,819
7424,0,0.000000,0.000000,-1.125000,-0.06,0.59,-0.306115,0.039000,0.000000,0.000000,0.000000,0.000000,0.000000,0.000000,-0.000632,-0.010099,0.003076,0.000000,0.000000,0.000000,0.000000,819,819,819,819
7434,0,0.000000,0.000000,-1.125000,-0.06,0.30,-0.312181,0.039000,0.000000,0.000000,0.000000,0.000000,0.000000,0.000000,-0.000632,-0.005045,0.003138,0.000000,0.000000,0.000000,0.000000,819,819,819,819
7444,0,0.000000,0.000000,-1.125000,-0.18,0.00,0.162516,0.039000,0.000000,0.000000,0.000000,0.000000,0.000000,0.000000,-0.001823,0.000010,-0.001622,0.000000,0.000000,0.000000,0.000000,819,819,819,819
7454,0,0.000000,0.000000,-1.125000,0.06,-0.12,-0.051249,0.039000,0.000000,0.000000,0.000000,0.000000,0.000000,0.000000,0.000558,0.002032,0.000522,0.000000,0.000000,0.000000,0.000000,819,819,819,819
7464,0,0.000000,0.000000,-1.125000,-0.12,-0.06,-0.061937,0.039000,0.000000,0.000000,0.000000,0.000000,0.000000,0.000000,-0.001228,0.001021,0.000629,0.000000,0.000000,0.000000,0.000000,819,819,819,819
7474,0,0.000000,0.000000,-1.125000,0.00,0.12,0.115653,0.039000,0.000000,0.000000,0.000000,0.000000,0.000000,0.000000,-0.000037,-0.002012,-0.001152,0.000000,0.000000,0.000000,0.000000,819,819,819,819
7484,0,0.000000,0.000000,-1.125000,0.06,-0.06,-0.112967,0.039000,0.000000,0.000000,0.000000,0.000000,0.000000,0.000000,0.000558,0.001021,0.001141,0.000000,0.000000,0.000000,0.000000,819,819,819,819
7495,0,0.000000,0.000000,-1.125000,-0.06,-0.24,0.053727,0.039000,0.000000,0.000000,0.000000,0.000000,0.000000,0.000000,-0.000633,0.004055,-0.000531,0.000000,0.000000,0.000000,0.000000,819,819,819,819
7505,0,0.000000,0.000000,-1.125000,-0.06,0.12,0.062061,0.039000,0.000000,0.000000,0.000000,0.000000,0.000000,0.000000,-0.000633,-0.002011,-0.000615,0.000000,0.000000,0.000000,0.000000,819,819,819,819
7515,0,0.000000,0.000000,-1.125000,-0.06,0.00,0.062478,0.039000,0.000000,0.000000,0.000000,0.000000,0.000000,0.000000,-0.000633,0.000011,-0.000619,0.000000,0.000000,0.000000,0.000000,819,819,819,819
7530,0,0.000000,0.000000,-1.125000,0.06,-0.42,0.003124,0.039000,0.000000,0.000000,0.000000,0.000000,0.000000,0.000000,0.000558,0.007089,-0.000024,0.000000,0.000000,0.000000,0.000000,819,819,819,819
7544,0,0.000000,0.000000,-1.125000,0.00,0.00,0.000156,0.039000,0.000000,0.000000,0.000000,0.000000,0.000000,0.000000,-0.000038,0.000012,0.000006,0.000000,0.000000,0.000000,0.000000,819,819,819,819
7554,0,0.000000,0.000000,-1.125000,0.12,-0.12,-0.118742,0.039000,0.000000,0.000000,0.000000,0.000000,0.000000,0.000000,0.001153,0.002034,0.001198,0.000000,0.000000,0.000000,0.000000,819,819,819,819
7565,0,0.000000,0.000000,-1.125000,0.00,-0.24,-0.005937,0.039000,0.000000,0.000000,0.000000,0.000000,0.000000,0.000000,-0.000037,0.004057,0.000067,0.000000,0.000000,0.000000,0.000000,819,819,819,819
7575,0,0.000000,0.000000,-1.125000,0.00,-0.24,-0.059672,0.039000,0.000000,0.000000,0.000000,0.000000,0.000000,0.000000,-0.000037,0.004058,0.000606,0.000000,0.000000,0.000000,0.000000,819,819,819,819
7585,0,0.000000,0.000000,-1.125000,0.00,0.00,0.056391,0.039000,0.000000,0.000000,0.000000,0.000000,0.000000,0.000000,-0.000037,0.000014,-0.000558,0.000000,0.000000,0.000000,0.000000,819,819,819,819
7595,0,0.000000,0.000000,-1.125000,-0.06,-0.47,0.062195,0.039000,0.000000,0.000000,0.000000,0.000000,0.000000,0.000000,-0.000633,0.008104,-0.000616,0.000000,0.000000,0.000000,0.000000,819,819,819,819
7605,0,0.000000,0.000000,-1.125000,-0.06,-0.30,-0.115640,0.039000,0.000000,0.000000,0.000000,0.000000,0.000000,0.000000,-0.000633,0.005072,0.001167,0.000000,0.000000,0.000000,0.000000,819,819,819,819
7615,0,0.000000,0.000000,-1.125000,0.00,-0.24,-0.183907,0.039000,0.000000,0.000000,0.000000,0.000000,0.000000,0.000000,-0.000038,0.004062,0.001853,0.000000,0.000000,0.000000,0.000000,819,819,819,819
7625,0,0.000000,0.000000,-1.125000,-0.06,-0.12,-0.187320,0.039000,0.000000,0.000000,0.000000,0.000000,0.000000,0.000000,-0.000633,0.002040,0.001888,0.000000,0.000000,0.000000,0.000000,819,819,819,819
7635,0,0.000000,0.000000,-1.125000,-0.06,-0.24,-0.068741,0.039000,0.000000,0.000000,0.000000,0.000000,0.000000,0.000000,-0.000633,0.004063,0.000699,0.000000,0.000000,0.000000,0.000000,819,819,819,819
7645,0,0.000000,0.000000,-1.125000,-0.06,0.00,-0.122187,0.039000,0.000000,0.000000,0.000000,0.000000,0.000000,0.000000,-0.000634,0.000020,0.001235,0.000000,0.000000,0.000000,0.000000,819,819,819,819
7655,0,0.000000,0.000000,-1.125000,0.12,-0.42,-0.065484,0.039000,0.000000,0.000000,0.000000,0.000000,0.000000,0.000000,0.001153,0.007098,0.000667,0.000000,0.000000,0.000000,0.000000,819,819,819,819
7665,0,0.000000,0.000000,-1.125000,0.00,-0.12,0.056101,0.039000,0.000000,0.000000,0.000000,0.000000,0.000000,0.000000,-0.000038,0.002043,-0.000552,0.000000,0.000000,0.000000,0.000000,819,819,819,819
7675,0,0.000000,0.000000,-1.125000,0.06,-0.12,-0.056570,0.039000,0.000000,0.000000,0.000000,0.000000,0.000000,0.000000,0.000558,0.002044,0.000578,0.000000,0.000000,0.000000,0.000000,819,819,819,819
7685,0,0.000000,0.000000,-1.125000,-0.06,-0.36,0.115921,0.039000,0.000000,0.000000,0.000000,0.000000,0.000000,0.000000,-0.000633,0.006089,-0.001152,0.000000,0.000000,0.000000,0.000000,819,819,819,819
7695,0,0.000000,0.000000,-1.125000,0.00,0.06,0.005796,0.039000,0.000000,0.000000,0.000000,0.000000,0.000000,0.000000,-0.000038,-0.000988,-0.000048,0.000000,0.000000,0.000000,0.000000,819,819,819,819
7705,0,0.000000,0.000000,-1.125000,-0.06,-0.36,-0.177835,0.039000,0.000000,0.000000,0.000000,0.000000,0.000000,0.000000,-0.000633,0.006090,0.001794,0.000000,0.000000,0.000000,0.000000,819,819,819,819
7715,0,0.000000,0.000000,-1.125000,0.00,-0.24,-0.008892,0.039000,0.000000,0.000000,0.000000,0.000000,0.000000,0.000000,-0.000038,0.004069,0.000100,0.000000,0.000000,0.000000,0.000000,819,819,819,819
7725,0,0.000000,0.000000,-1.125000,0.00,-0.12,0.237055,0.039000,0.000000,0.000000,0.000000,0.000000,0.000000,0.000000,-0.000038,0.002048,-0.002367,0.000000,0.000000,0.000000,0.000000,819,819,819,819
7735,0,0.000000,0.000000,-1.125000,0.06,-0.71,0.249353,0.039000,0.000000,0.000000,0.000000,0.000000,0.000000,0.000000,0.000557,0.012160,-0.002491,0.000000,0.000000,0.000000,0.000000,819,819,819,819
7745,0,0.000000,0.000000,-1.125000,0.06,-0.30,0.012468,0.039000,0.000000,0.000000,0.000000,0.000000,0.000000,0.000000,0.000558,0.005084,-0.000116,0.000000,0.000000,0.000000,0.000000,819,819,819,819
7755,0,0.000000,0.000000,-1.125000,-0.12,-0.71,0.059998,0.039000,0.000000,0.000000,0.000000,0.000000,0.000000,0.000000,-0.001229,0.012163,-0.000593,0.000000,0.000000,0.000000,0.000000,819,819,819,819
7765,0,0.000000,0.000000,-1.125000,0.00,-0.59,0.003000,0.039000,0.000000,0.000000,0.000000,0.000000,0.000000,0.000000,-0.000038,0.010144,-0.000022,0.000000,0.000000,0.000000,0.000000,819,819,819,819
7775,0,0.000000,0.000000,-1.125000,-0.18,-0.36,0.000150,0.039000,0.000000,0.000000,0.000000,0.000000,0.000000,0.000000,-0.001825,0.006102,0.000007,0.000000,0.000000,0.000000,0.000000,819,819,819,819
7785,0,0.000000,0.000000,-1.125000,-0.06,-0.47,0.059382,0.039000,0.000000,0.000000,0.000000,0.000000,0.000000,0.000000,-0.000634,0.008125,-0.000587,0.000000,0.000000,0.000000,0.000000,819,819,819,819
7795,0,0.000000,0.000000,-1.125000,0.00,-0.18,0.002969,0.039000,0.000000,0.000000,0.000000,0.000000,0.000000,0.000000,-0.000039,0.003071,-0.000022,0.000000,0.000000,0.000000,0.000000,819,819,819,819
7805,0,0.000000,0.000000,-1.125000,0.00,-0.42,-0.059227,0.039000,0.000000,0.000000,0.000000,0.000000,0.000000,0.000000,-0.000039,0.007117,0.000602,0.000000,0.000000,0.000000,0.000000,819,819,819,819
7815,0,0.000000,0.000000,-1.125000,0.06,-0.06,0.115789,0.039000,0.000000,0.000000,0.000000,0.000000,0.000000,0.000000,0.000556,0.001052,-0.001153,0.000000,0.000000,0.000000,0.000000,819,819,819,819
7825,0,0.000000,0.000000,-1.125000,0.06,0.00,-0.053586,0.039000,0.000000,0.000000,0.000000,0.000000,0.000000,0.000000,0.000557,0.000041,0.000545,0.000000,0.000000,0.000000,0.000000,819,819,819,819
7835,0,0.000000,0.000000,-1.125000,0.00,-0.36,0.116071,0.039000,0.000000,0.000000,0.000000,0.000000,0.000000,0.000000,-0.000039,0.006107,-0.001156,0.000000,0.000000,0.000000,0.000000,819,819,819,819
7851,0,0.000000,0.000000,-1.125000,-0.12,0.12,0.065179,0.039000,0.000000,0.000000,0.000000,0.000000,0.000000,0.000000,-0.001230,-0.001980,-0.000646,0.000000,0.000000,0.000000,0.000000,819,819,819,819
7865,0,0.000000,0.000000,-1.125000,0.06,0.12,-0.115491,0.039000,0.000000,0.000000,0.000000,0.000000,0.000000,0.000000,0.000556,-0.001981,0.001166,0.000000,0.000000,0.000000,0.000000,819,819,819,819
7875,0,0.000000,0.000000,-1.125000,0.00,0.30,-0.124525,0.039000,0.000000,0.000000,0.000000,0.000000,0.000000,0.000000,-0.000039,-0.005014,0.001257,0.000000,0.000000,0.000000,0.000000,819,819,819,819
7888,0,0.000000,0.000000,-1.125000,-0.06,-0.06,-0.184351,0.039000,0.000000,0.000000,0.000000,0.000000,0.000000,0.000000,-0.000634,0.001051,0.001857,0.000000,0.000000,0.000000,0.000000,819,819,819,819
7898,0,0.000000,0.000000,-1.125000,0.00,0.00,-0.127968,0.039000,0.000000,0.000000,0.000000,0.000000,0.000000,0.000000,-0.000039,0.000040,0.001293,0.000000,0.000000,0.000000,0.000000,819,819,819,819
7907,0,0.000000,0.000000,-1.125000,0.00,-0.06,0.112352,0.039000,0.000000,0.000000,0.000000,0.000000,0.000000,0.000000,-0.000039,0.001051,-0.001117,0.000000,0.000000,0.000000,0.000000,819,819,819,819
7917,0,0.000000,0.000000,-1.125000,0.18,0.00,-0.053757,0.039000,0.000000,0.000000,0.000000,0.000000,0.000000,0.000000,0.001747,0.000040,0.000548,0.000000,0.000000,0.000000,0.000000,819,819,819,819
7927,0,0.000000,0.000000,-1.125000,-0.06,0.12,0.116062,0.039000,0.000000,0.000000,0.000000,0.000000,0.000000,0.000000,-0.000634,-0.001982,-0.001155,0.000000,0.000000,0.000000,0.000000,819,819,819,819
7937,0,0.000000,0.000000,-1.125000,-0.06,0.06,0.065178,0.039000,0.000000,0.000000,0.000000,0.000000,0.000000,0.000000,-0.000634,-0.000971,-0.000645,0.000000,0.000000,0.000000,0.000000,819,819,819,819
7947,0,0.000000,0.000000,-1.125000,0.00,-0.06,-0.115491,0.039000,0.000000,0.000000,0.000000,0.000000,0.000000,0.000000,-0.000039,0.001051,0.001167,0.000000,0.000000,0.000000,0.000000,819,819,819,819
7956,0,0.000000,0.000000,-1.125000,0.00,0.00,-0.065150,0.039000,0.000000,0.000000,0.000000,0.000000,0.000000,0.000000,-0.000039,0.000040,0.000663,0.000000,0.000000,0.000000,0.000000,819,819,819,819
7966,0,0.000000,0.000000,-1.125000,-0.12,0.06,-0.062632,0.039000,0.000000,0.000000,0.000000,0.000000,0.000000,0.000000,-0.001230,-0.000971,0.000638,0.000000,0.000000,0.000000,0.000000,819,819,819,819
7976,0,0.000000,0.000000,-1.125000,-0.12,-0.18,-0.062507,0.039000,0.000000,0.000000,0.000000,0.000000,0.000000,0.000000,-0.001230,0.003073,0.000637,0.000000,0.000000,0.000000,0.000000,819,819,819,819
7986,0,0.000000,0.000000,-1.125000,0.00,-0.24,-0.062500,0.039000,0.000000,0.000000,0.000000,0.000000,0.000000,0.000000,-0.000040,0.004085,0.000637,0.000000,0.000000,0.000000,0.000000,819,819,819,819
7996,0,0.000000,0.000000,-1.125000,-0.06,0.06,-0.003125,0.039000,0.000000,0.000000,0.000000,0.000000,0.000000,0.000000,-0.000635,-0.000970,0.000042,0.000000,0.000000,0.000000,0.000000,819,819,819,819
8006,0,0.000000,0.000000,-1.125000,-0.06,0.24,-0.118906,0.039000,0.000000,0.000000,0.000000,0.000000,0.000000,0.000000,-0.000635,-0.004003,0.001203,0.000000,0.000000,0.000000,0.000000,819,819,819,819
8016,0,0.000000,0.000000,-1.125000,0.06,0.06,-0.065320,0.039000,0.000000,0.000000,0.000000,0.000000,0.000000,0.000000,0.000555,-0.000971,0.000666,0.000000,0.000000,0.000000,0.000000,819,819,819,819
8026,0,0.000000,0.000000,-1.125000,0.06,-0.12,-0.062641,0.039000,0.000000,0.000000,0.000000,0.000000,0.000000,0.000000,0.000556,0.002062,0.000639,0.000000,0.000000,0.000000,0.000000,819,819,819,819
8036,0,0.000000,0.000000,-1.125000,0.00,-0.24,-0.121882,0.039000,0.000000,0.000000,0.000000,0.000000,0.000000,0.000000,-0.000040,0.004085,0.001234,0.000000,0.000000,0.000000,0.000000,819,819,819,819
8046,0,0.000000,0.000000,-1.125000,-0.06,-0.18,-0.065469,0.039000,0.000000,0.000000,0.000000,0.000000,0.000000,0.000000,-0.000635,0.003075,0.000668,0.000000,0.000000,0.000000,0.000000,819,819,819,819
8056,0,0.000000,0.000000,-1.125000,-0.06,-0.18,-0.122023,0.039000,0.000000,0.000000,0.000000,0.000000,0.000000,0.000000,-0.000635,0.003075,0.001236,0.000000,0.000000,0.000000,0.000000,819,819,819,819
8066,0,0.000000,0.000000,-1.125000,-0.12,-0.06,0.112649,0.039000,0.000000,0.000000,0.000000,0.000000,0.000000,0.000000,-0.001231,0.001054,-0.001117,0.000000,0.000000,0.000000,0.000000,819,819,819,819
8076,0,0.000000,0.000000,-1.125000,-0.12,0.06,-0.053743,0.039000,0.000000,0.000000,0.000000,0.000000,0.000000,0.000000,-0.001232,-0.000968,0.000551,0.000000,0.000000,0.000000,0.000000,819,819,819,819
8086,0,0.000000,0.000000,-1.125000,0.00,-0.12,0.116063,0.039000,0.000000,0.000000,0.000000,0.000000,0.000000,0.000000,-0.000041,0.002065,-0.001152,0.000000,0.000000,0.000000,0.000000,819,819,819,819
8096,0,0.000000,0.000000,-1.125000,0.12,-0.06,-0.053572,0.039000,0.000000,0.000000,0.000000,0.000000,0.000000,0.000000,0.001150,0.001054,0.000549,0.000000,0.000000,0.000000,0.000000,819,819,819,819
8106,0,0.000000,0.000000,-1.125000,0.00,-0.06,-0.180804,0.039000,0.000000,0.000000,0.000000,0.000000,0.000000,0.000000,-0.000041,0.001055,0.001825,0.000000,0.000000,0.000000,0.000000,819,819,819,819
8116,0,0.000000,0.000000,-1.125000,0.00,-0.18,-0.127790,0.039000,0.000000,0.000000,0.000000,0.000000,0.000000,0.000000,-0.000041,0.003077,0.001294,0.000000,0.000000,0.000000,0.000000,819,819,819,819
8125,0,0.000000,0.000000,-1.125000,-0.06,0.00,-0.006390,0.039000,0.000000,0.000000,0.000000,0.000000,0.000000,0.000000,-0.000636,0.000044,0.000077,0.000000,0.000000,0.000000,0.000000,819,819,819,819
8136,0,0.000000,0.000000,-1.125000,0.00,-0.12,0.177806,0.039000,0.000000,0.000000,0.000000,0.000000,0.000000,0.000000,-0.000041,0.002067,-0.001770,0.000000,0.000000,0.000000,0.000000,819,819,819,819
8146,0,0.000000,0.000000,-1.125000,-0.06,-0.12,0.008890,0.039000,0.000000,0.000000,0.000000,0.000000,0.000000,0.000000,-0.000636,0.002067,-0.000077,0.000000,0.000000,0.000000,0.000000,819,819,819,819
8161,0,0.000000,0.000000,-1.125000,-0.06,-0.12,0.000445,0.039000,0.000000,0.000000,0.000000,0.000000,0.000000,0.000000,-0.000637,0.002068,0.000008,0.000000,0.000000,0.000000,0.000000,819,819,819,819
8175,0,0.000000,0.000000,-1.125000,0.06,0.06,-0.118728,0.039000,0.000000,0.000000,0.000000,0.000000,0.000000,0.000000,0.000554,-0.000965,0.001203,0.000000,0.000000,0.000000,0.000000,819,819,819,819
8186,0,0.000000,0.000000,-1.125000,0.06,0.06,-0.124686,0.039000,0.000000,0.000000,0.000000,0.000000,0.000000,0.000000,0.000554,-0.000965,0.001263,0.000000,0.000000,0.000000,0.000000,819,819,819,819
8196,0,0.000000,0.000000,-1.125000,0.06,-0.06,-0.065609,0.039000,0.000000,0.000000,0.000000,0.000000,0.000000,0.000000,0.000555,0.001057,0.000671,0.000000,0.000000,0.000000,0.000000,819,819,819,819
8206,0,0.000000,0.000000,-1.125000,0.06,0.00,-0.003280,0.039000,0.000000,0.000000,0.000000,0.000000,0.000000,0.000000,0.000555,0.000046,0.000047,0.000000,0.000000,0.000000,0.000000,819,819,819,819
8216,0,0.000000,0.000000,-1.125000,0.06,-0.12,-0.178289,0.039000,0.000000,0.000000,0.000000,0.000000,0.000000,0.000000,0.000555,0.002068,0.001802,0.000000,0.000000,0.000000,0.000000,819,819,819,819
8226,0,0.000000,0.000000,-1.125000,0.00,0.00,-0.068289,0.039000,0.000000,0.000000,0.000000,0.000000,0.000000,0.000000,-0.000040,0.000046,0.000699,0.000000,0.000000,0.000000,0.000000,819,819,819,819
8236,0,0.000000,0.000000,-1.125000,0.06,0.06,-0.122164,0.039000,0.000000,0.000000,0.000000,0.000000,0.000000,0.000000,0.000555,-0.000965,0.001240,0.000000,0.000000,0.000000,0.000000,819,819,819,819
8246,0,0.000000,0.000000,-1.125000,-0.06,0.12,-0.006108,0.039000,0.000000,0.000000,0.000000,0.000000,0.000000,0.000000,-0.000635,-0.001976,0.000077,0.000000,0.000000,0.000000,0.000000,819,819,819,819
8256,0,0.000000,0.000000,-1.125000,0.00,0.00,-0.000305,0.039000,0.000000,0.000000,0.000000,0.000000,0.000000,0.000000,-0.000040,0.000045,0.000018,0.000000,0.000000,0.000000,0.000000,819,819,819,819
8266,0,0.000000,0.000000,-1.125000,-0.12,0.00,-0.178140,0.039000,0.000000,0.000000,0.000000,0.000000,0.000000,0.000000,-0.001231,0.000045,0.001802,0.000000,0.000000,0.000000,0.000000,819,819,819,819
8276,0,0.000000,0.000000,-1.125000,-0.06,-0.18,-0.068282,0.039000,0.000000,0.000000,0.000000,0.000000,0.000000,0.000000,-0.000636,0.003079,0.000701,0.000000,0.000000,0.000000,0.000000,819,819,819,819
8286,0,0.000000,0.000000,-1.125000,-0.12,-0.18,-0.003414,0.039000,0.000000,0.000000,0.000000,0.000000,0.000000,0.000000,-0.001232,0.003079,0.000051,0.000000,0.000000,0.000000,0.000000,819,819,819,819
8296,0,0.000000,0.000000,-1.125000,0.06,0.00,-0.178296,0.039000,0.000000,0.000000,0.000000,0.000000,0.000000,0.000000,0.000554,0.000047,0.001804,0.000000,0.000000,0.000000,0.000000,819,819,819,819
8306,0,0.000000,0.000000,-1.125000,-0.12,-0.12,-0.127665,0.039000,0.000000,0.000000,0.000000,0.000000,0.000000,0.000000,-0.001232,0.002069,0.001297,0.000000,0.000000,0.000000,0.000000,819,819,819,819
8316,0,0.000000,0.000000,-1.125000,0.00,-0.06,-0.065758,0.039000,0.000000,0.000000,0.000000,0.000000,0.000000,0.000000,-0.000042,0.001058,0.000677,0.000000,0.000000,0.000000,0.000000,819,819,819,819
8326,0,0.000000,0.000000,-1.125000,-0.06,-0.12,-0.003288,0.039000,0.000000,0.000000,0.000000,0.000000,0.000000,0.000000,-0.000637,0.002070,0.000051,0.000000,0.000000,0.000000,0.000000,819,819,819,819
8336,0,0.000000,0.000000,-1.125000,-0.12,-0.06,0.059211,0.039000,0.000000,0.000000,0.000000,0.000000,0.000000,0.000000,-0.001233,0.001059,-0.000576,0.000000,0.000000,0.000000,0.000000,819,819,819,819
8346,0,0.000000,0.000000,-1.125000,-0.12,-0.24,0.002961,0.039000,0.000000,0.000000,0.000000,0.000000,0.000000,0.000000,-0.001233,0.004093,-0.000012,0.000000,0.000000,0.000000,0.000000,819,819,819,819
8356,0,0.000000,0.000000,-1.125000,0.00,-0.18,-0.059227,0.039000,0.000000,0.000000,0.000000,0.000000,0.000000,0.000000,-0.000043,0.003083,0.000612,0.000000,0.000000,0.000000,0.000000,819,819,819,819
8366,0,0.000000,0.000000,-1.125000,0.00,-0.12,-0.062336,0.039000,0.000000,0.000000,0.000000,0.000000,0.000000,0.000000,-0.000043,0.002072,0.000643,0.000000,0.000000,0.000000,0.000000,819,819,819,819
8376,0,0.000000,0.000000,-1.125000,0.06,0.12,-0.062492,0.039000,0.000000,0.000000,0.000000,0.000000,0.000000,0.000000,0.000553,-0.001971,0.000645,0.000000,0.000000,0.000000,0.000000,819,819,819,819
8387,0,0.000000,0.000000,-1.125000,0.00,0.06,-0.062500,0.039000,0.000000,0.000000,0.000000,0.000000,0.000000,0.000000,-0.000043,-0.000961,0.000645,0.000000,0.000000,0.000000,0.000000,819,819,819,819
8396,0,0.000000,0.000000,-1.125000,0.00,0.12,-0.181250,0.039000,0.000000,0.000000,0.000000,0.000000,0.000000,0.000000,-0.000043,-0.001972,0.001836,0.000000,0.000000,0.000000,0.000000,819,819,819,819
8406,0,0.000000,0.000000,-1.125000,-0.06,0.00,-0.127813,0.039000,0.000000,0.000000,0.000000,0.000000,0.000000,0.000000,-0.000638,0.000049,0.001301,0.000000,0.000000,0.000000,0.000000,819,819,819,819
8416,0,0.000000,0.000000,-1.125000,-0.06,-0.12,-0.125141,0.039000,0.000000,0.000000,0.000000,0.000000,0.000000,0.000000,-0.000638,0.002071,0.001275,0.000000,0.000000,0.000000,0.000000,819,819,819,819
8427,0,0.000000,0.000000,-1.125000,0.06,-0.18,0.053118,0.039000,0.000000,0.000000,0.000000,0.000000,0.000000,0.000000,0.000552,0.003083,-0.000512,0.000000,0.000000,0.000000,0.000000,819,819,819,819
8437,0,0.000000,0.000000,-1.125000,0.00,0.00,0.062031,0.039000,0.000000,0.000000,0.000000,0.000000,0.000000,0.000000,-0.000043,0.000051,-0.000602,0.000000,0.000000,0.000000,0.000000,819,819,819,819
8447,0,0.000000,0.000000,-1.125000,0.00,0.12,-0.056273,0.039000,0.000000,0.000000,0.000000,0.000000,0.000000,0.000000,-0.000043,-0.001971,0.000584,0.000000,0.000000,0.000000,0.000000,819,819,819,819
8457,0,0.000000,0.000000,-1.125000,0.18,-0.06,0.115936,0.039000,0.000000,0.000000,0.000000,0.000000,0.000000,0.000000,0.001743,0.001061,-0.001142,0.000000,0.000000,0.000000,0.000000,819,819,819,819
8467,0,0.000000,0.000000,-1.125000,0.06,0.00,0.065172,0.039000,0.000000,0.000000,0.000000,0.000000,0.000000,0.000000,0.000553,0.000050,-0.000634,0.000000,0.000000,0.000000,0.000000,819,819,819,819
8482,0,0.000000,0.000000,-1.125000,-0.06,0.12,0.122009,0.039000,0.000000,0.000000,0.000000,0.000000,0.000000,0.000000,-0.000637,-0.001972,-0.001204,0.000000,0.000000,0.000000,0.000000,819,819,819,819
8494,0,0.000000,0.000000,-1.125000,-0.06,-0.06,0.006100,0.039000,0.000000,0.000000,0.000000,0.000000,0.000000,0.000000,-0.000638,0.001061,-0.000042,0.000000,0.000000,0.000000,0.000000,819,819,819,819
8505,0,0.000000,0.000000,-1.125000,-0.06,0.00,0.000305,0.039000,0.000000,0.000000,0.000000,0.000000,0.000000,0.000000,-0.000638,0.000050,0.000016,0.000000,0.000000,0.000000,0.000000,819,819,819,819
8517,0,0.000000,0.000000,-1.125000,0.00,0.12,0.059390,0.039000,0.000000,0.000000,0.000000,0.000000,0.000000,0.000000,-0.000043,-0.001972,-0.000577,0.000000,0.000000,0.000000,0.000000,819,819,819,819
8528,0,0.000000,0.000000,-1.125000,0.00,0.00,0.002970,0.039000,0.000000,0.000000,0.000000,0.000000,0.000000,0.000000,-0.000043,0.000050,-0.000011,0.000000,0.000000,0.000000,0.000000,819,819,819,819
8537,0,0.000000,0.000000,-1.125000,-0.12,0.00,0.118898,0.039000,0.000000,0.000000,0.000000,0.000000,0.000000,0.000000,-0.001233,0.000050,-0.001174,0.000000,0.000000,0.000000,0.000000,819,819,819,819
8547,0,0.000000,0.000000,-1.125000,0.12,0.12,0.124695,0.039000,0.000000,0.000000,0.000000,0.000000,0.000000,0.000000,0.001148,-0.001972,-0.001232,0.000000,0.000000,0.000000,0.000000,819,819,819,819
8557,0,0.000000,0.000000,-1.125000,0.12,0.18,0.006235,0.039000,0.000000,0.000000,0.000000,0.000000,0.000000,0.000000,0.001148,-0.002984,-0.000045,0.000000,0.000000,0.000000,0.000000,819,819,819,819
8567,0,0.000000,0.000000,-1.125000,0.00,-0.18,0.119062,0.039000,0.000000,0.000000,0.000000,0.000000,0.000000,0.000000,-0.000042,0.003081,-0.001176,0.000000,0.000000,0.000000,0.000000,819,819,819,819
8577,0,0.000000,0.000000,-1.125000,0.12,0.06,0.124703,0.039000,0.000000,0.000000,0.000000,0.000000,0.000000,0.000000,0.001149,-0.000962,-0.001233,0.000000,0.000000,0.000000,0.000000,819,819,819,819
8587,0,0.000000,0.000000,-1.125000,0.00,-0.06,0.184360,0.039000,0.000000,0.000000,0.000000,0.000000,0.000000,0.000000,-0.000042,0.001060,-0.001832,0.000000,0.000000,0.000000,0.000000,819,819,819,819
8597,0,0.000000,0.000000,-1.125000,-0.06,-0.06,0.009218,0.039000,0.000000,0.000000,0.000000,0.000000,0.000000,0.000000,-0.000637,0.001060,-0.000077,0.000000,0.000000,0.000000,0.000000,819,819,819,819
8607,0,0.000000,0.000000,-1.125000,-0.06,0.06,0.059836,0.039000,0.000000,0.000000,0.000000,0.000000,0.000000,0.000000,-0.000637,-0.000962,-0.000584,0.000000,0.000000,0.000000,0.000000,819,819,819,819
8617,0,0.000000,0.000000,-1.125000,0.18,0.24,0.062367,0.039000,0.000000,0.000000,0.000000,0.000000,0.000000,0.000000,0.001744,-0.003995,-0.000610,0.000000,0.000000,0.000000,0.000000,819,819,819,819
8627,0,0.000000,0.000000,-1.125000,0.06,-0.06,0.121868,0.039000,0.000000,0.000000,0.000000,0.000000,0.000000,0.000000,0.000554,0.001059,-0.001207,0.000000,0.000000,0.000000,0.000000,819,819,819,819
8637,0,0.000000,0.000000,-1.125000,-0.18,-0.12,0.065468,0.039000,0.000000,0.000000,0.000000,0.000000,0.000000,0.000000,-0.001827,0.002070,-0.000642,0.000000,0.000000,0.000000,0.000000,819,819,819,819
8647,0,0.000000,0.000000,-1.125000,0.06,0.06,0.003273,0.039000,0.000000,0.000000,0.000000,0.000000,0.000000,0.000000,0.000553,-0.000962,-0.000018,0.000000,0.000000,0.000000,0.000000,819,819,819,819
8657,0,0.000000,0.000000,-1.125000,-0.06,0.24,0.059539,0.039000,0.000000,0.000000,0.000000,0.000000,0.000000,0.000000,-0.000637,-0.003995,-0.000583,0.000000,0.000000,0.000000,0.000000,819,819,819,819
8667,0,0.000000,0.000000,-1.125000,0.06,0.00,-0.056398,0.039000,0.000000,0.000000,0.000000,0.000000,0.000000,0.000000,0.000553,0.000048,0.000580,0.000000,0.000000,0.000000,0.000000,819,819,819,819
8677,0,0.000000,0.000000,-1.125000,0.00,0.00,-0.002820,0.039000,0.000000,0.000000,0.000000,0.000000,0.000000,0.000000,-0.000042,0.000048,0.000043,0.000000,0.000000,0.000000,0.000000,819,819,819,819
8687,0,0.000000,0.000000,-1.125000,-0.18,0.00,0.059234,0.039000,0.000000,0.000000,0.000000,0.000000,0.000000,0.000000,-0.001828,0.000048,-0.000580,0.000000,0.000000,0.000000,0.000000,819,819,819,819
8697,0,0.000000,0.000000,-1.125000,0.00,-0.12,0.062337,0.039000,0.000000,0.000000,0.000000,0.000000,0.000000,0.000000,-0.000042,0.002070,-0.000611,0.000000,0.000000,0.000000,0.000000,819,819,819,819
8707,0,0.000000,0.000000,-1.125000,0.00,-0.06,-0.056258,0.039000,0.000000,0.000000,0.000000,0.000000,0.000000,0.000000,-0.000042,0.001059,0.000578,0.000000,0.000000,0.000000,0.000000,819,819,819,819
8717,0,0.000000,0.000000,-1.125000,-0.06,0.24,-0.121563,0.039000,0.000000,0.000000,0.000000,0.000000,0.000000,0.000000,-0.000638,-0.003996,0.001233,0.000000,0.000000,0.000000,0.000000,819,819,819,819
8730,0,0.000000,0.000000,-1.125000,0.06,0.06,0.112672,0.039000,0.000000,0.000000,0.000000,0.000000,0.000000,0.000000,0.000553,-0.000964,-0.001115,0.000000,0.000000,0.000000,0.000000,819,819,819,819
8739,0,0.000000,0.000000,-1.125000,0.06,0.06,0.065009,0.039000,0.000000,0.000000,0.000000,0.000000,0.000000,0.000000,0.000553,-0.000964,-0.000638,0.000000,0.000000,0.000000,0.000000,819,819,819,819
8749,0,0.000000,0.000000,-1.125000,-0.12,0.06,-0.115500,0.039000,0.000000,0.000000,0.000000,0.000000,0.000000,0.000000,-0.001233,-0.000964,0.001172,0.000000,0.000000,0.000000,0.000000,819,819,819,819
8759,0,0.000000,0.000000,-1.125000,-0.12,-0.12,0.053600,0.039000,0.000000,0.000000,0.000000,0.000000,0.000000,0.000000,-0.001233,0.002069,-0.000523,0.000000,0.000000,0.000000,0.000000,819,819,819,819
8769,0,0.000000,0.000000,-1.125000,-0.12,0.12,0.121430,0.039000,0.000000,0.000000,0.000000,0.000000,0.000000,0.000000,-0.001234,-0.001975,-0.001203,0.000000,0.000000,0.000000,0.000000,819,819,819,819
8778,0,0.000000,0.000000,-1.125000,0.00,0.12,0.124821,0.039000,0.000000,0.000000,0.000000,0.000000,0.000000,0.000000,-0.000044,-0.001975,-0.001238,0.000000,0.000000,0.000000,0.000000,819,819,819,819
8792,0,0.000000,0.000000,-1.125000,-0.12,0.12,-0.053134,0.039000,0.000000,0.000000,0.000000,0.000000,0.000000,0.000000,-0.001234,-0.001976,0.000546,0.000000,0.000000,0.000000,0.000000,819,819,819,819
8806,0,0.000000,0.000000,-1.125000,-0.06,-0.12,-0.002657,0.039000,0.000000,0.000000,0.000000,0.000000,0.000000,0.000000,-0.000640,0.002067,0.000040,0.000000,0.000000,0.000000,0.000000,819,819,819,819
8817,0,0.000000,0.000000,-1.125000,-0.12,-0.06,-0.000133,0.039000,0.000000,0.000000,0.000000,0.000000,0.000000,0.000000,-0.001235,0.001057,0.000015,0.000000,0.000000,0.000000,0.000000,819,819,819,819
8827,0,0.000000,0.000000,-1.125000,0.00,0.12,-0.000007,0.039000,0.000000,0.000000,0.000000,0.000000,0.000000,0.000000,-0.000045,-0.001976,0.000013,0.000000,0.000000,0.000000,0.000000,819,819,819,819
8837,0,0.000000,0.000000,-1.125000,-0.12,0.12,-0.000000,0.039000,0.000000,0.000000,0.000000,0.000000,0.000000,0.000000,-0.001236,-0.001976,0.000013,0.000000,0.000000,0.000000,0.000000,819,819,819,819
8847,0,0.000000,0.000000,-1.125000,0.00,0.00,-0.000000,0.039000,0.000000,0.000000,0.000000,0.000000,0.000000,0.000000,-0.000046,0.000045,0.000013,0.000000,0.000000,0.000000,0.000000,819,819,819,819
8857,0,0.000000,0.000000,-1.125000,0.06,0.18,0.059375,0.039000,0.000000,0.000000,0.000000,0.000000,0.000000,0.000000,0.000550,-0.002988,-0.000582,0.000000,0.000000,0.000000,0.000000,819,819,819,819
8867,0,0.000000,0.000000,-1.125000,0.00,-0.06,0.002969,0.039000,0.000000,0.000000,0.000000,0.000000,0.000000,0.000000,-0.000045,0.001055,-0.000017,0.000000,0.000000,0.000000,0.000000,819,819,819,819
8877,0,0.000000,0.000000,-1.125000,0.06,0.06,0.000148,0.039000,0.000000,0.000000,0.000000,0.000000,0.000000,0.000000,0.000550,-0.000966,0.000012,0.000000,0.000000,0.000000,0.000000,819,819,819,819
8888,0,0.000000,0.000000,-1.125000,0.06,-0.06,0.000007,0.039000,0.000000,0.000000,0.000000,0.000000,0.000000,0.000000,0.000550,0.001055,0.000013,0.000000,0.000000,0.000000,0.000000,819,819,819,819
8898,0,0.000000,0.000000,-1.125000,-0.12,-0.06,0.118750,0.039000,0.000000,0.000000,0.000000,0.000000,0.000000,0.000000,-0.001235,0.001056,-0.001178,0.000000,0.000000,0.000000,0.000000,819,819,819,819
8908,0,0.000000,0.000000,-1.125000,0.06,0.18,0.005938,0.039000,0.000000,0.000000,0.000000,0.000000,0.000000,0.000000,0.000550,-0.002988,-0.000047,0.000000,0.000000,0.000000,0.000000,819,819,819,819
8917,0,0.000000,0.000000,-1.125000,-0.06,-0.12,0.059672,0.039000,0.000000,0.000000,0.000000,0.000000,0.000000,0.000000,-0.000640,0.002066,-0.000586,0.000000,0.000000,0.000000,0.000000,819,819,819,819
8927,0,0.000000,0.000000,-1.125000,-0.06,0.18,0.121734,0.039000,0.000000,0.000000,0.000000,0.000000,0.000000,0.000000,-0.000641,-0.002988,-0.001208,0.000000,0.000000,0.000000,0.000000,819,819,819,819
8938,0,0.000000,0.000000,-1.125000,-0.18,0.06,0.065462,0.039000,0.000000,0.000000,0.000000,0.000000,0.000000,0.000000,-0.001832,-0.000967,-0.000645,0.000000,0.000000,0.000000,0.000000,819,819,819,819
8948,0,0.000000,0.000000,-1.125000,-0.06,0.00,-0.056102,0.039000,0.000000,0.000000,0.000000,0.000000,0.000000,0.000000,-0.000642,0.000044,0.000574,0.000000,0.000000,0.000000,0.000000,819,819,819,819
8958,0,0.000000,0.000000,-1.125000,0.00,-0.24,-0.002805,0.039000,0.000000,0.000000,0.000000,0.000000,0.000000,0.000000,-0.000047,0.004088,0.000040,0.000000,0.000000,0.000000,0.000000,819,819,819,819
8967,0,0.000000,0.000000,-1.125000,0.00,-0.18,0.118610,0.039000,0.000000,0.000000,0.000000,0.000000,0.000000,0.000000,-0.000047,0.003078,-0.001178,0.000000,0.000000,0.000000,0.000000,819,819,819,819
8978,0,0.000000,0.000000,-1.125000,-0.06,-0.24,-0.053445,0.039000,0.000000,0.000000,0.000000,0.000000,0.000000,0.000000,-0.000642,0.004089,0.000547,0.000000,0.000000,0.000000,0.000000,819,819,819,819
8988,0,0.000000,0.000000,-1.125000,-0.06,0.00,-0.062047,0.039000,0.000000,0.000000,0.000000,0.000000,0.000000,0.000000,-0.000642,0.000047,0.000633,0.000000,0.000000,0.000000,0.000000,819,819,819,819
8998,0,0.000000,0.000000,-1.125000,0.00,0.18,0.056273,0.039000,0.000000,0.000000,0.000000,0.000000,0.000000,0.000000,-0.000047,-0.002986,-0.000553,0.000000,0.000000,0.000000,0.000000,819,819,819,819
9008,0,0.000000,0.000000,-1.125000,-0.06,0.18,0.002814,0.039000,0.000000,0.000000,0.000000,0.000000,0.000000,0.000000,-0.000642,-0.002987,-0.000017,0.000000,0.000000,0.000000,0.000000,819,819,819,819
9018,0,0.000000,0.000000,-1.125000,-0.06,0.06,0.118891,0.039000,0.000000,0.000000,0.000000,0.000000,0.000000,0.000000,-0.000643,-0.000966,-0.001181,0.000000,0.000000,0.000000,0.000000,819,819,819,819
9028,0,0.000000,0.000000,-1.125000,-0.06,0.00,0.124695,0.039000,0.000000,0.000000,0.000000,0.000000,0.000000,0.000000,-0.000643,0.000045,-0.001239,0.000000,0.000000,0.000000,0.000000,819,819,819,819
9038,0,0.000000,0.000000,-1.125000,0.06,-0.24,-0.053140,0.039000,0.000000,0.000000,0.000000,0.000000,0.000000,0.000000,0.000547,0.004089,0.000543,0.000000,0.000000,0.000000,0.000000,819,819,819,819
9048,0,0.000000,0.000000,-1.125000,0.00,-0.18,0.056718,0.039000,0.000000,0.000000,0.000000,0.000000,0.000000,0.000000,-0.000048,0.003079,-0.000558,0.000000,0.000000,0.000000,0.000000,819,819,819,819
9058,0,0.000000,0.000000,-1.125000,0.12,0.00,0.002836,0.039000,0.000000,0.000000,0.000000,0.000000,0.000000,0.000000,0.001143,0.000047,-0.000018,0.000000,0.000000,0.000000,0.000000,819,819,819,819
9068,0,0.000000,0.000000,-1.125000,0.00,0.06,-0.059233,0.039000,0.000000,0.000000,0.000000,0.000000,0.000000,0.000000,-0.000047,-0.000964,0.000604,0.000000,0.000000,0.000000,0.000000,819,819,819,819
9078,0,0.000000,0.000000,-1.125000,0.00,0.06,-0.002962,0.039000,0.000000,0.000000,0.000000,0.000000,0.000000,0.000000,-0.000047,-0.000965,0.000040,0.000000,0.000000,0.000000,0.000000,819,819,819,819
9088,0,0.000000,0.000000,-1.125000,0.00,-0.18,-0.059523,0.039000,0.000000,0.000000,0.000000,0.000000,0.000000,0.000000,-0.000047,0.003079,0.000607,0.000000,0.000000,0.000000,0.000000,819,819,819,819
9098,0,0.000000,0.000000,-1.125000,0.06,0.06,-0.062351,0.039000,0.000000,0.000000,0.000000,0.000000,0.000000,0.000000,0.000548,-0.000964,0.000636,0.000000,0.000000,0.000000,0.000000,819,819,819,819
9112,0,0.000000,0.000000,-1.125000,0.12,-0.06,-0.062493,0.039000,0.000000,0.000000,0.000000,0.000000,0.000000,0.000000,0.001144,0.001058,0.000638,0.000000,0.000000,0.000000,0.000000,819,819,819,819
9125,0,0.000000,0.000000,-1.125000,0.12,-0.18,-0.003125,0.039000,0.000000,0.000000,0.000000,0.000000,0.000000,0.000000,0.001144,0.003080,0.000043,0.000000,0.000000,0.000000,0.000000,819,819,819,819
9138,0,0.000000,0.000000,-1.125000,0.00,0.00,0.118594,0.039000,0.000000,0.000000,0.000000,0.000000,0.000000,0.000000,-0.000046,0.000048,-0.001178,0.000000,0.000000,0.000000,0.000000,819,819,819,819
9148,0,0.000000,0.000000,-1.125000,0.12,0.12,0.005930,0.039000,0.000000,0.000000,0.000000,0.000000,0.000000,0.000000,0.001145,-0.001974,-0.000049,0.000000,0.000000,0.000000,0.000000,819,819,819,819
9158,0,0.000000,0.000000,-1.125000,0.06,-0.06,-0.059079,0.039000,0.000000,0.000000,0.000000,0.000000,0.000000,0.000000,0.000550,0.001058,0.000603,0.000000,0.000000,0.000000,0.000000,819,819,819,819
9168,0,0.000000,0.000000,-1.125000,0.06,0.00,-0.121704,0.039000,0.000000,0.000000,0.000000,0.000000,0.000000,0.000000,0.000550,0.000047,0.001231,0.000000,0.000000,0.000000,0.000000,819,819,819,819
9178,0,0.000000,0.000000,-1.125000,0.12,0.00,-0.124835,0.039000,0.000000,0.000000,0.000000,0.000000,0.000000,0.000000,0.001146,0.000047,0.001263,0.000000,0.000000,0.000000,0.000000,819,819,819,819
9188,0,0.000000,0.000000,-1.125000,-0.06,-0.12,-0.006242,0.039000,0.000000,0.000000,0.000000,0.000000,0.000000,0.000000,-0.000639,0.002069,0.000075,0.000000,0.000000,0.000000,0.000000,819,819,819,819
9198,0,0.000000,0.000000,-1.125000,-0.06,-0.06,0.059063,0.039000,0.000000,0.000000,0.000000,0.000000,0.000000,0.000000,-0.000640,0.001059,-0.000580,0.000000,0.000000,0.000000,0.000000,819,819,819,819
9208,0,0.000000,0.000000,-1.125000,-0.06,0.06,0.062328,0.039000,0.000000,0.000000,0.000000,0.000000,0.000000,0.000000,-0.000640,-0.000963,-0.000613,0.000000,0.000000,0.000000,0.000000,819,819,819,819
9218,0,0.000000,0.000000,-1.125000,0.12,-0.18,0.062491,0.039000,0.000000,0.000000,0.000000,0.000000,0.000000,0.000000,0.001146,0.003081,-0.000615,0.000000,0.000000,0.000000,0.000000,819,819,819,819
9228,0,0.000000,0.000000,-1.125000,0.00,0.00,0.181250,0.039000,0.000000,0.000000,0.000000,0.000000,0.000000,0.000000,-0.000044,0.000049,-0.001806,0.000000,0.000000,0.000000,0.000000,819,819,819,819
9238,0,0.000000,0.000000,-1.125000,-0.06,-0.12,-0.050313,0.039000,0.000000,0.000000,0.000000,0.000000,0.000000,0.000000,-0.000640,0.002071,0.000515,0.000000,0.000000,0.000000,0.000000,819,819,819,819
9248,0,0.000000,0.000000,-1.125000,0.00,-0.06,-0.061891,0.039000,0.000000,0.000000,0.000000,0.000000,0.000000,0.000000,-0.000045,0.001060,0.000631,0.000000,0.000000,0.000000,0.000000,819,819,819,819
9258,0,0.000000,0.000000,-1.125000,-0.06,0.00,0.115655,0.039000,0.000000,0.000000,0.000000,0.000000,0.000000,0.000000,-0.000640,0.000050,-0.001149,0.000000,0.000000,0.000000,0.000000,819,819,819,819
9268,0,0.000000,0.000000,-1.125000,0.06,-0.06,0.005783,0.039000,0.000000,0.000000,0.000000,0.000000,0.000000,0.000000,0.000550,0.001061,-0.000047,0.000000,0.000000,0.000000,0.000000,819,819,819,819
9278,0,0.000000,0.000000,-1.125000,0.06,-0.18,0.059664,0.039000,0.000000,0.000000,0.000000,0.000000,0.000000,0.000000,0.000551,0.003083,-0.000588,0.000000,0.000000,0.000000,0.000000,819,819,819,819
9289,0,0.000000,0.000000,-1.125000,0.00,-0.18,0.062358,0.039000,0.000000,0.000000,0.000000,0.000000,0.000000,0.000000,-0.000044,0.003083,-0.000615,0.000000,0.000000,0.000000,0.000000,819,819,819,819
9298,0,0.000000,0.000000,-1.125000,0.06,0.06,0.121868,0.039000,0.000000,0.000000,0.000000,0.000000,0.000000,0.000000,0.000551,-0.000959,-0.001212,0.000000,0.000000,0.000000,0.000000,819,819,819,819
9308,0,0.000000,0.000000,-1.125000,0.00,-0.18,-0.053282,0.039000,0.000000,0.000000,0.000000,0.000000,0.000000,0.000000,-0.000044,0.003084,0.000544,0.000000,0.000000,0.000000,0.000000,819,819,819,819
9318,0,0.000000,0.000000,-1.125000,0.06,-0.12,0.056711,0.039000,0.000000,0.000000,0.000000,0.000000,0.000000,0.000000,0.000551,0.002074,-0.000559,0.000000,0.000000,0.000000,0.000000,819,819,819,819
9328,0,0.000000,0.000000,-1.125000,0.18,0.00,0.121586,0.039000,0.000000,0.000000,0.000000,0.000000,0.000000,0.000000,0.001742,0.000053,-0.001210,0.000000,0.000000,0.000000,0.000000,819,819,819,819
9338,0,0.000000,0.000000,-1.125000,0.06,-0.06,0.124829,0.039000,0.000000,0.000000,0.000000,0.000000,0.000000,0.000000,0.000552,0.001064,-0.001243,0.000000,0.000000,0.000000,0.000000,819,819,819,819
9349,0,0.000000,0.000000,-1.125000,-0.06,0.36,0.065616,0.039000,0.000000,0.000000,0.000000,0.000000,0.000000,0.000000,-0.000638,-0.006013,-0.000650,0.000000,0.000000,0.000000,0.000000,819,819,819,819
9358,0,0.000000,0.000000,-1.125000,0.00,0.12,-0.056094,0.039000,0.000000,0.000000,0.000000,0.000000,0.000000,0.000000,-0.000043,-0.001971,0.000570,0.000000,0.000000,0.000000,0.000000,819,819,819,819
9368,0,0.000000,0.000000,-1.125000,0.06,-0.30,-0.062180,0.039000,0.000000,0.000000,0.000000,0.000000,0.000000,0.000000,0.000552,0.005105,0.000632,0.000000,0.000000,0.000000,0.000000,819,819,819,819
9378,0,0.000000,0.000000,-1.125000,0.12,-0.36,0.115641,0.039000,0.000000,0.000000,0.000000,0.000000,0.000000,0.000000,0.001148,0.006118,-0.001151,0.000000,0.000000,0.000000,0.000000,819,819,819,819
9389,0,0.000000,0.000000,-1.125000,0.00,-0.12,0.124532,0.039000,0.000000,0.000000,0.000000,0.000000,0.000000,0.000000,-0.000042,0.002076,-0.001241,0.000000,0.000000,0.000000,0.000000,819,819,819,819
9398,0,0.000000,0.000000,-1.125000,0.00,0.06,0.006227,0.039000,0.000000,0.000000,0.000000,0.000000,0.000000,0.000000,-0.000042,-0.000957,-0.000055,0.000000,0.000000,0.000000,0.000000,819,819,819,819
9408,0,0.000000,0.000000,-1.125000,0.06,0.18,0.000311,0.039000,0.000000,0.000000,0.000000,0.000000,0.000000,0.000000,0.000553,-0.002979,0.000004,0.000000,0.000000,0.000000,0.000000,819,819,819,819
9419,0,0.000000,0.000000,-1.125000,0.06,0.12,0.118766,0.039000,0.000000,0.000000,0.000000,0.000000,0.000000,0.000000,0.000553,-0.001969,-0.001183,0.000000,0.000000,0.000000,0.000000,819,819,819,819
9434,0,0.000000,0.000000,-1.125000,0.00,0.12,0.124688,0.039000,0.000000,0.000000,0.000000,0.000000,0.000000,0.000000,-0.000042,-0.001969,-0.001243,0.000000,0.000000,0.000000,0.000000,819,819,819,819
9445,0,0.000000,0.000000,-1.125000,0.00,0.00,0.006234,0.039000,0.000000,0.000000,0.000000,0.000000,0.000000,0.000000,-0.000042,0.000052,-0.000056,0.000000,0.000000,0.000000,0.000000,819,819,819,819
9457,0,0.000000,0.000000,-1.125000,0.00,0.00,-0.059063,0.039000,0.000000,0.000000,0.000000,0.000000,0.000000,0.000000,-0.000042,0.000052,0.000598,0.000000,0.000000,0.000000,0.000000,819,819,819,819
9468,0,0.000000,0.000000,-1.125000,0.00,0.06,-0.121703,0.039000,0.000000,0.000000,0.000000,0.000000,0.000000,0.000000,-0.000042,-0.000959,0.001227,0.000000,0.000000,0.000000,0.000000,819,819,819,819
9478,0,0.000000,0.000000,-1.125000,0.12,0.24,-0.006085,0.039000,0.000000,0.000000,0.000000,0.000000,0.000000,0.000000,0.001149,-0.003992,0.000068,0.000000,0.000000,0.000000,0.000000,819,819,819,819
9489,0,0.000000,0.000000,-1.125000,0.06,0.06,-0.059679,0.039000,0.000000,0.000000,0.000000,0.000000,0.000000,0.000000,0.000554,-0.000960,0.000605,0.000000,0.000000,0.000000,0.000000,819,819,819,819
9499,0,0.000000,0.000000,-1.125000,0.00,0.06,-0.002984,0.039000,0.000000,0.000000,0.000000,0.000000,0.000000,0.000000,-0.000041,-0.000961,0.000037,0.000000,0.000000,0.000000,0.000000,819,819,819,819
9509,0,0.000000,0.000000,-1.125000,0.06,-0.12,0.059226,0.039000,0.000000,0.000000,0.000000,0.000000,0.000000,0.000000,0.000554,0.002072,-0.000587,0.000000,0.000000,0.000000,0.000000,819,819,819,819
9519,0,0.000000,0.000000,-1.125000,-0.06,0.18,0.002961,0.039000,0.000000,0.000000,0.000000,0.000000,0.000000,0.000000,-0.000636,-0.002982,-0.000023,0.000000,0.000000,0.000000,0.000000,819,819,819,819
9529,0,0.000000,0.000000,-1.125000,0.06,0.00,0.000148,0.039000,0.000000,0.000000,0.000000,0.000000,0.000000,0.000000,0.000554,0.000050,0.000005,0.000000,0.000000,0.000000,0.000000,819,819,819,819
9539,0,0.000000,0.000000,-1.125000,0.00,-0.18,-0.118743,0.039000,0.000000,0.000000,0.000000,0.000000,0.000000,0.000000,-0.000041,0.003083,0.001197,0.000000,0.000000,0.000000,0.000000,819,819,819,819
9549,0,0.000000,0.000000,-1.125000,0.00,-0.18,-0.065312,0.039000,0.000000,0.000000,0.000000,0.000000,0.000000,0.000000,-0.000041,0.003083,0.000662,0.000000,0.000000,0.000000,0.000000,819,819,819,819
9559,0,0.000000,0.000000,-1.125000,-0.06,-0.12,-0.062641,0.039000,0.000000,0.000000,0.000000,0.000000,0.000000,0.000000,-0.000636,0.002073,0.000636,0.000000,0.000000,0.000000,0.000000,819,819,819,819
9569,0,0.000000,0.000000,-1.125000,-0.06,0.12,-0.062507,0.039000,0.000000,0.000000,0.000000,0.000000,0.000000,0.000000,-0.000636,-0.001970,0.000635,0.000000,0.000000,0.000000,0.000000,819,819,819,819
9582,0,0.000000,0.000000,-1.125000,0.00,0.42,0.175000,0.039000,0.000000,0.000000,0.000000,0.000000,0.000000,0.000000,-0.000041,-0.007025,-0.001746,0.000000,0.000000,0.000000,0.000000,819,819,819,819
9591,0,0.000000,0.000000,-1.125000,0.06,0.24,0.127500,0.039000,0.000000,0.000000,0.000000,0.000000,0.000000,0.000000,0.000554,-0.003994,-0.001271,0.000000,0.000000,0.000000,0.000000,819,819,819,819
9601,0,0.000000,0.000000,-1.125000,0.00,0.24,0.006375,0.039000,0.000000,0.000000,0.000000,0.000000,0.000000,0.000000,-0.000041,-0.003995,-0.000057,0.000000,0.000000,0.000000,0.000000,819,819,819,819
9610,0,0.000000,0.000000,-1.125000,0.06,0.06,-0.059056,0.039000,0.000000,0.000000,0.000000,0.000000,0.000000,0.000000,0.000554,-0.000964,0.000599,0.000000,0.000000,0.000000,0.000000,819,819,819,819
9620,0,0.000000,0.000000,-1.125000,0.00,-0.12,-0.062328,0.039000,0.000000,0.000000,0.000000,0.000000,0.000000,0.000000,-0.000041,0.002069,0.000632,0.000000,0.000000,0.000000,0.000000,819,819,819,819
9630,0,0.000000,0.000000,-1.125000,0.00,-0.36,-0.062491,0.039000,0.000000,0.000000,0.000000,0.000000,0.000000,0.000000,-0.000041,0.006113,0.000634,0.000000,0.000000,0.000000,0.000000,819,819,819,819
9640,0,0.000000,0.000000,-1.125000,-0.12,-0.24,-0.003125,0.039000,0.000000,0.000000,0.000000,0.000000,0.000000,0.000000,-0.001231,0.004093,0.000039,0.000000,0.000000,0.000000,0.000000,819,819,819,819
9650,0,0.000000,0.000000,-1.125000,0.12,0.30,-0.118906,0.039000,0.000000,0.000000,0.000000,0.000000,0.000000,0.000000,0.001149,-0.005004,0.001200,0.000000,0.000000,0.000000,0.000000,819,819,819,819
9660,0,0.000000,0.000000,-1.125000,0.06,0.47,-0.065320,0.039000,0.000000,0.000000,0.000000,0.000000,0.000000,0.000000,0.000555,-0.008038,0.000663,0.000000,0.000000,0.000000,0.000000,819,819,819,819
9670,0,0.000000,0.000000,-1.125000,0.06,0.47,-0.003266,0.039000,0.000000,0.000000,0.000000,0.000000,0.000000,0.000000,0.000555,-0.008040,0.000042,0.000000,0.000000,0.000000,0.000000,819,819,819,819
9679,0,0.000000,0.000000,-1.125000,0.06,0.24,-0.059538,0.039000,0.000000,0.000000,0.000000,0.000000,0.000000,0.000000,0.000555,-0.003999,0.000606,0.000000,0.000000,0.000000,0.000000,819,819,819,819
9689,0,0.000000,0.000000,-1.125000,0.06,-0.18,-0.121727,0.039000,0.000000,0.000000,0.000000,0.000000,0.000000,0.000000,0.000556,0.003076,0.001229,0.000000,0.000000,0.000000,0.000000,819,819,819,819
9699,0,0.000000,0.000000,-1.125000,0.00,-0.30,0.053289,0.039000,0.000000,0.000000,0.000000,0.000000,0.000000,0.000000,-0.000039,0.005099,-0.000525,0.000000,0.000000,0.000000,0.000000,819,819,819,819
9709,0,0.000000,0.000000,-1.125000,-0.06,-0.18,0.062039,0.039000,0.000000,0.000000,0.000000,0.000000,0.000000,0.000000,-0.000635,0.003078,-0.000613,0.000000,0.000000,0.000000,0.000000,819,819,819,819
9719,0,0.000000,0.000000,-1.125000,0.00,-0.06,0.062477,0.039000,0.000000,0.000000,0.000000,0.000000,0.000000,0.000000,-0.000040,0.001057,-0.000617,0.000000,0.000000,0.000000,0.000000,819,819,819,819
9729,0,0.000000,0.000000,-1.125000,0.00,0.12,0.003124,0.039000,0.000000,0.000000,0.000000,0.000000,0.000000,0.000000,-0.000040,-0.001975,-0.000023,0.000000,0.000000,0.000000,0.000000,819,819,819,819
9743,0,0.000000,0.000000,-1.125000,-0.06,0.00,-0.059219,0.039000,0.000000,0.000000,0.000000,0.000000,0.000000,0.000000,-0.000635,0.000046,0.000602,0.000000,0.000000,0.000000,0.000000,819,819,819,819
9757,0,0.000000,0.000000,-1.125000,0.00,0.18,-0.121711,0.039000,0.000000,0.000000,0.000000,0.000000,0.000000,0.000000,-0.000040,-0.002987,0.001229,0.000000,0.000000,0.000000,0.000000,819,819,819,819
9768,0,0.000000,0.000000,-1.125000,0.18,0.12,-0.243586,0.039000,0.000000,0.000000,0.000000,0.000000,0.000000,0.000000,0.001746,-0.001977,0.002452,0.000000,0.000000,0.000000,0.000000,819,819,819,819
9779,0,0.000000,0.000000,-1.125000,0.12,0.06,0.047196,0.039000,0.000000,0.000000,0.000000,0.000000,0.000000,0.000000,0.001151,-0.000966,-0.000462,0.000000,0.000000,0.000000,0.000000,819,819,819,819
9789,0,0.000000,0.000000,-1.125000,0.00,-0.24,0.061735,0.039000,0.000000,0.000000,0.000000,0.000000,0.000000,0.000000,-0.000038,0.004088,-0.000608,0.000000,0.000000,0.000000,0.000000,819,819,819,819
9800,0,0.000000,0.000000,-1.125000,-0.18,-0.18,0.003087,0.039000,0.000000,0.000000,0.000000,0.000000,0.000000,0.000000,-0.001824,0.003078,-0.000021,0.000000,0.000000,0.000000,0.000000,819,819,819,819
9809,0,0.000000,0.000000,-1.125000,0.00,-0.12,0.059529,0.039000,0.000000,0.000000,0.000000,0.000000,0.000000,0.000000,-0.000039,0.002068,-0.000586,0.000000,0.000000,0.000000,0.000000,819,819,819,819
9819,0,0.000000,0.000000,-1.125000,0.00,-0.06,-0.056399,0.039000,0.000000,0.000000,0.000000,0.000000,0.000000,0.000000,-0.000039,0.001058,0.000575,0.000000,0.000000,0.000000,0.000000,819,819,819,819
9829,0,0.000000,0.000000,-1.125000,0.12,0.42,-0.121570,0.039000,0.000000,0.000000,0.000000,0.000000,0.000000,0.000000,0.001151,-0.007029,0.001229,0.000000,0.000000,0.000000,0.000000,819,819,819,819
9840,0,0.000000,0.000000,-1.125000,-0.12,0.53,-0.243578,0.039000,0.000000,0.000000,0.000000,0.000000,0.000000,0.000000,-0.001229,-0.009053,0.002453,0.000000,0.000000,0.000000,0.000000,819,819,819,819
9849,0,0.000000,0.000000,-1.125000,-0.06,0.00,-0.130929,0.039000,0.000000,0.000000,0.000000,0.000000,0.000000,0.000000,-0.000635,0.000043,0.001325,0.000000,0.000000,0.000000,0.000000,819,819,819,819
9859,0,0.000000,0.000000,-1.125000,0.06,-0.12,-0.065921,0.039000,0.000000,0.000000,0.000000,0.000000,0.000000,0.000000,0.000556,0.002064,0.000674,0.000000,0.000000,0.000000,0.000000,819,819,819,819
9869,0,0.000000,0.000000,-1.125000,0.06,-0.18,-0.181421,0.039000,0.000000,0.000000,0.000000,0.000000,0.000000,0.000000,0.000556,0.003076,0.001832,0.000000,0.000000,0.000000,0.000000,819,819,819,819
9879,0,0.000000,0.000000,-1.125000,0.12,-0.24,-0.009071,0.039000,0.000000,0.000000,0.000000,0.000000,0.000000,0.000000,0.001151,0.004088,0.000105,0.000000,0.000000,0.000000,0.000000,819,819,819,819
9890,0,0.000000,0.000000,-1.125000,0.00,-0.24,0.118296,0.039000,0.000000,0.000000,0.000000,0.000000,0.000000,0.000000,-0.000038,0.004089,-0.001172,0.000000,0.000000,0.000000,0.000000,819,819,819,819
9900,0,0.000000,0.000000,-1.125000,0.12,0.18,0.065290,0.039000,0.000000,0.000000,0.000000,0.000000,0.000000,0.000000,0.001152,-0.002986,-0.000641,0.000000,0.000000,0.000000,0.000000,819,819,819,819
9909,0,0.000000,0.000000,-1.125000,0.12,0.24,0.062639,0.039000,0.000000,0.000000,0.000000,0.000000,0.000000,0.000000,0.001153,-0.003998,-0.000615,0.000000,0.000000,0.000000,0.000000,819,819,819,819
9920,0,0.000000,0.000000,-1.125000,0.12,0.06,-0.115618,0.039000,0.000000,0.000000,0.000000,0.000000,0.000000,0.000000,0.001153,-0.000967,0.001172,0.000000,0.000000,0.000000,0.000000,819,819,819,819
9929,0,0.000000,0.000000,-1.125000,0.00,0.12,-0.302656,0.039000,0.000000,0.000000,0.000000,0.000000,0.000000,0.000000,-0.000037,-0.001978,0.003048,0.000000,0.000000,0.000000,0.000000,819,819,819,819
9940,0,0.000000,0.000000,-1.125000,0.12,0.18,-0.193258,0.039000,0.000000,0.000000,0.000000,0.000000,0.000000,0.000000,0.001154,-0.002989,0.001952,0.000000,0.000000,0.000000,0.000000,819,819,819,819
9950,0,0.000000,0.000000,-1.125000,-0.06,0.06,-0.069038,0.039000,0.000000,0.000000,0.000000,0.000000,0.000000,0.000000,-0.000631,-0.000968,0.000708,0.000000,0.000000,0.000000,0.000000,819,819,819,819
9960,0,0.000000,0.000000,-1.125000,-0.06,-0.24,0.055923,0.039000,0.000000,0.000000,0.000000,0.000000,0.000000,0.000000,-0.000632,0.004086,-0.000544,0.000000,0.000000,0.000000,0.000000,819,819,819,819
9970,0,0.000000,0.000000,-1.125000,0.12,-0.24,0.062171,0.039000,0.000000,0.000000,0.000000,0.000000,0.000000,0.000000,0.001154,0.004087,-0.000607,0.000000,0.000000,0.000000,0.000000,819,819,819,819
9980,0,0.000000,0.000000,-1.125000,-0.12,-0.30,0.240609,0.039000,0.000000,0.000000,0.000000,0.000000,0.000000,0.000000,-0.001227,0.005099,-0.002397,0.000000,0.000000,0.000000,0.000000,819,819,819,819
9990,0,0.000000,0.000000,-1.125000,0.06,0.18,0.130780,0.039000,0.000000,0.000000,0.000000,0.000000,0.000000,0.000000,0.000559,-0.002986,-0.001297,0.000000,0.000000,0.000000,0.000000,819,819,819,819
10000,0,0.000000,0.000000,-1.125000,-0.12,0.12,0.065914,0.039000,0.000000,0.000000,0.000000,0.000000,0.000000,0.000000,-0.001227,-0.001976,-0.000647,0.000000,0.000000,0.000000,0.000000,819,819,819,819
10009,0,0.000000,0.000000,-1.125000,0.18,0.36,-0.115454,0.039000,0.000000,0.000000,0.000000,0.000000,0.000000,0.000000,0.001749,-0.006020,0.001171,0.000000,0.000000,0.000000,0.000000,819,819,819,819
10020,0,0.000000,0.000000,-1.125000,0.06,0.00,-0.183898,0.039000,0.000000,0.000000,0.000000,0.000000,0.000000,0.000000,0.000559,0.000043,0.001858,0.000000,0.000000,0.000000,0.000000,819,819,819,819
10030,0,0.000000,0.000000,-1.125000,0.06,-0.18,-0.068570,0.039000,0.000000,0.000000,0.000000,0.000000,0.000000,0.000000,0.000559,0.003075,0.000702,0.000000,0.000000,0.000000,0.000000,819,819,819,819
10040,0,0.000000,0.000000,-1.125000,0.06,-0.06,-0.181553,0.039000,0.000000,0.000000,0.000000,0.000000,0.000000,0.000000,0.000560,0.001055,0.001835,0.000000,0.000000,0.000000,0.000000,819,819,819,819
10050,0,0.000000,0.000000,-1.125000,-0.06,-0.06,0.050297,0.039000,0.000000,0.000000,0.000000,0.000000,0.000000,0.000000,-0.000630,0.001055,-0.000488,0.000000,0.000000,0.000000,0.000000,819,819,819,819
10066,0,0.000000,0.000000,-1.125000,-0.06,-0.12,0.180640,0.039000,0.000000,0.000000,0.000000,0.000000,0.000000,0.000000,-0.000631,0.002066,-0.001795,0.000000,0.000000,0.000000,0.000000,819,819,819,819
10079,0,0.000000,0.000000,-1.125000,0.00,0.06,0.305907,0.039000,0.000000,0.000000,0.000000,0.000000,0.000000,0.000000,-0.000036,-0.000966,-0.003052,0.000000,0.000000,0.000000,0.000000,819,819,819,819
10090,0,0.000000,0.000000,-1.125000,0.06,0.30,-0.162830,0.039000,0.000000,0.000000,0.000000,0.000000,0.000000,0.000000,0.000559,-0.005010,0.001646,0.000000,0.000000,0.000000,0.000000,819,819,819,819
10100,0,0.000000,0.000000,-1.125000,0.00,0.06,-0.008141,0.039000,0.000000,0.000000,0.000000,0.000000,0.000000,0.000000,-0.000036,-0.000968,0.000096,0.000000,0.000000,0.000000,0.000000,819,819,819,819
10110,0,0.000000,0.000000,-1.125000,-0.06,0.24,-0.059782,0.039000,0.000000,0.000000,0.000000,0.000000,0.000000,0.000000,-0.000631,-0.004001,0.000614,0.000000,0.000000,0.000000,0.000000,819,819,819,819
10120,0,0.000000,0.000000,-1.125000,0.06,-0.06,-0.062364,0.039000,0.000000,0.000000,0.000000,0.000000,0.000000,0.000000,0.000559,0.001053,0.000640,0.000000,0.000000,0.000000,0.000000,819,819,819,819
10130,0,0.000000,0.000000,-1.125000,0.00,0.06,0.115632,0.039000,0.000000,0.000000,0.000000,0.000000,0.000000,0.000000,-0.000036,-0.000969,-0.001144,0.000000,0.000000,0.000000,0.000000,819,819,819,819
