t,is_crashed,roll,pitch,yaw,p,q,r,throttle,p_cmd,q_cmd,r_cmd,roll_cmd,pitch_cmd,yaw_cmd,roll_pid_out,pitch_pid_out,yaw_pid_out,motor_fl,motor_bl,motor_fr,motor_br,pwm_fl,pwm_bl,pwm_fr,pwm_br
7062,0,2.375000,0.625000,-0.062500,-0.06,0.59,-0.771875,-1.000000,0.000000,0.000000,0.000000,0.000000,0.000000,0.000000,-0.000036,0.000000,0.000000,0.000000,0.000000,0.000000,0.000000,0,0,0,0
7075,0,0.000000,0.000000,-0.062500,-9.02,-3.18,-0.929219,-1.000000,0.000000,0.000000,0.000000,0.000000,0.000000,0.000000,-0.025708,0.000000,0.000000,0.000000,0.000000,0.000000,0.000000,819,819,819,819
7085,0,0.000000,0.062500,-0.062500,-0.18,-0.46,-0.165211,-1.000000,0.000000,0.000000,0.000000,0.000000,0.000000,0.000000,-0.000626,0.000000,0.000000,0.000000,0.000000,0.000000,0.000000,819,819,819,819
7096,0,0.000000,0.062500,-0.062500,0.00,-0.18,0.169864,-1.000000,0.000000,0.000000,0.000000,0.000000,0.000000,0.000000,-0.000000,0.000000,0.000000,0.000000,0.000000,0.000000,0.000000,819,819,819,819
7106,0,0.000000,0.062500,-0.062500,0.12,-0.36,0.186618,-1.000000,0.000000,0.000000,0.000000,0.000000,0.000000,0.000000,0.000429,0.000000,0.000000,0.000000,0.000000,0.000000,0.000000,819,819,819,819
7116,0,0.000000,0.062500,-0.062500,-0.12,-0.42,0.840581,-1.000000,0.000000,0.000000,0.000000,0.000000,0.000000,0.000000,-0.000426,0.000000,0.000000,0.000000,0.000000,0.000000,0.000000,819,819,819,819
7126,0,0.000000,0.062500,-0.062500,0.12,-0.42,0.932654,-1.000000,0.000000,0.000000,0.000000,0.000000,0.000000,0.000000,0.000431,0.000000,0.000000,0.000000,0.000000,0.000000,0.000000,819,819,819,819
7136,0,-0.062500,0.062500,-0.062500,-0.19,0.00,1.174758,-1.000000,0.000000,0.000000,0.000000,0.000000,0.000000,0.000000,-0.000696,0.000000,0.000000,0.000000,0.000000,0.000000,0.000000,819,819,819,819
7146,0,-0.062500,0.062500,-0.062500,-0.12,0.24,1.305613,-1.000000,0.000000,0.000000,0.000000,0.000000,0.000000,0.000000,-0.000417,0.000000,0.000000,0.000000,0.000000,0.000000,0.000000,819,819,819,819
7156,0,-0.062500,0.062500,-0.062500,0.00,0.42,0.599656,-1.000000,0.000000,0.000000,0.000000,0.000000,0.000000,0.000000,-0.000000,0.000000,0.000000,0.000000,0.000000,0.000000,0.000000,819,819,819,819
7166,0,-0.062500,0.062500,-0.062500,-0.12,0.47,-0.088767,-1.000000,0.000000,0.000000,0.000000,0.000000,0.000000,0.000000,-0.000429,0.000000,0.000000,0.000000,0.000000,0.000000,0.000000,819,819,819,819
7176,0,-0.062500,0.062500,-0.062500,-0.18,0.00,-0.479438,-1.000000,0.000000,0.000000,0.000000,0.000000,0.000000,0.000000,-0.000645,0.000000,0.000000,0.000000,0.000000,0.000000,0.000000,819,819,819,819
7192,0,-0.062500,0.062500,-0.062500,0.00,-0.36,-0.677097,-1.000000,0.000000,0.000000,0.000000,0.000000,0.000000,0.000000,-0.000000,0.000000,0.000000,0.000000,0.000000,0.000000,0.000000,819,819,819,819
7206,0,-0.062500,0.062500,-0.062500,0.00,0.36,0.381770,-1.000000,0.000000,0.000000,0.000000,0.000000,0.000000,0.000000,-0.000000,0.000000,0.000000,0.000000,0.000000,0.000000,0.000000,819,819,819,819
7216,0,-0.062500,0.062500,-0.062500,0.00,0.24,0.553464,-1.000000,0.000000,0.000000,0.000000,0.000000,0.000000,0.000000,-0.000000,0.000000,0.000000,0.000000,0.000000,0.000000,0.000000,819,819,819,819
7226,0,-0.062500,0.062500,-0.062500,0.00,0.24,0.562048,-1.000000,0.000000,0.000000,0.000000,0.000000,0.000000,0.000000,-0.000000,0.000000,0.000000,0.000000,0.000000,0.000000,0.000000,819,819,819,819
7236,0,-0.062500,0.062500,-0.062500,-0.06,0.06,0.265602,-1.000000,0.000000,0.000000,0.000000,0.000000,0.000000,0.000000,-0.000212,0.000000,0.000000,0.000000,0.000000,0.000000,0.000000,819,819,819,819
7246,0,-0.062500,0.062500,-0.062500,0.00,0.12,-0.046095,-1.000000,0.000000,0.000000,0.000000,0.000000,0.000000,0.000000,-0.000000,0.000000,0.000000,0.000000,0.000000,0.000000,0.000000,819,819,819,819
7256,0,-0.062500,0.062500,-0.062500,0.00,0.18,-0.180430,-1.000000,0.000000,0.000000,0.000000,0.000000,0.000000,0.000000,-0.000000,0.000000,0.000000,0.000000,0.000000,0.000000,0.000000,819,819,819,819
7266,0,-0.062500,0.062500,-0.062500,0.00,0.00,-0.009021,-1.000000,0.000000,0.000000,0.000000,0.000000,0.000000,0.000000,-0.000000,0.000000,0.000000,0.000000,0.000000,0.000000,0.000000,819,819,819,819
7276,0,-0.062500,0.062500,-0.062500,0.00,-0.24,0.058924,-1.000000,0.000000,0.000000,0.000000,0.000000,0.000000,0.000000,-0.000000,0.000000,0.000000,0.000000,0.000000,0.000000,0.000000,819,819,819,819
7286,0,-0.062500,0.062500,-0.062500,0.00,0.06,0.418571,-1.000000,0.000000,0.000000,0.000000,0.000000,0.000000,0.000000,-0.000000,0.000000,0.000000,0.000000,0.000000,0.000000,0.000000,819,819,819,819
7296,0,-0.062500,0.062500,-0.062500,0.12,0.00,0.377179,-1.000000,0.000000,0.000000,0.000000,0.000000,0.000000,0.000000,0.000423,0.000000,0.000000,0.000000,0.000000,0.000000,0.000000,819,819,819,819
7306,0,-0.062500,0.062500,-0.062500,0.12,0.06,0.493859,-1.000000,0.000000,0.000000,0.000000,0.000000,0.000000,0.000000,0.000431,0.000000,0.000000,0.000000,0.000000,0.000000,0.000000,819,819,819,819
7316,0,-0.062500,0.062500,-0.062500,-0.12,0.06,0.321568,-1.000000,0.000000,0.000000,0.000000,0.000000,0.000000,0.000000,-0.000419,0.000000,0.000000,0.000000,0.000000,0.000000,0.000000,819,819,819,819
7326,0,-0.062500,0.062500,-0.062500,-0.06,-0.06,0.016078,-1.000000,0.000000,0.000000,0.000000,0.000000,0.000000,0.000000,-0.000213,0.000000,0.000000,0.000000,0.000000,0.000000,0.000000,819,819,819,819
7336,0,-0.062500,0.062500,-0.062500,0.00,0.24,-0.236696,-1.000000,0.000000,0.000000,0.000000,0.000000,0.000000,0.000000,-0.000000,0.000000,0.000000,0.000000,0.000000,0.000000,0.000000,819,819,819,819
7347,0,-0.062500,0.062500,-0.062500,-0.18,-0.18,-0.308710,-1.000000,0.000000,0.000000,0.000000,0.000000,0.000000,0.000000,-0.000630,0.000000,0.000000,0.000000,0.000000,0.000000,0.000000,819,819,819,819
7357,0,-0.062500,0.062500,-0.062500,-0.12,0.12,-0.431060,-1.000000,0.000000,0.000000,0.000000,0.000000,0.000000,0.000000,-0.000430,0.000000,0.000000,0.000000,0.000000,0.000000,0.000000,819,819,819,819
7367,0,-0.062500,0.062500,-0.062500,-0.06,-0.24,-0.437178,-1.000000,0.000000,0.000000,0.000000,0.000000,0.000000,0.000000,-0.000215,0.000000,0.000000,0.000000,0.000000,0.000000,0.000000,819,819,819,819
7377,0,0.000000,0.062500,-0.062500,0.37,0.42,-0.853109,-1.000000,0.000000,0.000000,0.000000,0.000000,0.000000,0.000000,0.001335,0.000000,0.000000,0.000000,0.000000,0.000000,0.000000,819,819,819,819
7387,0,0.000000,0.062500,-0.062500,0.00,0.47,-0.280155,-1.000000,0.000000,0.000000,0.000000,0.000000,0.000000,0.000000,-0.000000,0.000000,0.000000,0.000000,0.000000,0.000000,0.000000,819,819,819,819
7397,0,-0.062500,0.062500,-0.062500,-0.37,-0.18,0.698492,-1.000000,0.000000,0.000000,0.000000,0.000000,0.000000,0.000000,-0.001315,0.000000,0.000000,0.000000,0.000000,0.000000,0.000000,819,819,819,819
7407,0,-0.062500,0.062500,-0.062500,0.00,-0.12,0.213050,-1.000000,0.000000,0.000000,0.000000,0.000000,0.000000,0.000000,-0.000000,0.000000,0.000000,0.000000,0.000000,0.000000,0.000000,819,819,819,819
7417,0,-0.062500,0.062500,-0.062500,-0.12,-0.24,0.307527,-1.000000,0.000000,0.000000,0.000000,0.000000,0.000000,0.000000,-0.000433,0.000000,0.000000,0.000000,0.000000,0.000000,0.000000,819,819,819,819
7427,0,-0.062500,0.062500,-0.062500,-0.06,-0.47,0.015376,-1.000000,0.000000,0.000000,0.000000,0.000000,0.000000,0.000000,-0.000213,0.000000,0.000000,0.000000,0.000000,0.000000,0.000000,819,819,819,819
7437,0,0.000000,0.062500,-0.062500,0.19,-0.53,-0.652356,-1.000000,0.000000,0.000000,0.000000,0.000000,0.000000,0.000000,0.000696,0.000000,0.000000,0.000000,0.000000,0.000000,0.000000,819,819,819,819
7447,0,0.000000,0.062500,-0.062500,0.00,0.18,-0.270118,-1.000000,0.000000,0.000000,0.000000,0.000000,0.000000,0.000000,-0.000000,0.000000,0.000000,0.000000,0.000000,0.000000,0.000000,819,819,819,819
7457,0,0.000000,0.062500,-0.062500,0.12,0.71,0.164619,-1.000000,0.000000,0.000000,0.000000,0.000000,0.000000,0.000000,0.000436,0.000000,0.000000,0.000000,0.000000,0.000000,0.000000,819,819,819,819
7467,0,0.000000,0.062500,-0.062500,-0.06,-0.65,-0.110519,-1.000000,0.000000,0.000000,0.000000,0.000000,0.000000,0.000000,-0.000216,0.000000,0.000000,0.000000,0.000000,0.000000,0.000000,819,819,819,819
7477,0,0.000000,0.062500,-0.062500,-0.06,-0.47,-0.658651,-1.000000,0.000000,0.000000,0.000000,0.000000,0.000000,0.000000,-0.000211,0.000000,0.000000,0.000000,0.000000,0.000000,0.000000,819,819,819,819
7487,0,0.000000,0.062500,-0.062500,0.00,-0.53,-0.151683,-1.000000,0.000000,0.000000,0.000000,0.000000,0.000000,0.000000,-0.000000,0.000000,0.000000,0.000000,0.000000,0.000000,0.000000,819,819,819,819
7497,0,0.000000,0.062500,-0.062500,0.00,0.12,0.764291,-1.000000,0.000000,0.000000,0.000000,0.000000,0.000000,0.000000,-0.000000,0.000000,0.000000,0.000000,0.000000,0.000000,0.000000,819,819,819,819
7508,0,0.000000,0.062500,-0.062500,0.18,-0.30,0.394465,-1.000000,0.000000,0.000000,0.000000,0.000000,0.000000,0.000000,0.000565,0.000000,0.000000,0.000000,0.000000,0.000000,0.000000,819,819,819,819
7518,0,0.000000,0.062500,-0.062500,-0.12,-0.65,-0.336527,-1.000000,0.000000,0.000000,0.000000,0.000000,0.000000,0.000000,-0.000434,0.000000,0.000000,0.000000,0.000000,0.000000,0.000000,819,819,819,819
7528,0,0.000000,0.062500,-0.062500,0.12,-0.24,0.101924,-1.000000,0.000000,0.000000,0.000000,0.000000,0.000000,0.000000,0.000441,0.000000,0.000000,0.000000,0.000000,0.000000,0.000000,819,819,819,819
7538,0,0.000000,0.062500,-0.062500,0.06,0.36,0.005096,-1.000000,0.000000,0.000000,0.000000,0.000000,0.000000,0.000000,0.000220,0.000000,0.000000,0.000000,0.000000,0.000000,0.000000,819,819,819,819
7547,0,0.000000,0.062500,-0.062500,-0.12,-0.06,-0.118495,-1.000000,0.000000,0.000000,0.000000,0.000000,0.000000,0.000000,-0.000433,0.000000,0.000000,0.000000,0.000000,0.000000,0.000000,819,819,819,819
7557,0,-0.062500,0.062500,-0.062500,-0.31,0.06,0.647200,-1.000000,0.000000,0.000000,0.000000,0.000000,0.000000,0.000000,-0.001149,0.000000,0.000000,0.000000,0.000000,0.000000,0.000000,819,819,819,819
7567,0,-0.062500,0.062500,-0.062500,0.06,-0.42,0.744860,-1.000000,0.000000,0.000000,0.000000,0.000000,0.000000,0.000000,0.000215,0.000000,0.000000,0.000000,0.000000,0.000000,0.000000,819,819,819,819
7577,0,-0.062500,0.062500,-0.062500,0.06,-0.77,0.334118,-1.000000,0.000000,0.000000,0.000000,0.000000,0.000000,0.000000,0.000215,0.000000,0.000000,0.000000,0.000000,0.000000,0.000000,819,819,819,819
7587,0,-0.062500,0.062500,-0.062500,0.06,0.77,-0.458294,-1.000000,0.000000,0.000000,0.000000,0.000000,0.000000,0.000000,0.000213,0.000000,0.000000,0.000000,0.000000,0.000000,0.000000,819,819,819,819
7597,0,-0.062500,0.062500,-0.062500,0.00,0.95,-0.735415,-1.000000,0.000000,0.000000,0.000000,0.000000,0.000000,0.000000,-0.000000,0.000000,0.000000,0.000000,0.000000,0.000000,0.000000,819,819,819,819
7607,0,-0.062500,0.062500,-0.062500,0.00,0.12,-0.036771,-1.000000,0.000000,0.000000,0.000000,0.000000,0.000000,0.000000,-0.000000,0.000000,0.000000,0.000000,0.000000,0.000000,0.000000,819,819,819,819
7617,0,-0.062500,0.062500,-0.062500,-0.12,-0.53,0.651286,-1.000000,0.000000,0.000000,0.000000,0.000000,0.000000,0.000000,-0.000431,0.000000,0.000000,0.000000,0.000000,0.000000,0.000000,819,819,819,819
7627,0,-0.062500,0.062500,-0.062500,0.00,-1.13,-0.086186,-1.000000,0.000000,0.000000,0.000000,0.000000,0.000000,0.000000,-0.000000,0.000000,0.000000,0.000000,0.000000,0.000000,0.000000,819,819,819,819
7637,0,-0.062500,0.062500,-0.062500,-0.06,-0.18,-0.123059,-1.000000,0.000000,0.000000,0.000000,0.000000,0.000000,0.000000,-0.000213,0.000000,0.000000,0.000000,0.000000,0.000000,0.000000,819,819,819,819
7647,0,-0.062500,0.062500,-0.062500,0.00,0.83,0.112597,-1.000000,0.000000,0.000000,0.000000,0.000000,0.000000,0.000000,-0.000000,0.000000,0.000000,0.000000,0.000000,0.000000,0.000000,819,819,819,819
7657,0,-0.062500,0.062500,-0.062500,0.00,0.59,0.599380,-1.000000,0.000000,0.000000,0.000000,0.000000,0.000000,0.000000,-0.000000,0.000000,0.000000,0.000000,0.000000,0.000000,0.000000,819,819,819,819
7667,0,-0.062500,0.062500,-0.062500,-0.06,-0.71,0.029969,-1.000000,0.000000,0.000000,0.000000,0.000000,0.000000,0.000000,-0.000215,0.000000,0.000000,0.000000,0.000000,0.000000,0.000000,819,819,819,819
7677,0,-0.062500,0.062500,-0.062500,0.00,-0.89,-0.354752,-1.000000,0.000000,0.000000,0.000000,0.000000,0.000000,0.000000,-0.000000,0.000000,0.000000,0.000000,0.000000,0.000000,0.000000,819,819,819,819
7687,0,-0.062500,0.062500,-0.062500,0.00,0.12,-0.136488,-1.000000,0.000000,0.000000,0.000000,0.000000,0.000000,0.000000,-0.000000,0.000000,0.000000,0.000000,0.000000,0.000000,0.000000,819,819,819,819
7697,0,-0.062500,0.062500,-0.062500,-0.12,0.12,-0.422449,-1.000000,0.000000,0.000000,0.000000,0.000000,0.000000,0.000000,-0.000428,0.000000,0.000000,0.000000,0.000000,0.000000,0.000000,819,819,819,819
7707,0,-0.062500,0.062500,-0.062500,-0.06,-0.36,0.157003,-1.000000,0.000000,0.000000,0.000000,0.000000,0.000000,0.000000,-0.000214,0.000000,0.000000,0.000000,0.000000,0.000000,0.000000,819,819,819,819
7717,0,-0.062500,0.062500,-0.062500,-0.06,-0.18,-0.289025,-1.000000,0.000000,0.000000,0.000000,0.000000,0.000000,0.000000,-0.000212,0.000000,0.000000,0.000000,0.000000,0.000000,0.000000,819,819,819,819
7727,0,-0.062500,0.062500,-0.062500,-0.06,0.47,0.579299,-1.000000,0.000000,0.000000,0.000000,0.000000,0.000000,0.000000,-0.000214,0.000000,0.000000,0.000000,0.000000,0.000000,0.000000,819,819,819,819
7737,0,-0.062500,0.062500,-0.062500,-0.12,0.18,0.207090,-1.000000,0.000000,0.000000,0.000000,0.000000,0.000000,0.000000,-0.000426,0.000000,0.000000,0.000000,0.000000,0.000000,0.000000,819,819,819,819
7748,0,-0.062500,0.062500,-0.062500,0.06,-0.30,-0.167770,-1.000000,0.000000,0.000000,0.000000,0.000000,0.000000,0.000000,0.000209,0.000000,0.000000,0.000000,0.000000,0.000000,0.000000,819,819,819,819
7758,0,-0.062500,0.062500,-0.062500,0.00,0.24,0.585361,-1.000000,0.000000,0.000000,0.000000,0.000000,0.000000,0.000000,-0.000000,0.000000,0.000000,0.000000,0.000000,0.000000,0.000000,819,819,819,819
7768,0,-0.062500,0.062500,-0.062500,0.06,0.36,0.207393,-1.000000,0.000000,0.000000,0.000000,0.000000,0.000000,0.000000,0.000215,0.000000,0.000000,0.000000,0.000000,0.000000,0.000000,819,819,819,819
7777,0,-0.062500,0.062500,-0.062500,0.00,-0.24,0.722870,-1.000000,0.000000,0.000000,0.000000,0.000000,0.000000,0.000000,-0.000000,0.000000,0.000000,0.000000,0.000000,0.000000,0.000000,819,819,819,819
7788,0,-0.062500,0.062500,-0.062500,0.18,-0.12,0.986143,-1.000000,0.000000,0.000000,0.000000,0.000000,0.000000,0.000000,0.000640,0.000000,0.000000,0.000000,0.000000,0.000000,0.000000,819,819,819,819
7798,0,-0.062500,0.062500,-0.062500,0.00,-0.53,0.168057,-1.000000,0.000000,0.000000,0.000000,0.000000,0.000000,0.000000,-0.000000,0.000000,0.000000,0.000000,0.000000,0.000000,0.000000,819,819,819,819
7808,0,-0.062500,0.062500,-0.062500,0.06,0.00,0.661528,-1.000000,0.000000,0.000000,0.000000,0.000000,0.000000,0.000000,0.000216,0.000000,0.000000,0.000000,0.000000,0.000000,0.000000,819,819,819,819
7822,0,-0.125000,0.062500,-0.062500,-0.16,0.36,1.220576,-1.000000,0.000000,0.000000,0.000000,0.000000,0.000000,0.000000,-0.000443,0.000000,0.000000,0.000000,0.000000,0.000000,0.000000,819,819,819,819
7835,0,-0.125000,0.062500,-0.062500,0.00,-0.06,0.357904,-1.000000,0.000000,0.000000,0.000000,0.000000,0.000000,0.000000,-0.000000,0.000000,0.000000,0.000000,0.000000,0.000000,0.000000,819,819,819,819
7848,0,-0.125000,0.062500,-0.062500,-0.06,-0.47,-0.575855,-1.000000,0.000000,0.000000,0.000000,0.000000,0.000000,0.000000,-0.000181,0.000000,0.000000,0.000000,0.000000,0.000000,0.000000,819,819,819,819
7858,0,-0.062500,0.062500,-0.062500,0.31,-0.06,-0.919418,-1.000000,0.000000,0.000000,0.000000,0.000000,0.000000,0.000000,0.001126,0.000000,0.000000,0.000000,0.000000,0.000000,0.000000,819,819,819,819
7868,0,-0.062500,0.062500,-0.062500,0.00,0.30,-0.817846,-1.000000,0.000000,0.000000,0.000000,0.000000,0.000000,0.000000,-0.000000,0.000000,0.000000,0.000000,0.000000,0.000000,0.000000,819,819,819,819
7878,0,-0.062500,0.062500,-0.062500,-0.06,0.12,-0.219017,-1.000000,0.000000,0.000000,0.000000,0.000000,0.000000,0.000000,-0.000214,0.000000,0.000000,0.000000,0.000000,0.000000,0.000000,819,819,819,819
7888,0,-0.062500,0.062500,-0.062500,-0.12,0.00,0.107799,-1.000000,0.000000,0.000000,0.000000,0.000000,0.000000,0.000000,-0.000431,0.000000,0.000000,0.000000,0.000000,0.000000,0.000000,819,819,819,819
7900,0,-0.062500,0.062500,-0.062500,-0.06,0.30,0.480390,-1.000000,0.000000,0.000000,0.000000,0.000000,0.000000,0.000000,-0.000184,0.000000,0.000000,0.000000,0.000000,0.000000,0.000000,819,819,819,819
7909,0,-0.062500,0.062500,-0.062500,0.06,-0.06,0.617769,-1.000000,0.000000,0.000000,0.000000,0.000000,0.000000,0.000000,0.000218,0.000000,0.000000,0.000000,0.000000,0.000000,0.000000,819,819,819,819
7919,0,-0.062500,0.062500,-0.062500,0.06,-0.06,0.268388,-1.000000,0.000000,0.000000,0.000000,0.000000,0.000000,0.000000,0.000224,0.000000,0.000000,0.000000,0.000000,0.000000,0.000000,819,819,819,819
7928,0,-0.062500,0.062500,-0.062500,0.00,-0.12,0.191544,-1.000000,0.000000,0.000000,0.000000,0.000000,0.000000,0.000000,-0.000000,0.000000,0.000000,0.000000,0.000000,0.000000,0.000000,819,819,819,819
7938,0,-0.062500,0.062500,-0.062500,0.00,0.12,-0.109173,-1.000000,0.000000,0.000000,0.000000,0.000000,0.000000,0.000000,-0.000000,0.000000,0.000000,0.000000,0.000000,0.000000,0.000000,819,819,819,819
7948,0,-0.062500,0.062500,-0.062500,0.00,0.42,-0.242959,-1.000000,0.000000,0.000000,0.000000,0.000000,0.000000,0.000000,-0.000000,0.000000,0.000000,0.000000,0.000000,0.000000,0.000000,819,819,819,819
7958,0,-0.062500,0.062500,-0.062500,0.00,0.36,-0.190273,-1.000000,0.000000,0.000000,0.000000,0.000000,0.000000,0.000000,-0.000000,0.000000,0.000000,0.000000,0.000000,0.000000,0.000000,819,819,819,819
7968,0,-0.062500,0.062500,-0.062500,0.00,0.18,-0.068889,-1.000000,0.000000,0.000000,0.000000,0.000000,0.000000,0.000000,-0.000000,0.000000,0.000000,0.000000,0.000000,0.000000,0.000000,819,819,819,819
7978,0,-0.062500,0.062500,-0.062500,-0.06,-0.18,-0.062819,-1.000000,0.000000,0.000000,0.000000,0.000000,0.000000,0.000000,-0.000213,0.000000,0.000000,0.000000,0.000000,0.000000,0.000000,819,819,819,819
7988,0,-0.062500,0.062500,-0.062500,-0.06,-0.12,-0.418766,-1.000000,0.000000,0.000000,0.000000,0.000000,0.000000,0.000000,-0.000213,0.000000,0.000000,0.000000,0.000000,0.000000,0.000000,819,819,819,819
7998,0,-0.062500,0.062500,-0.062500,-0.06,0.06,-0.555313,-1.000000,0.000000,0.000000,0.000000,0.000000,0.000000,0.000000,-0.000209,0.000000,0.000000,0.000000,0.000000,0.000000,0.000000,819,819,819,819
8008,0,-0.062500,0.062500,-0.062500,-0.06,0.00,-0.384016,-1.000000,0.000000,0.000000,0.000000,0.000000,0.000000,0.000000,-0.000215,0.000000,0.000000,0.000000,0.000000,0.000000,0.000000,819,819,819,819
8018,0,-0.062500,0.062500,-0.062500,0.00,0.06,-0.316076,-1.000000,0.000000,0.000000,0.000000,0.000000,0.000000,0.000000,-0.000000,0.000000,0.000000,0.000000,0.000000,0.000000,0.000000,819,819,819,819
8028,0,-0.062500,0.062500,-0.062500,0.00,0.00,-0.372054,-1.000000,0.000000,0.000000,0.000000,0.000000,0.000000,0.000000,-0.000000,0.000000,0.000000,0.000000,0.000000,0.000000,0.000000,819,819,819,819
8038,0,-0.062500,0.062500,-0.062500,-0.06,-0.06,-0.196728,-1.000000,0.000000,0.000000,0.000000,0.000000,0.000000,0.000000,-0.000214,0.000000,0.000000,0.000000,0.000000,0.000000,0.000000,819,819,819,819
8048,0,-0.062500,0.062500,-0.062500,0.06,0.00,-0.187961,-1.000000,0.000000,0.000000,0.000000,0.000000,0.000000,0.000000,0.000210,0.000000,0.000000,0.000000,0.000000,0.000000,0.000000,819,819,819,819
8058,0,-0.062500,0.062500,-0.062500,-0.06,0.06,-0.365648,-1.000000,0.000000,0.000000,0.000000,0.000000,0.000000,0.000000,-0.000214,0.000000,0.000000,0.000000,0.000000,0.000000,0.000000,819,819,819,819
8068,0,-0.062500,0.062500,-0.062500,0.00,0.24,-0.255782,-1.000000,0.000000,0.000000,0.000000,0.000000,0.000000,0.000000,-0.000000,0.000000,0.000000,0.000000,0.000000,0.000000,0.000000,819,819,819,819
8078,0,-0.062500,0.062500,-0.062500,0.00,0.18,-0.487789,-1.000000,0.000000,0.000000,0.000000,0.000000,0.000000,0.000000,-0.000000,0.000000,0.000000,0.000000,0.000000,0.000000,0.000000,819,819,819,819
8088,0,-0.062500,0.062500,-0.062500,-0.06,-0.06,-0.499389,-1.000000,0.000000,0.000000,0.000000,0.000000,0.000000,0.000000,-0.000212,0.000000,0.000000,0.000000,0.000000,0.000000,0.000000,819,819,819,819
8099,0,-0.062500,0.062500,-0.062500,0.06,-0.06,-0.381219,-1.000000,0.000000,0.000000,0.000000,0.000000,0.000000,0.000000,0.000208,0.000000,0.000000,0.000000,0.000000,0.000000,0.000000,819,819,819,819
8108,0,-0.062500,0.062500,-0.062500,0.06,-0.18,-0.137811,-1.000000,0.000000,0.000000,0.000000,0.000000,0.000000,0.000000,0.000218,0.000000,0.000000,0.000000,0.000000,0.000000,0.000000,819,819,819,819
8118,0,-0.062500,0.062500,-0.062500,-0.06,-0.24,0.052484,-1.000000,0.000000,0.000000,0.000000,0.000000,0.000000,0.000000,-0.000214,0.000000,0.000000,0.000000,0.000000,0.000000,0.000000,819,819,819,819
8134,0,-0.062500,0.062500,-0.062500,0.06,-0.30,0.299499,-1.000000,0.000000,0.000000,0.000000,0.000000,0.000000,0.000000,0.000150,0.000000,0.000000,0.000000,0.000000,0.000000,0.000000,819,819,819,819
8148,0,-0.062500,0.062500,-0.062500,0.12,-0.30,0.549350,-1.000000,0.000000,0.000000,0.000000,0.000000,0.000000,0.000000,0.000334,0.000000,0.000000,0.000000,0.000000,0.000000,0.000000,819,819,819,819
8158,0,-0.062500,0.062500,-0.062500,-0.12,0.06,0.324343,-1.000000,0.000000,0.000000,0.000000,0.000000,0.000000,0.000000,-0.000408,0.000000,0.000000,0.000000,0.000000,0.000000,0.000000,819,819,819,819
8168,0,-0.062500,0.062500,-0.062500,-0.06,0.12,0.194342,-1.000000,0.000000,0.000000,0.000000,0.000000,0.000000,0.000000,-0.000209,0.000000,0.000000,0.000000,0.000000,0.000000,0.000000,819,819,819,819
8178,0,-0.062500,0.062500,-0.062500,-0.06,0.06,0.009717,-1.000000,0.000000,0.000000,0.000000,0.000000,0.000000,0.000000,-0.000212,0.000000,0.000000,0.000000,0.000000,0.000000,0.000000,819,819,819,819
8189,0,-0.062500,0.062500,-0.062500,0.06,0.18,-0.296389,-1.000000,0.000000,0.000000,0.000000,0.000000,0.000000,0.000000,0.000212,0.000000,0.000000,0.000000,0.000000,0.000000,0.000000,819,819,819,819
8199,0,-0.062500,0.062500,-0.062500,0.06,0.18,-0.608569,-1.000000,0.000000,0.000000,0.000000,0.000000,0.000000,0.000000,0.000210,0.000000,0.000000,0.000000,0.000000,0.000000,0.000000,819,819,819,819
8209,0,-0.062500,0.062500,-0.062500,0.06,0.36,-0.683553,-1.000000,0.000000,0.000000,0.000000,0.000000,0.000000,0.000000,0.000216,0.000000,0.000000,0.000000,0.000000,0.000000,0.000000,819,819,819,819
8219,0,-0.062500,0.062500,-0.062500,-0.12,0.24,-0.509178,-1.000000,0.000000,0.000000,0.000000,0.000000,0.000000,0.000000,-0.000428,0.000000,0.000000,0.000000,0.000000,0.000000,0.000000,819,819,819,819
8229,0,-0.062500,0.062500,-0.062500,0.06,0.06,-0.025459,-1.000000,0.000000,0.000000,0.000000,0.000000,0.000000,0.000000,0.000213,0.000000,0.000000,0.000000,0.000000,0.000000,0.000000,819,819,819,819
8239,0,-0.062500,0.062500,-0.062500,0.06,0.06,0.533102,-1.000000,0.000000,0.000000,0.000000,0.000000,0.000000,0.000000,0.000214,0.000000,0.000000,0.000000,0.000000,0.000000,0.000000,819,819,819,819
8249,0,-0.062500,0.062500,-0.062500,-0.06,0.06,0.561030,-1.000000,0.000000,0.000000,0.000000,0.000000,0.000000,0.000000,-0.000209,0.000000,0.000000,0.000000,0.000000,0.000000,0.000000,819,819,819,819
8259,0,-0.062500,0.062500,-0.062500,0.00,0.06,0.562427,-1.000000,0.000000,0.000000,0.000000,0.000000,0.000000,0.000000,-0.000000,0.000000,0.000000,0.000000,0.000000,0.000000,0.000000,819,819,819,819
8269,0,-0.062500,0.062500,-0.062500,-0.06,0.12,0.146871,-1.000000,0.000000,0.000000,0.000000,0.000000,0.000000,0.000000,-0.000215,0.000000,0.000000,0.000000,0.000000,0.000000,0.000000,819,819,819,819
8279,0,-0.062500,0.062500,-0.062500,0.06,-0.18,-0.348906,-1.000000,0.000000,0.000000,0.000000,0.000000,0.000000,0.000000,0.000213,0.000000,0.000000,0.000000,0.000000,0.000000,0.000000,819,819,819,819
8289,0,-0.062500,0.062500,-0.062500,-0.12,-0.59,-0.254945,-1.000000,0.000000,0.000000,0.000000,0.000000,0.000000,0.000000,-0.000430,0.000000,0.000000,0.000000,0.000000,0.000000,0.000000,819,819,819,819
8299,0,-0.062500,0.062500,-0.062500,0.00,-1.07,-0.190872,-1.000000,0.000000,0.000000,0.000000,0.000000,0.000000,0.000000,-0.000000,0.000000,0.000000,0.000000,0.000000,0.000000,0.000000,819,819,819,819
8309,0,-0.062500,0.062500,-0.062500,-0.06,-0.59,-0.009544,-1.000000,0.000000,0.000000,0.000000,0.000000,0.000000,0.000000,-0.000214,0.000000,0.000000,0.000000,0.000000,0.000000,0.000000,819,819,819,819
8319,0,-0.062500,0.062500,-0.062500,-0.12,-0.06,0.058898,-1.000000,0.000000,0.000000,0.000000,0.000000,0.000000,0.000000,-0.000421,0.000000,0.000000,0.000000,0.000000,0.000000,0.000000,819,819,819,819
8329,0,-0.062500,0.062500,-0.062500,0.06,0.53,0.121695,-1.000000,0.000000,0.000000,0.000000,0.000000,0.000000,0.000000,0.000216,0.000000,0.000000,0.000000,0.000000,0.000000,0.000000,819,819,819,819
8339,0,-0.062500,0.062500,-0.062500,0.00,0.42,0.243585,-1.000000,0.000000,0.000000,0.000000,0.000000,0.000000,0.000000,-0.000000,0.000000,0.000000,0.000000,0.000000,0.000000,0.000000,819,819,819,819
8349,0,-0.062500,0.062500,-0.062500,0.00,-0.06,0.249679,-1.000000,0.000000,0.000000,0.000000,0.000000,0.000000,0.000000,-0.000000,0.000000,0.000000,0.000000,0.000000,0.000000,0.000000,819,819,819,819
8359,0,-0.062500,0.062500,-0.062500,0.00,-0.06,0.012484,-1.000000,0.000000,0.000000,0.000000,0.000000,0.000000,0.000000,-0.000000,0.000000,0.000000,0.000000,0.000000,0.000000,0.000000,819,819,819,819
8369,0,-0.062500,0.062500,-0.062500,0.12,0.12,-0.058751,-1.000000,0.000000,0.000000,0.000000,0.000000,0.000000,0.000000,0.000429,0.000000,0.000000,0.000000,0.000000,0.000000,0.000000,819,819,819,819
8379,0,-0.062500,0.062500,-0.062500,0.12,0.24,-0.121688,-1.000000,0.000000,0.000000,0.000000,0.000000,0.000000,0.000000,0.000425,0.000000,0.000000,0.000000,0.000000,0.000000,0.000000,819,819,819,819
8389,0,-0.062500,0.062500,-0.062500,0.06,0.18,0.112666,-1.000000,0.000000,0.000000,0.000000,0.000000,0.000000,0.000000,0.000213,0.000000,0.000000,0.000000,0.000000,0.000000,0.000000,819,819,819,819
8399,0,-0.062500,0.062500,-0.062500,-0.06,0.06,0.361883,-1.000000,0.000000,0.000000,0.000000,0.000000,0.000000,0.000000,-0.000210,0.000000,0.000000,0.000000,0.000000,0.000000,0.000000,819,819,819,819
8409,0,-0.062500,0.062500,-0.062500,0.00,0.00,0.671219,-1.000000,0.000000,0.000000,0.000000,0.000000,0.000000,0.000000,-0.000000,0.000000,0.000000,0.000000,0.000000,0.000000,0.000000,819,819,819,819
8419,0,-0.062500,0.062500,-0.062500,0.12,-0.06,0.508561,-1.000000,0.000000,0.000000,0.000000,0.000000,0.000000,0.000000,0.000430,0.000000,0.000000,0.000000,0.000000,0.000000,0.000000,819,819,819,819
8429,0,-0.062500,0.062500,-0.062500,0.06,0.30,0.025428,-1.000000,0.000000,0.000000,0.000000,0.000000,0.000000,0.000000,0.000214,0.000000,0.000000,0.000000,0.000000,0.000000,0.000000,819,819,819,819
8439,0,-0.062500,0.062500,-0.062500,0.12,0.42,-0.354979,-1.000000,0.000000,0.000000,0.000000,0.000000,0.000000,0.000000,0.000429,0.000000,0.000000,0.000000,0.000000,0.000000,0.000000,819,819,819,819
8453,0,-0.062500,0.062500,-0.062500,-0.06,0.12,-0.373999,-1.000000,0.000000,0.000000,0.000000,0.000000,0.000000,0.000000,-0.000165,0.000000,0.000000,0.000000,0.000000,0.000000,0.000000,819,819,819,819
8467,0,-0.062500,0.062500,-0.062500,0.00,-0.24,-0.196825,-1.000000,0.000000,0.000000,0.000000,0.000000,0.000000,0.000000,-0.000000,0.000000,0.000000,0.000000,0.000000,0.000000,0.000000,819,819,819,819
8478,0,-0.062500,0.062500,-0.062500,0.00,-0.95,-0.484841,-1.000000,0.000000,0.000000,0.000000,0.000000,0.000000,0.000000,-0.000000,0.000000,0.000000,0.000000,0.000000,0.000000,0.000000,819,819,819,819
8489,0,-0.062500,0.125000,-0.062500,0.00,-1.08,-0.736742,-1.000000,0.000000,0.000000,0.000000,0.000000,0.000000,0.000000,-0.000000,0.000000,0.000000,0.000000,0.000000,0.000000,0.000000,819,819,819,819
8499,0,-0.062500,0.125000,-0.062500,0.06,-0.65,0.438163,-1.000000,0.000000,0.000000,0.000000,0.000000,0.000000,0.000000,0.000206,0.000000,0.000000,0.000000,0.000000,0.000000,0.000000,819,819,819,819
8509,0,-0.062500,0.125000,-0.062500,-0.12,0.53,0.912533,-1.000000,0.000000,0.000000,0.000000,0.000000,0.000000,0.000000,-0.000425,0.000000,0.000000,0.000000,0.000000,0.000000,0.000000,819,819,819,819
8519,0,-0.062500,0.125000,-0.062500,0.00,0.95,0.698752,-1.000000,0.000000,0.000000,0.000000,0.000000,0.000000,0.000000,-0.000000,0.000000,0.000000,0.000000,0.000000,0.000000,0.000000,819,819,819,819
8529,0,-0.062500,0.125000,-0.062500,-0.06,0.24,0.628688,-1.000000,0.000000,0.000000,0.000000,0.000000,0.000000,0.000000,-0.000211,0.000000,0.000000,0.000000,0.000000,0.000000,0.000000,819,819,819,819
8572,0,-0.062500,0.125000,-0.062500,-0.06,-0.06,-0.384191,-1.000000,0.000000,0.000000,0.000000,0.000000,0.000000,0.000000,-0.000078,0.000000,0.000000,0.000000,0.000000,0.000000,0.000000,819,819,819,819
8584,0,-0.062500,0.125000,-0.062500,0.00,-0.30,-0.375460,-1.000000,0.000000,0.000000,0.000000,0.000000,0.000000,0.000000,-0.000000,0.000000,0.000000,0.000000,0.000000,0.000000,0.000000,819,819,819,819
8595,0,-0.062500,0.125000,-0.062500,-0.06,-0.65,-0.018773,-1.000000,0.000000,0.000000,0.000000,0.000000,0.000000,0.000000,-0.000197,0.000000,0.000000,0.000000,0.000000,0.000000,0.000000,819,819,819,819
8605,0,-0.062500,0.125000,-0.062500,0.00,-0.53,0.177186,-1.000000,0.000000,0.000000,0.000000,0.000000,0.000000,0.000000,-0.000000,0.000000,0.000000,0.000000,0.000000,0.000000,0.000000,819,819,819,819
8616,0,-0.062500,0.125000,-0.062500,0.18,-0.18,0.127609,-1.000000,0.000000,0.000000,0.000000,0.000000,0.000000,0.000000,0.000562,0.000000,0.000000,0.000000,0.000000,0.000000,0.000000,819,819,819,819
8628,0,-0.062500,0.125000,-0.062500,-0.06,0.12,0.303255,-1.000000,0.000000,0.000000,0.000000,0.000000,0.000000,0.000000,-0.000185,0.000000,0.000000,0.000000,0.000000,0.000000,0.000000,819,819,819,819
8640,0,-0.062500,0.125000,-0.062500,-0.06,-0.59,0.015163,-1.000000,0.000000,0.000000,0.000000,0.000000,0.000000,0.000000,-0.000187,0.000000,0.000000,0.000000,0.000000,0.000000,0.000000,819,819,819,819
8650,0,-0.062500,0.125000,-0.062500,-0.12,-0.53,-0.058617,-1.000000,0.000000,0.000000,0.000000,0.000000,0.000000,0.000000,-0.000429,0.000000,0.000000,0.000000,0.000000,0.000000,0.000000,819,819,819,819
8660,0,-0.062500,0.125000,-0.062500,-0.06,-0.06,-0.121681,-1.000000,0.000000,0.000000,0.000000,0.000000,0.000000,0.000000,-0.000217,0.000000,0.000000,0.000000,0.000000,0.000000,0.000000,819,819,819,819
8670,0,-0.062500,0.125000,-0.062500,0.00,0.06,-0.065459,-1.000000,0.000000,0.000000,0.000000,0.000000,0.000000,0.000000,-0.000000,0.000000,0.000000,0.000000,0.000000,0.000000,0.000000,819,819,819,819
8680,0,-0.062500,0.125000,-0.062500,0.00,0.00,0.056102,-1.000000,0.000000,0.000000,0.000000,0.000000,0.000000,0.000000,-0.000000,0.000000,0.000000,0.000000,0.000000,0.000000,0.000000,819,819,819,819
8690,0,-0.062500,0.125000,-0.062500,0.06,-0.30,0.121555,-1.000000,0.000000,0.000000,0.000000,0.000000,0.000000,0.000000,0.000214,0.000000,0.000000,0.000000,0.000000,0.000000,0.000000,819,819,819,819
8700,0,-0.062500,0.125000,-0.062500,0.00,-0.42,0.065453,-1.000000,0.000000,0.000000,0.000000,0.000000,0.000000,0.000000,-0.000000,0.000000,0.000000,0.000000,0.000000,0.000000,0.000000,819,819,819,819
8710,0,-0.062500,0.125000,-0.062500,0.00,-0.30,-0.056102,-1.000000,0.000000,0.000000,0.000000,0.000000,0.000000,0.000000,-0.000000,0.000000,0.000000,0.000000,0.000000,0.000000,0.000000,819,819,819,819
8720,0,-0.062500,0.125000,-0.062500,-0.12,-0.24,-0.121555,-1.000000,0.000000,0.000000,0.000000,0.000000,0.000000,0.000000,-0.000429,0.000000,0.000000,0.000000,0.000000,0.000000,0.000000,819,819,819,819
8730,0,-0.062500,0.125000,-0.062500,0.06,-0.06,-0.184203,-1.000000,0.000000,0.000000,0.000000,0.000000,0.000000,0.000000,0.000214,0.000000,0.000000,0.000000,0.000000,0.000000,0.000000,819,819,819,819
8740,0,-0.062500,0.125000,-0.062500,0.00,-0.12,-0.009210,-1.000000,0.000000,0.000000,0.000000,0.000000,0.000000,0.000000,-0.000000,0.000000,0.000000,0.000000,0.000000,0.000000,0.000000,819,819,819,819
8750,0,-0.062500,0.125000,-0.062500,0.00,-0.12,-0.000461,-1.000000,0.000000,0.000000,0.000000,0.000000,0.000000,0.000000,-0.000000,0.000000,0.000000,0.000000,0.000000,0.000000,0.000000,819,819,819,819
8760,0,-0.062500,0.125000,-0.062500,0.00,0.06,0.118727,-1.000000,0.000000,0.000000,0.000000,0.000000,0.000000,0.000000,-0.000000,0.000000,0.000000,0.000000,0.000000,0.000000,0.000000,819,819,819,819
8770,0,-0.062500,0.125000,-0.062500,-0.06,0.30,0.005936,-1.000000,0.000000,0.000000,0.000000,0.000000,0.000000,0.000000,-0.000210,0.000000,0.000000,0.000000,0.000000,0.000000,0.000000,819,819,819,819
8782,0,-0.062500,0.125000,-0.062500,-0.06,0.47,0.059672,-1.000000,0.000000,0.000000,0.000000,0.000000,0.000000,0.000000,-0.000182,0.000000,0.000000,0.000000,0.000000,0.000000,0.000000,819,819,819,819
8792,0,-0.062500,0.125000,-0.062500,-0.06,0.12,0.181109,-1.000000,0.000000,0.000000,0.000000,0.000000,0.000000,0.000000,-0.000221,0.000000,0.000000,0.000000,0.000000,0.000000,0.000000,819,819,819,819
8801,0,-0.062500,0.125000,-0.062500,-0.06,-0.42,0.602805,-1.000000,0.000000,0.000000,0.000000,0.000000,0.000000,0.000000,-0.000225,0.000000,0.000000,0.000000,0.000000,0.000000,0.000000,819,819,819,819
8811,0,-0.125000,0.125000,-0.062500,-0.37,-0.12,2.108265,-1.000000,0.000000,0.000000,0.000000,0.000000,0.000000,0.000000,-0.001361,0.000000,0.000000,0.000000,0.000000,0.000000,0.000000,819,819,819,819
8821,0,-0.125000,0.125000,-0.062500,0.00,0.42,2.480413,-1.000000,0.000000,0.000000,0.000000,0.000000,0.000000,0.000000,-0.000000,0.000000,0.000000,0.000000,0.000000,0.000000,0.000000,819,819,819,819
8831,0,-0.125000,0.125000,-0.062500,-0.06,-0.42,0.599021,-1.000000,0.000000,0.000000,0.000000,0.000000,0.000000,0.000000,-0.000221,0.000000,0.000000,0.000000,0.000000,0.000000,0.000000,819,819,819,819
8840,0,-0.125000,0.125000,-0.062500,-0.06,-0.65,-0.504424,-1.000000,0.000000,0.000000,0.000000,0.000000,0.000000,0.000000,-0.000217,0.000000,0.000000,0.000000,0.000000,0.000000,0.000000,819,819,819,819
8851,0,-0.125000,0.125000,-0.062500,0.00,-0.42,-0.678346,-1.000000,0.000000,0.000000,0.000000,0.000000,0.000000,0.000000,-0.000000,0.000000,0.000000,0.000000,0.000000,0.000000,0.000000,819,819,819,819
8860,0,-0.125000,0.125000,-0.062500,-0.12,-0.06,-0.924542,-1.000000,0.000000,0.000000,0.000000,0.000000,0.000000,0.000000,-0.000433,0.000000,0.000000,0.000000,0.000000,0.000000,0.000000,819,819,819,819
8870,0,-0.125000,0.125000,-0.062500,0.00,0.42,-0.580602,-1.000000,0.000000,0.000000,0.000000,0.000000,0.000000,0.000000,-0.000000,0.000000,0.000000,0.000000,0.000000,0.000000,0.000000,819,819,819,819
8886,0,-0.125000,0.125000,-0.062500,0.00,0.95,0.030345,-1.000000,0.000000,0.000000,0.000000,0.000000,0.000000,0.000000,-0.000000,0.000000,0.000000,0.000000,0.000000,0.000000,0.000000,819,819,819,819
8899,0,-0.125000,0.125000,-0.062500,0.06,1.19,0.357767,-1.000000,0.000000,0.000000,0.000000,0.000000,0.000000,0.000000,0.000165,0.000000,0.000000,0.000000,0.000000,0.000000,0.000000,819,819,819,819
8910,0,-0.125000,0.125000,-0.062500,0.00,0.77,1.086638,-1.000000,0.000000,0.000000,0.000000,0.000000,0.000000,0.000000,-0.000000,0.000000,0.000000,0.000000,0.000000,0.000000,0.000000,819,819,819,819
8920,0,-0.125000,0.125000,-0.062500,0.00,0.30,1.123082,-1.000000,0.000000,0.000000,0.000000,0.000000,0.000000,0.000000,-0.000000,0.000000,0.000000,0.000000,0.000000,0.000000,0.000000,819,819,819,819
8930,0,-0.125000,0.125000,-0.062500,0.00,-0.18,0.412404,-1.000000,0.000000,0.000000,0.000000,0.000000,0.000000,0.000000,-0.000000,0.000000,0.000000,0.000000,0.000000,0.000000,0.000000,819,819,819,819
8940,0,-0.125000,0.125000,-0.062500,0.06,-0.30,-0.038755,-1.000000,0.000000,0.000000,0.000000,0.000000,0.000000,0.000000,0.000211,0.000000,0.000000,0.000000,0.000000,0.000000,0.000000,819,819,819,819
8951,0,-0.125000,0.125000,-0.062500,-0.06,-0.95,-0.239438,-1.000000,0.000000,0.000000,0.000000,0.000000,0.000000,0.000000,-0.000210,0.000000,0.000000,0.000000,0.000000,0.000000,0.000000,819,819,819,819
8961,0,-0.125000,0.125000,-0.062500,0.00,-0.65,-0.071347,-1.000000,0.000000,0.000000,0.000000,0.000000,0.000000,0.000000,-0.000000,0.000000,0.000000,0.000000,0.000000,0.000000,0.000000,819,819,819,819
8970,0,-0.125000,0.125000,-0.062500,0.06,-0.47,0.174558,-1.000000,0.000000,0.000000,0.000000,0.000000,0.000000,0.000000,0.000215,0.000000,0.000000,0.000000,0.000000,0.000000,0.000000,819,819,819,819
8981,0,-0.125000,0.125000,-0.062500,0.00,-0.36,0.543103,-1.000000,0.000000,0.000000,0.000000,0.000000,0.000000,0.000000,-0.000000,0.000000,0.000000,0.000000,0.000000,0.000000,0.000000,819,819,819,819
8991,0,-0.125000,0.125000,-0.062500,0.00,-0.36,0.858405,-1.000000,0.000000,0.000000,0.000000,0.000000,0.000000,0.000000,-0.000000,0.000000,0.000000,0.000000,0.000000,0.000000,0.000000,819,819,819,819
9001,0,-0.125000,0.125000,-0.062500,0.06,-0.06,0.636670,-1.000000,0.000000,0.000000,0.000000,0.000000,0.000000,0.000000,0.000212,0.000000,0.000000,0.000000,0.000000,0.000000,0.000000,819,819,819,819
9011,0,-0.187500,0.125000,-0.062500,-0.13,0.42,0.150584,-1.000000,0.000000,0.000000,0.000000,0.000000,0.000000,0.000000,-0.000490,0.000000,0.000000,0.000000,0.000000,0.000000,0.000000,819,819,819,819
9021,0,-0.187500,0.125000,-0.062500,-0.06,0.77,-0.526846,-1.000000,0.000000,0.000000,0.000000,0.000000,0.000000,0.000000,-0.000212,0.000000,0.000000,0.000000,0.000000,0.000000,0.000000,819,819,819,819
9031,0,-0.125000,0.125000,-0.062500,0.25,1.07,-1.035717,-1.000000,0.000000,0.000000,0.000000,0.000000,0.000000,0.000000,0.000910,0.000000,0.000000,0.000000,0.000000,0.000000,0.000000,819,819,819,819
9041,0,-0.125000,0.062500,-0.062500,-0.12,0.82,-1.536161,-1.000000,0.000000,0.000000,0.000000,0.000000,0.000000,0.000000,-0.000428,0.000000,0.000000,0.000000,0.000000,0.000000,0.000000,819,819,819,819
9051,0,-0.125000,0.062500,-0.062500,0.00,0.71,-1.917433,-1.000000,0.000000,0.000000,0.000000,0.000000,0.000000,0.000000,-0.000000,0.000000,0.000000,0.000000,0.000000,0.000000,0.000000,819,819,819,819
9061,0,-0.125000,0.062500,-0.062500,0.06,0.36,-1.639621,-1.000000,0.000000,0.000000,0.000000,0.000000,0.000000,0.000000,0.000215,0.000000,0.000000,0.000000,0.000000,0.000000,0.000000,819,819,819,819
9071,0,-0.062500,0.062500,-0.062500,0.25,0.30,-1.031981,-1.000000,0.000000,0.000000,0.000000,0.000000,0.000000,0.000000,0.000913,0.000000,0.000000,0.000000,0.000000,0.000000,0.000000,819,819,819,819
9081,0,-0.062500,0.062500,-0.062500,0.00,0.30,-0.348474,-1.000000,0.000000,0.000000,0.000000,0.000000,0.000000,0.000000,-0.000000,0.000000,0.000000,0.000000,0.000000,0.000000,0.000000,819,819,819,819
9091,0,-0.062500,0.062500,-0.062500,0.00,0.42,0.457576,-1.000000,0.000000,0.000000,0.000000,0.000000,0.000000,0.000000,-0.000000,0.000000,0.000000,0.000000,0.000000,0.000000,0.000000,819,819,819,819
9101,0,-0.125000,0.062500,-0.062500,-0.43,0.47,0.676004,-1.000000,0.000000,0.000000,0.000000,0.000000,0.000000,0.000000,-0.001535,0.000000,0.000000,0.000000,0.000000,0.000000,0.000000,819,819,819,819
9111,0,-0.125000,0.062500,-0.062500,0.00,0.65,0.508800,-1.000000,0.000000,0.000000,0.000000,0.000000,0.000000,0.000000,-0.000000,0.000000,0.000000,0.000000,0.000000,0.000000,0.000000,819,819,819,819
9121,0,-0.125000,0.062500,-0.062500,0.00,0.71,0.322315,-1.000000,0.000000,0.000000,0.000000,0.000000,0.000000,0.000000,-0.000000,0.000000,0.000000,0.000000,0.000000,0.000000,0.000000,819,819,819,819
9131,0,-0.125000,0.062500,-0.062500,0.06,0.89,0.016116,-1.000000,0.000000,0.000000,0.000000,0.000000,0.000000,0.000000,0.000213,0.000000,0.000000,0.000000,0.000000,0.000000,0.000000,819,819,819,819
9141,0,-0.125000,0.062500,-0.062500,0.00,0.71,-0.355444,-1.000000,0.000000,0.000000,0.000000,0.000000,0.000000,0.000000,-0.000000,0.000000,0.000000,0.000000,0.000000,0.000000,0.000000,819,819,819,819
9151,0,-0.125000,0.062500,-0.062500,0.06,0.36,-0.433397,-1.000000,0.000000,0.000000,0.000000,0.000000,0.000000,0.000000,0.000211,0.000000,0.000000,0.000000,0.000000,0.000000,0.000000,819,819,819,819
9161,0,-0.125000,0.062500,-0.062500,-0.06,0.06,-0.496670,-1.000000,0.000000,0.000000,0.000000,0.000000,0.000000,0.000000,-0.000215,0.000000,0.000000,0.000000,0.000000,0.000000,0.000000,819,819,819,819
9171,0,-0.125000,0.062500,-0.062500,0.06,-0.24,-0.559209,-1.000000,0.000000,0.000000,0.000000,0.000000,0.000000,0.000000,0.000217,0.000000,0.000000,0.000000,0.000000,0.000000,0.000000,819,819,819,819
9181,0,-0.125000,0.062500,-0.062500,-0.06,-0.30,-0.087335,-1.000000,0.000000,0.000000,0.000000,0.000000,0.000000,0.000000,-0.000212,0.000000,0.000000,0.000000,0.000000,0.000000,0.000000,819,819,819,819
9191,0,-0.125000,0.062500,-0.062500,0.12,-0.36,0.114383,-1.000000,0.000000,0.000000,0.000000,0.000000,0.000000,0.000000,0.000419,0.000000,0.000000,0.000000,0.000000,0.000000,0.000000,819,819,819,819
9205,0,-0.125000,0.062500,-0.062500,0.06,-0.53,0.302594,-1.000000,0.000000,0.000000,0.000000,0.000000,0.000000,0.000000,0.000167,0.000000,0.000000,0.000000,0.000000,0.000000,0.000000,819,819,819,819
9218,0,-0.125000,0.062500,-0.062500,0.06,-0.65,0.133880,-1.000000,0.000000,0.000000,0.000000,0.000000,0.000000,0.000000,0.000168,0.000000,0.000000,0.000000,0.000000,0.000000,0.000000,819,819,819,819
9230,0,-0.125000,0.062500,-0.062500,0.00,-0.42,-0.171431,-1.000000,0.000000,0.000000,0.000000,0.000000,0.000000,0.000000,-0.000000,0.000000,0.000000,0.000000,0.000000,0.000000,0.000000,819,819,819,819
9241,0,-0.125000,0.062500,-0.062500,-0.12,-0.12,-0.602322,-1.000000,0.000000,0.000000,0.000000,0.000000,0.000000,0.000000,-0.000401,0.000000,0.000000,0.000000,0.000000,0.000000,0.000000,819,819,819,819
9251,0,-0.062500,0.062500,-0.062500,0.37,-0.24,-0.801991,-1.000000,0.000000,0.000000,0.000000,0.000000,0.000000,0.000000,0.001291,0.000000,0.000000,0.000000,0.000000,0.000000,0.000000,819,819,819,819
9261,0,-0.062500,0.062500,-0.062500,-0.12,-0.36,-0.455725,-1.000000,0.000000,0.000000,0.000000,0.000000,0.000000,0.000000,-0.000420,0.000000,0.000000,0.000000,0.000000,0.000000,0.000000,819,819,819,819
9271,0,-0.062500,0.062500,-0.062500,0.06,-0.30,0.214714,-1.000000,0.000000,0.000000,0.000000,0.000000,0.000000,0.000000,0.000213,0.000000,0.000000,0.000000,0.000000,0.000000,0.000000,819,819,819,819
9281,0,-0.125000,0.062500,-0.062500,-0.37,0.00,1.079486,-1.000000,0.000000,0.000000,0.000000,0.000000,0.000000,0.000000,-0.001345,0.000000,0.000000,0.000000,0.000000,0.000000,0.000000,819,819,819,819
9291,0,-0.125000,0.062500,-0.062500,-0.12,0.18,1.300849,-1.000000,0.000000,0.000000,0.000000,0.000000,0.000000,0.000000,-0.000426,0.000000,0.000000,0.000000,0.000000,0.000000,0.000000,819,819,819,819
9302,0,-0.125000,0.062500,-0.062500,0.00,0.18,0.718167,-1.000000,0.000000,0.000000,0.000000,0.000000,0.000000,0.000000,-0.000000,0.000000,0.000000,0.000000,0.000000,0.000000,0.000000,819,819,819,819
9312,0,-0.125000,0.062500,-0.062500,-0.06,0.47,0.035908,-1.000000,0.000000,0.000000,0.000000,0.000000,0.000000,0.000000,-0.000215,0.000000,0.000000,0.000000,0.000000,0.000000,0.000000,819,819,819,819
9321,0,-0.125000,0.062500,-0.062500,0.06,0.89,-0.710705,-1.000000,0.000000,0.000000,0.000000,0.000000,0.000000,0.000000,0.000215,0.000000,0.000000,0.000000,0.000000,0.000000,0.000000,819,819,819,819
9331,0,-0.125000,0.062500,-0.062500,-0.06,0.77,-1.282410,-1.000000,0.000000,0.000000,0.000000,0.000000,0.000000,0.000000,-0.000215,0.000000,0.000000,0.000000,0.000000,0.000000,0.000000,819,819,819,819
9342,0,-0.062500,0.000000,-0.062500,0.34,0.31,-1.251621,-1.000000,0.000000,0.000000,0.000000,0.000000,0.000000,0.000000,0.001227,0.000000,0.000000,0.000000,0.000000,0.000000,0.000000,819,819,819,819
9352,0,-0.062500,0.000000,-0.062500,0.00,0.65,-0.953206,-1.000000,0.000000,0.000000,0.000000,0.000000,0.000000,0.000000,-0.000000,0.000000,0.000000,0.000000,0.000000,0.000000,0.000000,819,819,819,819
9362,0,-0.062500,0.000000,-0.062500,0.00,0.59,-0.225785,-1.000000,0.000000,0.000000,0.000000,0.000000,0.000000,0.000000,-0.000000,0.000000,0.000000,0.000000,0.000000,0.000000,0.000000,819,819,819,819
9372,0,-0.062500,0.000000,-0.062500,0.00,0.53,0.226211,-1.000000,0.000000,0.000000,0.000000,0.000000,0.000000,0.000000,-0.000000,0.000000,0.000000,0.000000,0.000000,0.000000,0.000000,819,819,819,819
9382,0,-0.062500,0.000000,-0.062500,0.06,0.12,0.664435,-1.000000,0.000000,0.000000,0.000000,0.000000,0.000000,0.000000,0.000213,0.000000,0.000000,0.000000,0.000000,0.000000,0.000000,819,819,819,819
9392,0,-0.062500,0.000000,-0.062500,0.06,0.06,0.983222,-1.000000,0.000000,0.000000,0.000000,0.000000,0.000000,0.000000,0.000214,0.000000,0.000000,0.000000,0.000000,0.000000,0.000000,819,819,819,819
9402,0,-0.062500,0.000000,-0.062500,0.00,-0.42,0.761661,-1.000000,0.000000,0.000000,0.000000,0.000000,0.000000,0.000000,-0.000000,0.000000,0.000000,0.000000,0.000000,0.000000,0.000000,819,819,819,819
9412,0,-0.125000,0.000000,-0.062500,-0.37,0.24,0.453708,-1.000000,0.000000,0.000000,0.000000,0.000000,0.000000,0.000000,-0.001339,0.000000,0.000000,0.000000,0.000000,0.000000,0.000000,819,819,819,819
9422,0,-0.125000,0.000000,-0.062500,0.00,0.36,0.260185,-1.000000,0.000000,0.000000,0.000000,0.000000,0.000000,0.000000,-0.000000,0.000000,0.000000,0.000000,0.000000,0.000000,0.000000,819,819,819,819
9432,0,-0.125000,0.000000,-0.062500,-0.12,0.18,0.013009,-1.000000,0.000000,0.000000,0.000000,0.000000,0.000000,0.000000,-0.000426,0.000000,0.000000,0.000000,0.000000,0.000000,0.000000,819,819,819,819
9442,0,-0.125000,0.000000,-0.062500,0.06,-0.12,0.119400,-1.000000,0.000000,0.000000,0.000000,0.000000,0.000000,0.000000,0.000214,0.000000,0.000000,0.000000,0.000000,0.000000,0.000000,819,819,819,819
9452,0,-0.125000,0.000000,-0.062500,0.00,-0.36,0.005970,-1.000000,0.000000,0.000000,0.000000,0.000000,0.000000,0.000000,-0.000000,0.000000,0.000000,0.000000,0.000000,0.000000,0.000000,819,819,819,819
9462,0,-0.125000,0.000000,-0.062500,-0.12,-0.71,-0.118451,-1.000000,0.000000,0.000000,0.000000,0.000000,0.000000,0.000000,-0.000431,0.000000,0.000000,0.000000,0.000000,0.000000,0.000000,819,819,819,819
9472,0,-0.125000,0.000000,-0.062500,0.06,-0.47,-0.421548,-1.000000,0.000000,0.000000,0.000000,0.000000,0.000000,0.000000,0.000213,0.000000,0.000000,0.000000,0.000000,0.000000,0.000000,819,819,819,819
9482,0,-0.062500,0.000000,-0.062500,0.19,-0.18,-0.674202,-1.000000,0.000000,0.000000,0.000000,0.000000,0.000000,0.000000,0.000699,0.000000,0.000000,0.000000,0.000000,0.000000,0.000000,819,819,819,819
9492,0,-0.062500,0.000000,-0.062500,-0.06,0.06,-0.627460,-1.000000,0.000000,0.000000,0.000000,0.000000,0.000000,0.000000,-0.000214,0.000000,0.000000,0.000000,0.000000,0.000000,0.000000,819,819,819,819
9502,0,-0.062500,0.000000,-0.062500,0.06,-0.47,-0.268873,-1.000000,0.000000,0.000000,0.000000,0.000000,0.000000,0.000000,0.000210,0.000000,0.000000,0.000000,0.000000,0.000000,0.000000,819,819,819,819
9512,0,-0.062500,0.062500,-0.062500,-0.12,-0.52,0.164681,-1.000000,0.000000,0.000000,0.000000,0.000000,0.000000,0.000000,-0.000430,0.000000,0.000000,0.000000,0.000000,0.000000,0.000000,819,819,819,819
9528,0,-0.062500,0.062500,-0.062500,0.00,-0.95,0.364484,-1.000000,0.000000,0.000000,0.000000,0.000000,0.000000,0.000000,-0.000000,0.000000,0.000000,0.000000,0.000000,0.000000,0.000000,819,819,819,819
9541,0,-0.062500,0.062500,-0.062500,-0.06,-0.83,0.790099,-1.000000,0.000000,0.000000,0.000000,0.000000,0.000000,0.000000,-0.000172,0.000000,0.000000,0.000000,0.000000,0.000000,0.000000,819,819,819,819
9552,0,-0.125000,0.062500,-0.062500,-0.28,-0.18,0.573880,-1.000000,0.000000,0.000000,0.000000,0.000000,0.000000,0.000000,-0.000956,0.000000,0.000000,0.000000,0.000000,0.000000,0.000000,819,819,819,819
9562,0,-0.125000,0.062500,-0.062500,-0.06,-0.18,0.206819,-1.000000,0.000000,0.000000,0.000000,0.000000,0.000000,0.000000,-0.000208,0.000000,0.000000,0.000000,0.000000,0.000000,0.000000,819,819,819,819
9572,0,-0.125000,0.062500,-0.062500,0.00,0.30,-0.167784,-1.000000,0.000000,0.000000,0.000000,0.000000,0.000000,0.000000,-0.000000,0.000000,0.000000,0.000000,0.000000,0.000000,0.000000,819,819,819,819
9582,0,-0.125000,0.062500,-0.062500,-0.06,0.24,-0.483389,-1.000000,0.000000,0.000000,0.000000,0.000000,0.000000,0.000000,-0.000213,0.000000,0.000000,0.000000,0.000000,0.000000,0.000000,819,819,819,819
9592,0,-0.125000,0.062500,-0.062500,0.00,0.12,-0.380419,-1.000000,0.000000,0.000000,0.000000,0.000000,0.000000,0.000000,-0.000000,0.000000,0.000000,0.000000,0.000000,0.000000,0.000000,819,819,819,819
9602,0,-0.125000,0.062500,-0.062500,-0.06,-0.30,-0.137771,-1.000000,0.000000,0.000000,0.000000,0.000000,0.000000,0.000000,-0.000213,0.000000,0.000000,0.000000,0.000000,0.000000,0.000000,819,819,819,819
9612,0,-0.125000,0.062500,-0.062500,-0.06,-0.36,0.052486,-1.000000,0.000000,0.000000,0.000000,0.000000,0.000000,0.000000,-0.000214,0.000000,0.000000,0.000000,0.000000,0.000000,0.000000,819,819,819,819
9624,0,-0.125000,0.062500,-0.062500,-0.06,-0.12,0.240124,-1.000000,0.000000,0.000000,0.000000,0.000000,0.000000,0.000000,-0.000181,0.000000,0.000000,0.000000,0.000000,0.000000,0.000000,819,819,819,819
9634,0,-0.125000,0.062500,-0.062500,-0.12,0.18,0.308881,-1.000000,0.000000,0.000000,0.000000,0.000000,0.000000,0.000000,-0.000445,0.000000,0.000000,0.000000,0.000000,0.000000,0.000000,819,819,819,819
9643,0,-0.125000,0.062500,-0.062500,-0.12,-0.24,0.252944,-1.000000,0.000000,0.000000,0.000000,0.000000,0.000000,0.000000,-0.000451,0.000000,0.000000,0.000000,0.000000,0.000000,0.000000,819,819,819,819
9653,0,-0.125000,0.062500,-0.062500,-0.06,-0.24,0.012647,-1.000000,0.000000,0.000000,0.000000,0.000000,0.000000,0.000000,-0.000221,0.000000,0.000000,0.000000,0.000000,0.000000,0.000000,819,819,819,819
9663,0,-0.125000,0.062500,-0.062500,0.06,0.42,-0.118118,-1.000000,0.000000,0.000000,0.000000,0.000000,0.000000,0.000000,0.000217,0.000000,0.000000,0.000000,0.000000,0.000000,0.000000,819,819,819,819
9673,0,-0.125000,0.062500,-0.062500,-0.06,0.59,-0.302781,-1.000000,0.000000,0.000000,0.000000,0.000000,0.000000,0.000000,-0.000218,0.000000,0.000000,0.000000,0.000000,0.000000,0.000000,819,819,819,819
9682,0,-0.125000,0.062500,-0.062500,0.00,0.83,-0.193264,-1.000000,0.000000,0.000000,0.000000,0.000000,0.000000,0.000000,-0.000000,0.000000,0.000000,0.000000,0.000000,0.000000,0.000000,819,819,819,819
9692,0,-0.125000,0.000000,-0.062500,-0.06,0.34,-0.009663,-1.000000,0.000000,0.000000,0.000000,0.000000,0.000000,0.000000,-0.000213,0.000000,0.000000,0.000000,0.000000,0.000000,0.000000,819,819,819,819
9703,0,-0.125000,0.000000,-0.062500,0.06,0.12,0.058892,-1.000000,0.000000,0.000000,0.000000,0.000000,0.000000,0.000000,0.000209,0.000000,0.000000,0.000000,0.000000,0.000000,0.000000,819,819,819,819
9713,0,-0.125000,0.000000,-0.062500,-0.18,-0.30,0.181070,-1.000000,0.000000,0.000000,0.000000,0.000000,0.000000,0.000000,-0.000650,0.000000,0.000000,0.000000,0.000000,0.000000,0.000000,819,819,819,819
9723,0,-0.125000,0.000000,-0.062500,0.12,-0.24,0.305928,-1.000000,0.000000,0.000000,0.000000,0.000000,0.000000,0.000000,0.000430,0.000000,0.000000,0.000000,0.000000,0.000000,0.000000,819,819,819,819
9733,0,-0.125000,0.000000,-0.062500,-0.06,-0.36,0.193421,-1.000000,0.000000,0.000000,0.000000,0.000000,0.000000,0.000000,-0.000213,0.000000,0.000000,0.000000,0.000000,0.000000,0.000000,819,819,819,819
9743,0,-0.125000,0.000000,-0.062500,-0.06,-0.36,0.247171,-1.000000,0.000000,0.000000,0.000000,0.000000,0.000000,0.000000,-0.000213,0.000000,0.000000,0.000000,0.000000,0.000000,0.000000,819,819,819,819
9753,0,-0.125000,0.000000,-0.062500,-0.06,-0.30,0.131109,-1.000000,0.000000,0.000000,0.000000,0.000000,0.000000,0.000000,-0.000211,0.000000,0.000000,0.000000,0.000000,0.000000,0.000000,819,819,819,819
9763,0,-0.125000,0.000000,-0.062500,-0.06,-0.06,0.244055,-1.000000,0.000000,0.000000,0.000000,0.000000,0.000000,0.000000,-0.000214,0.000000,0.000000,0.000000,0.000000,0.000000,0.000000,819,819,819,819
9773,0,-0.125000,0.000000,-0.062500,0.12,-0.12,-0.225297,-1.000000,0.000000,0.000000,0.000000,0.000000,0.000000,0.000000,0.000427,0.000000,0.000000,0.000000,0.000000,0.000000,0.000000,819,819,819,819
9783,0,-0.125000,0.000000,-0.062500,0.06,0.00,-0.426890,-1.000000,0.000000,0.000000,0.000000,0.000000,0.000000,0.000000,0.000215,0.000000,0.000000,0.000000,0.000000,0.000000,0.000000,819,819,819,819
9793,0,-0.062500,0.000000,-0.062500,0.31,0.18,-0.793219,-1.000000,0.000000,0.000000,0.000000,0.000000,0.000000,0.000000,0.001127,0.000000,0.000000,0.000000,0.000000,0.000000,0.000000,819,819,819,819
9803,0,-0.062500,0.000000,-0.062500,-0.06,0.24,-1.049036,-1.000000,0.000000,0.000000,0.000000,0.000000,0.000000,0.000000,-0.000212,0.000000,0.000000,0.000000,0.000000,0.000000,0.000000,819,819,819,819
9813,0,-0.062500,0.000000,-0.062500,0.00,0.18,-0.943077,-1.000000,0.000000,0.000000,0.000000,0.000000,0.000000,0.000000,-0.000000,0.000000,0.000000,0.000000,0.000000,0.000000,0.000000,819,819,819,819
9823,0,-0.062500,0.000000,-0.062500,0.06,0.47,-0.581529,-1.000000,0.000000,0.000000,0.000000,0.000000,0.000000,0.000000,0.000211,0.000000,0.000000,0.000000,0.000000,0.000000,0.000000,819,819,819,819
9838,0,-0.062500,0.000000,-0.062500,0.00,0.36,-0.207201,-1.000000,0.000000,0.000000,0.000000,0.000000,0.000000,0.000000,-0.000000,0.000000,0.000000,0.000000,0.000000,0.000000,0.000000,819,819,819,819
9852,0,-0.062500,0.000000,-0.062500,-0.06,0.59,0.345890,-1.000000,0.000000,0.000000,0.000000,0.000000,0.000000,0.000000,-0.000167,0.000000,0.000000,0.000000,0.000000,0.000000,0.000000,819,819,819,819
9863,0,-0.062500,0.000000,-0.062500,-0.06,0.42,0.789169,-1.000000,0.000000,0.000000,0.000000,0.000000,0.000000,0.000000,-0.000190,0.000000,0.000000,0.000000,0.000000,0.000000,0.000000,819,819,819,819
9873,0,-0.062500,0.000000,-0.062500,0.00,0.47,0.633208,-1.000000,0.000000,0.000000,0.000000,0.000000,0.000000,0.000000,-0.000000,0.000000,0.000000,0.000000,0.000000,0.000000,0.000000,819,819,819,819
9883,0,-0.062500,0.000000,-0.062500,0.06,0.24,0.031660,-1.000000,0.000000,0.000000,0.000000,0.000000,0.000000,0.000000,0.000216,0.000000,0.000000,0.000000,0.000000,0.000000,0.000000,819,819,819,819
9893,0,-0.062500,0.000000,-0.062500,0.06,0.12,-0.414042,-1.000000,0.000000,0.000000,0.000000,0.000000,0.000000,0.000000,0.000213,0.000000,0.000000,0.000000,0.000000,0.000000,0.000000,819,819,819,819
9903,0,-0.062500,0.000000,-0.062500,-0.06,0.00,-1.030077,-1.000000,0.000000,0.000000,0.000000,0.000000,0.000000,0.000000,-0.000209,0.000000,0.000000,0.000000,0.000000,0.000000,0.000000,819,819,819,819
9913,0,-0.062500,0.000000,-0.062500,0.00,0.06,-1.239004,-1.000000,0.000000,0.000000,0.000000,0.000000,0.000000,0.000000,-0.000000,0.000000,0.000000,0.000000,0.000000,0.000000,0.000000,819,819,819,819
9923,0,-0.062500,0.000000,-0.062500,0.00,0.00,-0.952575,-1.000000,0.000000,0.000000,0.000000,0.000000,0.000000,0.000000,-0.000000,0.000000,0.000000,0.000000,0.000000,0.000000,0.000000,819,819,819,819
9933,0,-0.062500,0.000000,-0.062500,0.00,-0.12,-0.403879,-1.000000,0.000000,0.000000,0.000000,0.000000,0.000000,0.000000,-0.000000,0.000000,0.000000,0.000000,0.000000,0.000000,0.000000,819,819,819,819
9943,0,-0.062500,0.000000,-0.062500,0.00,-0.12,0.276681,-1.000000,0.000000,0.000000,0.000000,0.000000,0.000000,0.000000,-0.000000,0.000000,0.000000,0.000000,0.000000,0.000000,0.000000,819,819,819,819
9953,0,-0.062500,0.000000,-0.062500,-0.18,-0.06,0.785709,-1.000000,0.000000,0.000000,0.000000,0.000000,0.000000,0.000000,-0.000630,0.000000,0.000000,0.000000,0.000000,0.000000,0.000000,819,819,819,819
9963,0,-0.062500,0.000000,-0.062500,0.00,0.06,1.048660,-1.000000,0.000000,0.000000,0.000000,0.000000,0.000000,0.000000,-0.000000,0.000000,0.000000,0.000000,0.000000,0.000000,0.000000,819,819,819,819
9973,0,-0.062500,0.000000,-0.062500,-0.06,0.65,0.824308,-1.000000,0.000000,0.000000,0.000000,0.000000,0.000000,0.000000,-0.000214,0.000000,0.000000,0.000000,0.000000,0.000000,0.000000,819,819,819,819
9983,0,-0.062500,0.000000,-0.062500,0.00,0.71,0.159965,-1.000000,0.000000,0.000000,0.000000,0.000000,0.000000,0.000000,-0.000000,0.000000,0.000000,0.000000,0.000000,0.000000,0.000000,819,819,819,819
9993,0,-0.062500,0.000000,-0.062500,-0.06,0.36,-0.110752,-1.000000,0.000000,0.000000,0.000000,0.000000,0.000000,0.000000,-0.000213,0.000000,0.000000,0.000000,0.000000,0.000000,0.000000,819,819,819,819
10003,0,-0.062500,0.000000,-0.062500,0.06,0.06,-0.599288,-1.000000,0.000000,0.000000,0.000000,0.000000,0.000000,0.000000,0.000211,0.000000,0.000000,0.000000,0.000000,0.000000,0.000000,819,819,819,819
10013,0,-0.062500,0.000000,-0.062500,-0.12,-0.47,-0.683089,-1.000000,0.000000,0.000000,0.000000,0.000000,0.000000,0.000000,-0.000437,0.000000,0.000000,0.000000,0.000000,0.000000,0.000000,819,819,819,819
10023,0,-0.062500,0.000000,-0.062500,0.06,-0.36,-0.509154,-1.000000,0.000000,0.000000,0.000000,0.000000,0.000000,0.000000,0.000212,0.000000,0.000000,0.000000,0.000000,0.000000,0.000000,819,819,819,819
10033,0,-0.062500,0.000000,-0.062500,0.00,-0.24,0.152667,-1.000000,0.000000,0.000000,0.000000,0.000000,0.000000,0.000000,-0.000000,0.000000,0.000000,0.000000,0.000000,0.000000,0.000000,819,819,819,819
10043,0,-0.062500,0.000000,-0.062500,0.06,0.06,0.957633,-1.000000,0.000000,0.000000,0.000000,0.000000,0.000000,0.000000,0.000211,0.000000,0.000000,0.000000,0.000000,0.000000,0.000000,819,819,819,819
10054,0,-0.062500,0.000000,-0.062500,0.12,0.06,0.819757,-1.000000,0.000000,0.000000,0.000000,0.000000,0.000000,0.000000,0.000420,0.000000,0.000000,0.000000,0.000000,0.000000,0.000000,819,819,819,819
10063,0,-0.062500,0.000000,-0.062500,-0.06,-0.12,0.397238,-1.000000,0.000000,0.000000,0.000000,0.000000,0.000000,0.000000,-0.000218,0.000000,0.000000,0.000000,0.000000,0.000000,0.000000,819,819,819,819
10073,0,-0.062500,0.000000,-0.062500,0.06,0.12,-0.217638,-1.000000,0.000000,0.000000,0.000000,0.000000,0.000000,0.000000,0.000212,0.000000,0.000000,0.000000,0.000000,0.000000,0.000000,819,819,819,819
10083,0,-0.062500,0.000000,-0.062500,-0.12,0.36,-0.901507,-1.000000,0.000000,0.000000,0.000000,0.000000,0.000000,0.000000,-0.000429,0.000000,0.000000,0.000000,0.000000,0.000000,0.000000,819,819,819,819
10094,0,-0.062500,0.000000,-0.062500,-0.12,0.95,-0.995075,-1.000000,0.000000,0.000000,0.000000,0.000000,0.000000,0.000000,-0.000423,0.000000,0.000000,0.000000,0.000000,0.000000,0.000000,819,819,819,819
10104,0,-0.062500,0.000000,-0.062500,0.00,0.89,-0.524754,-1.000000,0.000000,0.000000,0.000000,0.000000,0.000000,0.000000,-0.000000,0.000000,0.000000,0.000000,0.000000,0.000000,0.000000,819,819,819,819
10114,0,-0.062500,0.000000,-0.062500,-0.06,0.12,-0.144988,-1.000000,0.000000,0.000000,0.000000,0.000000,0.000000,0.000000,-0.000217,0.000000,0.000000,0.000000,0.000000,0.000000,0.000000,819,819,819,819
10124,0,-0.062500,0.000000,-0.062500,0.00,-0.30,0.230251,-1.000000,0.000000,0.000000,0.000000,0.000000,0.000000,0.000000,-0.000000,0.000000,0.000000,0.000000,0.000000,0.000000,0.000000,819,819,819,819
10134,0,-0.062500,0.000000,-0.062500,-0.06,-0.06,0.427138,-1.000000,0.000000,0.000000,0.000000,0.000000,0.000000,0.000000,-0.000212,0.000000,0.000000,0.000000,0.000000,0.000000,0.000000,819,819,819,819
10144,0,-0.062500,0.000000,-0.062500,-0.12,0.06,0.318232,-1.000000,0.000000,0.000000,0.000000,0.000000,0.000000,0.000000,-0.000427,0.000000,0.000000,0.000000,0.000000,0.000000,0.000000,819,819,819,819
10157,0,-0.062500,0.000000,-0.062500,0.06,0.24,-0.043463,-1.000000,0.000000,0.000000,0.000000,0.000000,0.000000,0.000000,0.000165,0.000000,0.000000,0.000000,0.000000,0.000000,0.000000,819,819,819,819
