t,is_crashed,roll,pitch,yaw,p,q,r,throttle,p_cmd,q_cmd,r_cmd,roll_cmd,pitch_cmd,yaw_cmd,roll_pid_out,pitch_pid_out,yaw_pid_out,motor_fl,motor_bl,motor_fr,motor_br,pwm_fl,pwm_bl,pwm_fr,pwm_br
7063,0,3.062500,0.500000,-0.125000,-0.06,-0.36,-2.315625,-1.000000,0.000000,0.000000,0.000000,0.000000,0.000000,0.000000,-0.000036,0.000000,0.000000,0.000000,0.000000,0.000000,0.000000,0,0,0,0
7075,0,0.062500,0.000000,-0.125000,-11.48,-1.74,-2.609531,-1.000000,0.000000,0.000000,0.000000,0.000000,0.000000,0.000000,-0.006937,0.000000,0.000000,0.000000,0.000000,0.000000,0.000000,819,819,819,819
7086,0,0.062500,0.000000,-0.125000,-0.06,0.53,-1.674226,-1.000000,0.000000,0.000000,0.000000,0.000000,0.000000,0.000000,-0.000036,0.000000,0.000000,0.000000,0.000000,0.000000,0.000000,819,819,819,819
7096,0,0.062500,0.000000,-0.125000,0.00,0.36,-0.321211,-1.000000,0.000000,0.000000,0.000000,0.000000,0.000000,0.000000,-0.000000,0.000000,0.000000,0.000000,0.000000,0.000000,0.000000,819,819,819,819
7108,0,0.062500,0.000000,-0.125000,0.18,0.12,1.112064,-1.000000,0.000000,0.000000,0.000000,0.000000,0.000000,0.000000,0.000108,0.000000,0.000000,0.000000,0.000000,0.000000,0.000000,819,819,819,819
7120,0,0.000000,0.000000,-0.125000,-0.32,-0.24,1.896228,-1.000000,0.000000,0.000000,0.000000,0.000000,0.000000,0.000000,-0.000193,0.000000,0.000000,0.000000,0.000000,0.000000,0.000000,819,819,819,819
7131,0,0.000000,0.000000,-0.125000,-0.12,-0.18,1.104186,-1.000000,0.000000,0.000000,0.000000,0.000000,0.000000,0.000000,-0.000072,0.000000,0.000000,0.000000,0.000000,0.000000,0.000000,819,819,819,819
7141,0,0.000000,0.000000,-0.125000,0.00,-0.18,-0.063541,-1.000000,0.000000,0.000000,0.000000,0.000000,0.000000,0.000000,-0.000000,0.000000,0.000000,0.000000,0.000000,0.000000,0.000000,819,819,819,819
7151,0,0.000000,0.000000,-0.125000,0.00,0.00,-0.834427,-1.000000,0.000000,0.000000,0.000000,0.000000,0.000000,0.000000,-0.000000,0.000000,0.000000,0.000000,0.000000,0.000000,0.000000,819,819,819,819
7161,0,0.000000,0.000000,-0.125000,0.06,0.12,-1.526096,-1.000000,0.000000,0.000000,0.000000,0.000000,0.000000,0.000000,0.000036,0.000000,0.000000,0.000000,0.000000,0.000000,0.000000,819,819,819,819
7171,0,0.000000,0.000000,-0.125000,0.06,0.12,-1.441930,-1.000000,0.000000,0.000000,0.000000,0.000000,0.000000,0.000000,0.000036,0.000000,0.000000,0.000000,0.000000,0.000000,0.000000,819,819,819,819
7181,0,0.000000,0.000000,-0.125000,0.00,0.30,-0.547096,-1.000000,0.000000,0.000000,0.000000,0.000000,0.000000,0.000000,-0.000000,0.000000,0.000000,0.000000,0.000000,0.000000,0.000000,819,819,819,819
7191,0,0.000000,0.000000,-0.125000,0.00,0.30,0.210145,-1.000000,0.000000,0.000000,0.000000,0.000000,0.000000,0.000000,-0.000000,0.000000,0.000000,0.000000,0.000000,0.000000,0.000000,819,819,819,819
7208,0,0.000000,0.000000,-0.125000,-0.06,0.24,0.663632,-1.000000,0.000000,0.000000,0.000000,0.000000,0.000000,0.000000,-0.000036,0.000000,0.000000,0.000000,0.000000,0.000000,0.000000,819,819,819,819
7221,0,0.000000,0.000000,-0.125000,-0.06,-0.06,0.686307,-1.000000,0.000000,0.000000,0.000000,0.000000,0.000000,0.000000,-0.000036,0.000000,0.000000,0.000000,0.000000,0.000000,0.000000,819,819,819,819
7231,0,0.000000,0.000000,-0.125000,0.00,0.00,0.390565,-1.000000,0.000000,0.000000,0.000000,0.000000,0.000000,0.000000,-0.000000,0.000000,0.000000,0.000000,0.000000,0.000000,0.000000,819,819,819,819
7241,0,0.000000,0.000000,-0.125000,0.00,-0.06,0.138278,-1.000000,0.000000,0.000000,0.000000,0.000000,0.000000,0.000000,-0.000000,0.000000,0.000000,0.000000,0.000000,0.000000,0.000000,819,819,819,819
7251,0,0.000000,0.000000,-0.125000,0.00,-0.18,-0.349336,-1.000000,0.000000,0.000000,0.000000,0.000000,0.000000,0.000000,-0.000000,0.000000,0.000000,0.000000,0.000000,0.000000,0.000000,819,819,819,819
7261,0,0.000000,0.000000,-0.125000,0.06,0.00,-0.433092,-1.000000,0.000000,0.000000,0.000000,0.000000,0.000000,0.000000,0.000036,0.000000,0.000000,0.000000,0.000000,0.000000,0.000000,819,819,819,819
7271,0,0.000000,0.000000,-0.125000,-0.06,0.06,-0.674780,-1.000000,0.000000,0.000000,0.000000,0.000000,0.000000,0.000000,-0.000036,0.000000,0.000000,0.000000,0.000000,0.000000,0.000000,819,819,819,819
7281,0,0.000000,0.000000,-0.125000,-0.06,-0.06,-0.449364,-1.000000,0.000000,0.000000,0.000000,0.000000,0.000000,0.000000,-0.000036,0.000000,0.000000,0.000000,0.000000,0.000000,0.000000,819,819,819,819
7291,0,0.000000,0.000000,-0.125000,0.00,0.00,-0.200593,-1.000000,0.000000,0.000000,0.000000,0.000000,0.000000,0.000000,-0.000000,0.000000,0.000000,0.000000,0.000000,0.000000,0.000000,819,819,819,819
7301,0,0.000000,0.000000,-0.125000,-0.06,-0.24,0.108720,-1.000000,0.000000,0.000000,0.000000,0.000000,0.000000,0.000000,-0.000036,0.000000,0.000000,0.000000,0.000000,0.000000,0.000000,819,819,819,819
7311,0,0.000000,0.000000,-0.125000,-0.06,-0.18,0.421061,-1.000000,0.000000,0.000000,0.000000,0.000000,0.000000,0.000000,-0.000036,0.000000,0.000000,0.000000,0.000000,0.000000,0.000000,819,819,819,819
7321,0,0.000000,0.000000,-0.125000,-0.06,0.00,0.555428,-1.000000,0.000000,0.000000,0.000000,0.000000,0.000000,0.000000,-0.000036,0.000000,0.000000,0.000000,0.000000,0.000000,0.000000,819,819,819,819
7331,0,0.000000,0.000000,-0.125000,0.12,-0.06,0.146521,-1.000000,0.000000,0.000000,0.000000,0.000000,0.000000,0.000000,0.000072,0.000000,0.000000,0.000000,0.000000,0.000000,0.000000,819,819,819,819
7341,0,0.000000,0.000000,-0.125000,-0.06,0.12,-0.170799,-1.000000,0.000000,0.000000,0.000000,0.000000,0.000000,0.000000,-0.000036,0.000000,0.000000,0.000000,0.000000,0.000000,0.000000,819,819,819,819
7351,0,0.000000,0.000000,-0.125000,-0.12,0.18,-0.127290,-1.000000,0.000000,0.000000,0.000000,0.000000,0.000000,0.000000,-0.000072,0.000000,0.000000,0.000000,0.000000,0.000000,0.000000,819,819,819,819
7361,0,0.000000,0.000000,-0.125000,0.00,-0.18,-0.125115,-1.000000,0.000000,0.000000,0.000000,0.000000,0.000000,0.000000,-0.000000,0.000000,0.000000,0.000000,0.000000,0.000000,0.000000,819,819,819,819
7371,0,0.000000,0.000000,-0.125000,-0.06,0.12,-0.481256,-1.000000,0.000000,0.000000,0.000000,0.000000,0.000000,0.000000,-0.000036,0.000000,0.000000,0.000000,0.000000,0.000000,0.000000,819,819,819,819
7381,0,0.000000,0.000000,-0.125000,0.00,-0.12,-0.380313,-1.000000,0.000000,0.000000,0.000000,0.000000,0.000000,0.000000,-0.000000,0.000000,0.000000,0.000000,0.000000,0.000000,0.000000,819,819,819,819
7391,0,0.000000,0.000000,-0.125000,-0.06,0.42,-0.909641,-1.000000,0.000000,0.000000,0.000000,0.000000,0.000000,0.000000,-0.000036,0.000000,0.000000,0.000000,0.000000,0.000000,0.000000,819,819,819,819
7401,0,0.000000,0.000000,-0.125000,0.06,0.06,-0.282982,-1.000000,0.000000,0.000000,0.000000,0.000000,0.000000,0.000000,0.000036,0.000000,0.000000,0.000000,0.000000,0.000000,0.000000,819,819,819,819
7411,0,0.000000,0.000000,-0.125000,0.00,-0.47,0.163976,-1.000000,0.000000,0.000000,0.000000,0.000000,0.000000,0.000000,-0.000000,0.000000,0.000000,0.000000,0.000000,0.000000,0.000000,819,819,819,819
7421,0,0.000000,0.000000,-0.125000,0.12,0.59,-0.229301,-1.000000,0.000000,0.000000,0.000000,0.000000,0.000000,0.000000,0.000072,0.000000,0.000000,0.000000,0.000000,0.000000,0.000000,819,819,819,819
7431,0,0.000000,0.000000,-0.125000,-0.06,0.47,0.107285,-1.000000,0.000000,0.000000,0.000000,0.000000,0.000000,0.000000,-0.000036,0.000000,0.000000,0.000000,0.000000,0.000000,0.000000,819,819,819,819
7441,0,0.000000,0.000000,-0.125000,0.12,0.06,0.183489,-1.000000,0.000000,0.000000,0.000000,0.000000,0.000000,0.000000,0.000072,0.000000,0.000000,0.000000,0.000000,0.000000,0.000000,819,819,819,819
7451,0,0.000000,0.000000,-0.125000,0.06,-0.18,0.602924,-1.000000,0.000000,0.000000,0.000000,0.000000,0.000000,0.000000,0.000036,0.000000,0.000000,0.000000,0.000000,0.000000,0.000000,819,819,819,819
7461,0,0.000000,0.000000,-0.125000,0.00,-0.42,0.505146,-1.000000,0.000000,0.000000,0.000000,0.000000,0.000000,0.000000,-0.000000,0.000000,0.000000,0.000000,0.000000,0.000000,0.000000,819,819,819,819
7471,0,0.000000,0.000000,-0.125000,-0.06,-0.36,-0.152868,-1.000000,0.000000,0.000000,0.000000,0.000000,0.000000,0.000000,-0.000036,0.000000,0.000000,0.000000,0.000000,0.000000,0.000000,819,819,819,819
7481,0,0.000000,0.000000,-0.125000,-0.12,-0.24,-0.720143,-1.000000,0.000000,0.000000,0.000000,0.000000,0.000000,0.000000,-0.000072,0.000000,0.000000,0.000000,0.000000,0.000000,0.000000,819,819,819,819
7491,0,0.000000,0.000000,-0.125000,-0.06,-0.06,-0.570382,-1.000000,0.000000,0.000000,0.000000,0.000000,0.000000,0.000000,-0.000036,0.000000,0.000000,0.000000,0.000000,0.000000,0.000000,819,819,819,819
7501,0,0.000000,0.000000,-0.125000,-0.06,0.18,-0.919144,-1.000000,0.000000,0.000000,0.000000,0.000000,0.000000,0.000000,-0.000036,0.000000,0.000000,0.000000,0.000000,0.000000,0.000000,819,819,819,819
7511,0,0.000000,0.000000,-0.125000,0.06,0.12,-0.402207,-1.000000,0.000000,0.000000,0.000000,0.000000,0.000000,0.000000,0.000036,0.000000,0.000000,0.000000,0.000000,0.000000,0.000000,819,819,819,819
7529,0,0.000000,0.000000,-0.125000,-0.12,-0.30,0.395515,-1.000000,0.000000,0.000000,0.000000,0.000000,0.000000,0.000000,-0.000072,0.000000,0.000000,0.000000,0.000000,0.000000,0.000000,819,819,819,819
7541,0,0.000000,0.000000,-0.125000,0.06,-0.42,0.257276,-1.000000,0.000000,0.000000,0.000000,0.000000,0.000000,0.000000,0.000036,0.000000,0.000000,0.000000,0.000000,0.000000,0.000000,819,819,819,819
7551,0,0.000000,0.000000,-0.125000,-0.06,0.24,0.784739,-1.000000,0.000000,0.000000,0.000000,0.000000,0.000000,0.000000,-0.000036,0.000000,0.000000,0.000000,0.000000,0.000000,0.000000,819,819,819,819
7561,0,0.000000,0.000000,-0.125000,0.00,0.36,0.514237,-1.000000,0.000000,0.000000,0.000000,0.000000,0.000000,0.000000,-0.000000,0.000000,0.000000,0.000000,0.000000,0.000000,0.000000,819,819,819,819
7571,0,0.000000,0.000000,-0.125000,-0.06,-0.06,-0.033663,-1.000000,0.000000,0.000000,0.000000,0.000000,0.000000,0.000000,-0.000036,0.000000,0.000000,0.000000,0.000000,0.000000,0.000000,819,819,819,819
7581,0,0.000000,0.000000,-0.125000,0.06,0.06,0.176442,-1.000000,0.000000,0.000000,0.000000,0.000000,0.000000,0.000000,0.000036,0.000000,0.000000,0.000000,0.000000,0.000000,0.000000,819,819,819,819
7592,0,0.000000,0.000000,-0.125000,0.00,-0.24,-0.406803,-1.000000,0.000000,0.000000,0.000000,0.000000,0.000000,0.000000,-0.000000,0.000000,0.000000,0.000000,0.000000,0.000000,0.000000,819,819,819,819
7601,0,0.000000,0.000000,-0.125000,0.12,0.06,-0.970340,-1.000000,0.000000,0.000000,0.000000,0.000000,0.000000,0.000000,0.000072,0.000000,0.000000,0.000000,0.000000,0.000000,0.000000,819,819,819,819
7611,0,0.000000,0.000000,-0.125000,0.00,-0.06,-0.642267,-1.000000,0.000000,0.000000,0.000000,0.000000,0.000000,0.000000,-0.000000,0.000000,0.000000,0.000000,0.000000,0.000000,0.000000,819,819,819,819
7621,0,0.000000,0.000000,-0.125000,0.00,0.24,-0.269613,-1.000000,0.000000,0.000000,0.000000,0.000000,0.000000,0.000000,-0.000000,0.000000,0.000000,0.000000,0.000000,0.000000,0.000000,819,819,819,819
7631,0,0.000000,0.000000,-0.125000,0.12,0.12,0.402144,-1.000000,0.000000,0.000000,0.000000,0.000000,0.000000,0.000000,0.000072,0.000000,0.000000,0.000000,0.000000,0.000000,0.000000,819,819,819,819
7642,0,0.000000,0.000000,-0.125000,0.00,-0.59,0.613857,-1.000000,0.000000,0.000000,0.000000,0.000000,0.000000,0.000000,-0.000000,0.000000,0.000000,0.000000,0.000000,0.000000,0.000000,819,819,819,819
7652,0,0.000000,0.000000,-0.125000,-0.06,-0.24,0.268193,-1.000000,0.000000,0.000000,0.000000,0.000000,0.000000,0.000000,-0.000036,0.000000,0.000000,0.000000,0.000000,0.000000,0.000000,819,819,819,819
7662,0,0.000000,0.000000,-0.125000,0.06,-0.06,-0.045965,-1.000000,0.000000,0.000000,0.000000,0.000000,0.000000,0.000000,0.000036,0.000000,0.000000,0.000000,0.000000,0.000000,0.000000,819,819,819,819
7672,0,0.000000,0.000000,-0.125000,0.06,-0.06,-0.002298,-1.000000,0.000000,0.000000,0.000000,0.000000,0.000000,0.000000,0.000036,0.000000,0.000000,0.000000,0.000000,0.000000,0.000000,819,819,819,819
7682,0,0.000000,0.000000,-0.125000,0.12,0.12,0.415510,-1.000000,0.000000,0.000000,0.000000,0.000000,0.000000,0.000000,0.000072,0.000000,0.000000,0.000000,0.000000,0.000000,0.000000,819,819,819,819
7692,0,0.000000,0.000000,-0.125000,0.06,-0.30,0.436400,-1.000000,0.000000,0.000000,0.000000,0.000000,0.000000,0.000000,0.000036,0.000000,0.000000,0.000000,0.000000,0.000000,0.000000,819,819,819,819
7702,0,0.000000,0.000000,-0.125000,-0.06,0.12,-0.037555,-1.000000,0.000000,0.000000,0.000000,0.000000,0.000000,0.000000,-0.000036,0.000000,0.000000,0.000000,0.000000,0.000000,0.000000,819,819,819,819
7712,0,0.000000,0.000000,-0.125000,0.00,0.36,-0.180003,-1.000000,0.000000,0.000000,0.000000,0.000000,0.000000,0.000000,-0.000000,0.000000,0.000000,0.000000,0.000000,0.000000,0.000000,819,819,819,819
7722,0,0.000000,0.000000,-0.125000,0.00,0.36,-0.662125,-1.000000,0.000000,0.000000,0.000000,0.000000,0.000000,0.000000,-0.000000,0.000000,0.000000,0.000000,0.000000,0.000000,0.000000,819,819,819,819
7731,0,0.000000,0.000000,-0.125000,0.00,-0.06,-0.864356,-1.000000,0.000000,0.000000,0.000000,0.000000,0.000000,0.000000,-0.000000,0.000000,0.000000,0.000000,0.000000,0.000000,0.000000,819,819,819,819
7742,0,0.062500,0.000000,-0.125000,0.28,-0.06,-0.458843,-1.000000,0.000000,0.000000,0.000000,0.000000,0.000000,0.000000,0.000172,0.000000,0.000000,0.000000,0.000000,0.000000,0.000000,819,819,819,819
7752,0,0.062500,0.000000,-0.125000,0.12,-0.36,-0.557317,-1.000000,0.000000,0.000000,0.000000,0.000000,0.000000,0.000000,0.000072,0.000000,0.000000,0.000000,0.000000,0.000000,0.000000,819,819,819,819
7762,0,0.062500,0.000000,-0.125000,0.00,-0.06,0.090884,-1.000000,0.000000,0.000000,0.000000,0.000000,0.000000,0.000000,-0.000000,0.000000,0.000000,0.000000,0.000000,0.000000,0.000000,819,819,819,819
7772,0,0.062500,0.000000,-0.125000,0.00,0.30,0.479544,-1.000000,0.000000,0.000000,0.000000,0.000000,0.000000,0.000000,-0.000000,0.000000,0.000000,0.000000,0.000000,0.000000,0.000000,819,819,819,819
7782,0,0.000000,0.000000,-0.125000,-0.31,0.30,0.914602,-1.000000,0.000000,0.000000,0.000000,0.000000,0.000000,0.000000,-0.000189,0.000000,0.000000,0.000000,0.000000,0.000000,0.000000,819,819,819,819
7792,0,0.000000,0.000000,-0.125000,0.00,0.12,1.114480,-1.000000,0.000000,0.000000,0.000000,0.000000,0.000000,0.000000,-0.000000,0.000000,0.000000,0.000000,0.000000,0.000000,0.000000,819,819,819,819
7802,0,0.000000,0.000000,-0.125000,0.06,-0.18,0.708849,-1.000000,0.000000,0.000000,0.000000,0.000000,0.000000,0.000000,0.000036,0.000000,0.000000,0.000000,0.000000,0.000000,0.000000,819,819,819,819
7812,0,0.000000,0.000000,-0.125000,0.18,-0.06,-0.023933,-1.000000,0.000000,0.000000,0.000000,0.000000,0.000000,0.000000,0.000108,0.000000,0.000000,0.000000,0.000000,0.000000,0.000000,819,819,819,819
7822,0,0.000000,0.000000,-0.125000,0.00,-0.12,-0.238697,-1.000000,0.000000,0.000000,0.000000,0.000000,0.000000,0.000000,-0.000000,0.000000,0.000000,0.000000,0.000000,0.000000,0.000000,819,819,819,819
7832,0,0.000000,0.000000,-0.125000,0.06,0.18,-1.258810,-1.000000,0.000000,0.000000,0.000000,0.000000,0.000000,0.000000,0.000036,0.000000,0.000000,0.000000,0.000000,0.000000,0.000000,819,819,819,819
7847,0,0.062500,0.000000,-0.125000,0.27,0.83,-1.250440,-1.000000,0.000000,0.000000,0.000000,0.000000,0.000000,0.000000,0.000162,0.000000,0.000000,0.000000,0.000000,0.000000,0.000000,819,819,819,819
7857,0,0.062500,0.000000,-0.125000,0.06,1.37,-0.775022,-1.000000,0.000000,0.000000,0.000000,0.000000,0.000000,0.000000,0.000036,0.000000,0.000000,0.000000,0.000000,0.000000,0.000000,819,819,819,819
7869,0,0.062500,-0.062500,-0.125000,-0.12,1.11,-0.513751,-1.000000,0.000000,0.000000,0.000000,0.000000,0.000000,0.000000,-0.000072,0.000000,0.000000,0.000000,0.000000,0.000000,0.000000,819,819,819,819
7881,0,0.062500,-0.062500,-0.125000,0.00,0.89,0.093062,-1.000000,0.000000,0.000000,0.000000,0.000000,0.000000,0.000000,-0.000000,0.000000,0.000000,0.000000,0.000000,0.000000,0.000000,819,819,819,819
7892,0,0.062500,-0.062500,-0.125000,-0.06,0.95,0.360903,-1.000000,0.000000,0.000000,0.000000,0.000000,0.000000,0.000000,-0.000036,0.000000,0.000000,0.000000,0.000000,0.000000,0.000000,819,819,819,819
7903,0,0.062500,-0.062500,-0.125000,0.06,0.42,0.493045,-1.000000,0.000000,0.000000,0.000000,0.000000,0.000000,0.000000,0.000036,0.000000,0.000000,0.000000,0.000000,0.000000,0.000000,819,819,819,819
7917,0,0.062500,-0.062500,-0.125000,0.00,-0.18,0.380902,-1.000000,0.000000,0.000000,0.000000,0.000000,0.000000,0.000000,-0.000000,0.000000,0.000000,0.000000,0.000000,0.000000,0.000000,819,819,819,819
7930,0,0.062500,-0.062500,-0.125000,0.06,-0.36,-0.099705,-1.000000,0.000000,0.000000,0.000000,0.000000,0.000000,0.000000,0.000036,0.000000,0.000000,0.000000,0.000000,0.000000,0.000000,819,819,819,819
7941,0,0.062500,-0.062500,-0.125000,0.00,-0.30,-0.301860,-1.000000,0.000000,0.000000,0.000000,0.000000,0.000000,0.000000,-0.000000,0.000000,0.000000,0.000000,0.000000,0.000000,0.000000,819,819,819,819
7952,0,0.062500,-0.062500,-0.125000,0.00,-0.12,-0.430718,-1.000000,0.000000,0.000000,0.000000,0.000000,0.000000,0.000000,-0.000000,0.000000,0.000000,0.000000,0.000000,0.000000,0.000000,819,819,819,819
7962,0,0.062500,-0.062500,-0.125000,-0.06,-0.24,-0.080911,-1.000000,0.000000,0.000000,0.000000,0.000000,0.000000,0.000000,-0.000036,0.000000,0.000000,0.000000,0.000000,0.000000,0.000000,819,819,819,819
7972,0,0.062500,-0.062500,-0.125000,0.06,-0.30,0.292829,-1.000000,0.000000,0.000000,0.000000,0.000000,0.000000,0.000000,0.000036,0.000000,0.000000,0.000000,0.000000,0.000000,0.000000,819,819,819,819
7982,0,0.062500,-0.062500,-0.125000,-0.06,-0.36,0.549016,-1.000000,0.000000,0.000000,0.000000,0.000000,0.000000,0.000000,-0.000036,0.000000,0.000000,0.000000,0.000000,0.000000,0.000000,819,819,819,819
7992,0,0.062500,-0.062500,-0.125000,-0.12,-0.42,0.443076,-1.000000,0.000000,0.000000,0.000000,0.000000,0.000000,0.000000,-0.000072,0.000000,0.000000,0.000000,0.000000,0.000000,0.000000,819,819,819,819
8002,0,0.062500,-0.062500,-0.125000,-0.12,-0.18,0.437779,-1.000000,0.000000,0.000000,0.000000,0.000000,0.000000,0.000000,-0.000072,0.000000,0.000000,0.000000,0.000000,0.000000,0.000000,819,819,819,819
8012,0,0.062500,-0.062500,-0.125000,0.00,-0.30,0.318764,-1.000000,0.000000,0.000000,0.000000,0.000000,0.000000,0.000000,-0.000000,0.000000,0.000000,0.000000,0.000000,0.000000,0.000000,819,819,819,819
8022,0,0.062500,-0.062500,-0.125000,0.06,-0.53,0.253438,-1.000000,0.000000,0.000000,0.000000,0.000000,0.000000,0.000000,0.000036,0.000000,0.000000,0.000000,0.000000,0.000000,0.000000,819,819,819,819
8032,0,0.062500,-0.062500,-0.125000,0.00,-0.71,0.309547,-1.000000,0.000000,0.000000,0.000000,0.000000,0.000000,0.000000,-0.000000,0.000000,0.000000,0.000000,0.000000,0.000000,0.000000,819,819,819,819
8042,0,0.062500,-0.062500,-0.125000,-0.06,-0.65,0.371727,-1.000000,0.000000,0.000000,0.000000,0.000000,0.000000,0.000000,-0.000036,0.000000,0.000000,0.000000,0.000000,0.000000,0.000000,819,819,819,819
8052,0,0.062500,-0.062500,-0.125000,-0.06,-0.89,0.256086,-1.000000,0.000000,0.000000,0.000000,0.000000,0.000000,0.000000,-0.000036,0.000000,0.000000,0.000000,0.000000,0.000000,0.000000,819,819,819,819
8062,0,0.062500,-0.062500,-0.125000,0.06,-0.71,0.250304,-1.000000,0.000000,0.000000,0.000000,0.000000,0.000000,0.000000,0.000036,0.000000,0.000000,0.000000,0.000000,0.000000,0.000000,819,819,819,819
8072,0,0.062500,-0.062500,-0.125000,0.00,-0.18,0.250015,-1.000000,0.000000,0.000000,0.000000,0.000000,0.000000,0.000000,-0.000000,0.000000,0.000000,0.000000,0.000000,0.000000,0.000000,819,819,819,819
8082,0,0.062500,-0.062500,-0.125000,0.12,0.42,0.012501,-1.000000,0.000000,0.000000,0.000000,0.000000,0.000000,0.000000,0.000072,0.000000,0.000000,0.000000,0.000000,0.000000,0.000000,819,819,819,819
8092,0,0.062500,-0.062500,-0.125000,-0.06,0.36,-0.058750,-1.000000,0.000000,0.000000,0.000000,0.000000,0.000000,0.000000,-0.000036,0.000000,0.000000,0.000000,0.000000,0.000000,0.000000,819,819,819,819
8102,0,0.062500,-0.062500,-0.125000,0.00,0.12,-0.596687,-1.000000,0.000000,0.000000,0.000000,0.000000,0.000000,0.000000,-0.000000,0.000000,0.000000,0.000000,0.000000,0.000000,0.000000,819,819,819,819
8112,0,0.062500,-0.062500,-0.125000,0.00,-0.47,-0.979834,-1.000000,0.000000,0.000000,0.000000,0.000000,0.000000,0.000000,-0.000000,0.000000,0.000000,0.000000,0.000000,0.000000,0.000000,819,819,819,819
8122,0,0.062500,-0.062500,-0.125000,-0.18,-0.24,-0.880242,-1.000000,0.000000,0.000000,0.000000,0.000000,0.000000,0.000000,-0.000108,0.000000,0.000000,0.000000,0.000000,0.000000,0.000000,819,819,819,819
8132,0,0.062500,-0.062500,-0.125000,-0.06,0.12,-0.578387,-1.000000,0.000000,0.000000,0.000000,0.000000,0.000000,0.000000,-0.000036,0.000000,0.000000,0.000000,0.000000,0.000000,0.000000,819,819,819,819
8142,0,0.062500,-0.062500,-0.125000,-0.06,-0.06,-0.563294,-1.000000,0.000000,0.000000,0.000000,0.000000,0.000000,0.000000,-0.000036,0.000000,0.000000,0.000000,0.000000,0.000000,0.000000,819,819,819,819
8152,0,0.062500,-0.062500,-0.125000,-0.12,-0.30,-0.146915,-1.000000,0.000000,0.000000,0.000000,0.000000,0.000000,0.000000,-0.000072,0.000000,0.000000,0.000000,0.000000,0.000000,0.000000,819,819,819,819
8170,0,0.062500,-0.062500,-0.125000,0.06,-0.30,0.348904,-1.000000,0.000000,0.000000,0.000000,0.000000,0.000000,0.000000,0.000036,0.000000,0.000000,0.000000,0.000000,0.000000,0.000000,819,819,819,819
8181,0,0.062500,-0.062500,-0.125000,-0.06,-0.30,0.908070,-1.000000,0.000000,0.000000,0.000000,0.000000,0.000000,0.000000,-0.000036,0.000000,0.000000,0.000000,0.000000,0.000000,0.000000,819,819,819,819
8193,0,0.062500,-0.062500,-0.125000,0.06,-0.06,0.461028,-1.000000,0.000000,0.000000,0.000000,0.000000,0.000000,0.000000,0.000036,0.000000,0.000000,0.000000,0.000000,0.000000,0.000000,819,819,819,819
8203,0,0.062500,-0.062500,-0.125000,-0.12,-0.42,0.023051,-1.000000,0.000000,0.000000,0.000000,0.000000,0.000000,0.000000,-0.000072,0.000000,0.000000,0.000000,0.000000,0.000000,0.000000,819,819,819,819
8213,0,0.062500,-0.062500,-0.125000,0.00,-0.47,-0.295722,-1.000000,0.000000,0.000000,0.000000,0.000000,0.000000,0.000000,-0.000000,0.000000,0.000000,0.000000,0.000000,0.000000,0.000000,819,819,819,819
8223,0,0.062500,-0.062500,-0.125000,-0.06,-0.18,-0.252286,-1.000000,0.000000,0.000000,0.000000,0.000000,0.000000,0.000000,-0.000036,0.000000,0.000000,0.000000,0.000000,0.000000,0.000000,819,819,819,819
8233,0,0.062500,-0.062500,-0.125000,0.00,0.06,-0.309489,-1.000000,0.000000,0.000000,0.000000,0.000000,0.000000,0.000000,-0.000000,0.000000,0.000000,0.000000,0.000000,0.000000,0.000000,819,819,819,819
8243,0,0.062500,-0.062500,-0.125000,0.00,0.24,0.162651,-1.000000,0.000000,0.000000,0.000000,0.000000,0.000000,0.000000,-0.000000,0.000000,0.000000,0.000000,0.000000,0.000000,0.000000,819,819,819,819
8253,0,0.062500,-0.062500,-0.125000,0.00,0.53,0.364383,-1.000000,0.000000,0.000000,0.000000,0.000000,0.000000,0.000000,-0.000000,0.000000,0.000000,0.000000,0.000000,0.000000,0.000000,819,819,819,819
8263,0,0.062500,-0.062500,-0.125000,-0.06,0.77,1.086969,-1.000000,0.000000,0.000000,0.000000,0.000000,0.000000,0.000000,-0.000036,0.000000,0.000000,0.000000,0.000000,0.000000,0.000000,819,819,819,819
8273,0,0.062500,-0.062500,-0.125000,0.06,0.18,1.063723,-1.000000,0.000000,0.000000,0.000000,0.000000,0.000000,0.000000,0.000036,0.000000,0.000000,0.000000,0.000000,0.000000,0.000000,819,819,819,819
8283,0,0.062500,-0.062500,-0.125000,-0.06,-0.24,-0.006189,-1.000000,0.000000,0.000000,0.000000,0.000000,0.000000,0.000000,-0.000036,0.000000,0.000000,0.000000,0.000000,0.000000,0.000000,819,819,819,819
8293,0,0.062500,-0.062500,-0.125000,0.00,-0.59,-0.594059,-1.000000,0.000000,0.000000,0.000000,0.000000,0.000000,0.000000,-0.000000,0.000000,0.000000,0.000000,0.000000,0.000000,0.000000,819,819,819,819
8303,0,0.062500,-0.062500,-0.125000,-0.06,-0.18,-0.564078,-1.000000,0.000000,0.000000,0.000000,0.000000,0.000000,0.000000,-0.000036,0.000000,0.000000,0.000000,0.000000,0.000000,0.000000,819,819,819,819
8313,0,0.062500,-0.062500,-0.125000,0.00,0.18,-0.859454,-1.000000,0.000000,0.000000,0.000000,0.000000,0.000000,0.000000,-0.000000,0.000000,0.000000,0.000000,0.000000,0.000000,0.000000,819,819,819,819
8323,0,0.062500,-0.062500,-0.125000,0.00,0.12,-0.458598,-1.000000,0.000000,0.000000,0.000000,0.000000,0.000000,0.000000,-0.000000,0.000000,0.000000,0.000000,0.000000,0.000000,0.000000,819,819,819,819
8333,0,0.062500,-0.062500,-0.125000,0.00,-0.24,0.333320,-1.000000,0.000000,0.000000,0.000000,0.000000,0.000000,0.000000,-0.000000,0.000000,0.000000,0.000000,0.000000,0.000000,0.000000,819,819,819,819
8343,0,0.062500,-0.062500,-0.125000,-0.12,-0.36,0.491666,-1.000000,0.000000,0.000000,0.000000,0.000000,0.000000,0.000000,-0.000072,0.000000,0.000000,0.000000,0.000000,0.000000,0.000000,819,819,819,819
8353,0,0.062500,-0.062500,-0.125000,0.06,-0.12,0.677708,-1.000000,0.000000,0.000000,0.000000,0.000000,0.000000,0.000000,0.000036,0.000000,0.000000,0.000000,0.000000,0.000000,0.000000,819,819,819,819
8363,0,0.062500,-0.062500,-0.125000,-0.18,-0.24,0.390135,-1.000000,0.000000,0.000000,0.000000,0.000000,0.000000,0.000000,-0.000108,0.000000,0.000000,0.000000,0.000000,0.000000,0.000000,819,819,819,819
8373,0,0.062500,-0.062500,-0.125000,-0.06,-0.18,-0.099243,-1.000000,0.000000,0.000000,0.000000,0.000000,0.000000,0.000000,-0.000036,0.000000,0.000000,0.000000,0.000000,0.000000,0.000000,819,819,819,819
8383,0,0.062500,-0.062500,-0.125000,-0.12,-0.24,-0.479962,-1.000000,0.000000,0.000000,0.000000,0.000000,0.000000,0.000000,-0.000072,0.000000,0.000000,0.000000,0.000000,0.000000,0.000000,819,819,819,819
8393,0,0.062500,-0.062500,-0.125000,0.06,-0.06,-0.736498,-1.000000,0.000000,0.000000,0.000000,0.000000,0.000000,0.000000,0.000036,0.000000,0.000000,0.000000,0.000000,0.000000,0.000000,819,819,819,819
8403,0,0.062500,-0.062500,-0.125000,-0.18,-0.18,-0.689950,-1.000000,0.000000,0.000000,0.000000,0.000000,0.000000,0.000000,-0.000108,0.000000,0.000000,0.000000,0.000000,0.000000,0.000000,819,819,819,819
8413,0,0.062500,-0.062500,-0.125000,0.06,0.06,-0.687622,-1.000000,0.000000,0.000000,0.000000,0.000000,0.000000,0.000000,0.000036,0.000000,0.000000,0.000000,0.000000,0.000000,0.000000,819,819,819,819
8423,0,0.062500,-0.062500,-0.125000,0.00,0.18,-0.509381,-1.000000,0.000000,0.000000,0.000000,0.000000,0.000000,0.000000,-0.000000,0.000000,0.000000,0.000000,0.000000,0.000000,0.000000,819,819,819,819
8433,0,0.062500,-0.062500,-0.125000,0.00,0.06,-0.678594,-1.000000,0.000000,0.000000,0.000000,0.000000,0.000000,0.000000,-0.000000,0.000000,0.000000,0.000000,0.000000,0.000000,0.000000,819,819,819,819
8443,0,0.062500,-0.062500,-0.125000,0.00,0.06,-0.687055,-1.000000,0.000000,0.000000,0.000000,0.000000,0.000000,0.000000,-0.000000,0.000000,0.000000,0.000000,0.000000,0.000000,0.000000,819,819,819,819
8453,0,0.062500,-0.062500,-0.125000,0.06,-0.30,0.440647,-1.000000,0.000000,0.000000,0.000000,0.000000,0.000000,0.000000,0.000036,0.000000,0.000000,0.000000,0.000000,0.000000,0.000000,819,819,819,819
8463,0,0.062500,-0.062500,-0.125000,0.00,-0.36,1.803282,-1.000000,0.000000,0.000000,0.000000,0.000000,0.000000,0.000000,-0.000000,0.000000,0.000000,0.000000,0.000000,0.000000,0.000000,819,819,819,819
8473,0,0.062500,-0.062500,-0.125000,0.00,-0.36,2.108914,-1.000000,0.000000,0.000000,0.000000,0.000000,0.000000,0.000000,-0.000000,0.000000,0.000000,0.000000,0.000000,0.000000,0.000000,819,819,819,819
8490,0,0.000000,-0.062500,-0.125000,-0.07,-0.18,1.471071,-1.000000,0.000000,0.000000,0.000000,0.000000,0.000000,0.000000,-0.000039,0.000000,0.000000,0.000000,0.000000,0.000000,0.000000,819,819,819,819
8500,0,0.000000,-0.062500,-0.125000,0.06,0.30,0.132929,-1.000000,0.000000,0.000000,0.000000,0.000000,0.000000,0.000000,0.000036,0.000000,0.000000,0.000000,0.000000,0.000000,0.000000,819,819,819,819
8510,0,0.062500,-0.062500,-0.125000,0.25,0.12,-1.477729,-1.000000,0.000000,0.000000,0.000000,0.000000,0.000000,0.000000,0.000153,0.000000,0.000000,0.000000,0.000000,0.000000,0.000000,819,819,819,819
8522,0,0.062500,-0.062500,-0.125000,0.00,0.18,-2.389511,-1.000000,0.000000,0.000000,0.000000,0.000000,0.000000,0.000000,-0.000000,0.000000,0.000000,0.000000,0.000000,0.000000,0.000000,819,819,819,819
8532,0,0.062500,-0.062500,-0.125000,0.00,0.42,-0.772601,-1.000000,0.000000,0.000000,0.000000,0.000000,0.000000,0.000000,-0.000000,0.000000,0.000000,0.000000,0.000000,0.000000,0.000000,819,819,819,819
8543,0,0.062500,-0.062500,-0.125000,0.00,0.77,0.673870,-1.000000,0.000000,0.000000,0.000000,0.000000,0.000000,0.000000,-0.000000,0.000000,0.000000,0.000000,0.000000,0.000000,0.000000,819,819,819,819
8553,0,0.062500,-0.062500,-0.125000,0.06,0.95,1.755568,-1.000000,0.000000,0.000000,0.000000,0.000000,0.000000,0.000000,0.000036,0.000000,0.000000,0.000000,0.000000,0.000000,0.000000,819,819,819,819
8563,0,0.062500,-0.062500,-0.125000,0.12,0.36,1.690903,-1.000000,0.000000,0.000000,0.000000,0.000000,0.000000,0.000000,0.000072,0.000000,0.000000,0.000000,0.000000,0.000000,0.000000,819,819,819,819
8573,0,0.062500,-0.062500,-0.125000,0.18,0.06,0.737670,-1.000000,0.000000,0.000000,0.000000,0.000000,0.000000,0.000000,0.000108,0.000000,0.000000,0.000000,0.000000,0.000000,0.000000,819,819,819,819
8583,0,0.062500,-0.062500,-0.125000,0.06,0.12,-0.556866,-1.000000,0.000000,0.000000,0.000000,0.000000,0.000000,0.000000,0.000036,0.000000,0.000000,0.000000,0.000000,0.000000,0.000000,819,819,819,819
8593,0,0.062500,-0.062500,-0.125000,-0.12,0.06,-1.274718,-1.000000,0.000000,0.000000,0.000000,0.000000,0.000000,0.000000,-0.000072,0.000000,0.000000,0.000000,0.000000,0.000000,0.000000,819,819,819,819
8603,0,0.062500,-0.062500,-0.125000,0.00,-0.24,-1.251236,-1.000000,0.000000,0.000000,0.000000,0.000000,0.000000,0.000000,-0.000000,0.000000,0.000000,0.000000,0.000000,0.000000,0.000000,819,819,819,819
8613,0,0.062500,-0.062500,-0.125000,-0.06,-0.12,-0.478187,-1.000000,0.000000,0.000000,0.000000,0.000000,0.000000,0.000000,-0.000036,0.000000,0.000000,0.000000,0.000000,0.000000,0.000000,819,819,819,819
8623,0,0.062500,-0.062500,-0.125000,0.00,-0.18,0.451091,-1.000000,0.000000,0.000000,0.000000,0.000000,0.000000,0.000000,-0.000000,0.000000,0.000000,0.000000,0.000000,0.000000,0.000000,819,819,819,819
8633,0,0.062500,-0.062500,-0.125000,0.00,-0.42,1.150679,-1.000000,0.000000,0.000000,0.000000,0.000000,0.000000,0.000000,-0.000000,0.000000,0.000000,0.000000,0.000000,0.000000,0.000000,819,819,819,819
8643,0,0.062500,-0.062500,-0.125000,-0.12,-0.89,1.304409,-1.000000,0.000000,0.000000,0.000000,0.000000,0.000000,0.000000,-0.000072,0.000000,0.000000,0.000000,0.000000,0.000000,0.000000,819,819,819,819
8653,0,0.062500,-0.062500,-0.125000,0.00,-0.83,1.193345,-1.000000,0.000000,0.000000,0.000000,0.000000,0.000000,0.000000,-0.000000,0.000000,0.000000,0.000000,0.000000,0.000000,0.000000,819,819,819,819
8663,0,0.000000,-0.062500,-0.125000,-0.25,-0.30,0.890917,-1.000000,0.000000,0.000000,0.000000,0.000000,0.000000,0.000000,-0.000153,0.000000,0.000000,0.000000,0.000000,0.000000,0.000000,819,819,819,819
8673,0,0.000000,-0.062500,-0.125000,0.00,0.24,0.222671,-1.000000,0.000000,0.000000,0.000000,0.000000,0.000000,0.000000,-0.000000,0.000000,0.000000,0.000000,0.000000,0.000000,0.000000,819,819,819,819
8683,0,0.000000,-0.062500,-0.125000,-0.06,0.42,-0.107616,-1.000000,0.000000,0.000000,0.000000,0.000000,0.000000,0.000000,-0.000036,0.000000,0.000000,0.000000,0.000000,0.000000,0.000000,819,819,819,819
8693,0,0.000000,-0.062500,-0.125000,0.00,-0.12,-0.302256,-1.000000,0.000000,0.000000,0.000000,0.000000,0.000000,0.000000,-0.000000,0.000000,0.000000,0.000000,0.000000,0.000000,0.000000,819,819,819,819
8703,0,0.000000,-0.062500,-0.125000,-0.12,-0.18,-0.193238,-1.000000,0.000000,0.000000,0.000000,0.000000,0.000000,0.000000,-0.000072,0.000000,0.000000,0.000000,0.000000,0.000000,0.000000,819,819,819,819
8713,0,0.000000,-0.062500,-0.125000,0.06,-0.18,0.049713,-1.000000,0.000000,0.000000,0.000000,0.000000,0.000000,0.000000,0.000036,0.000000,0.000000,0.000000,0.000000,0.000000,0.000000,819,819,819,819
8723,0,0.000000,-0.062500,-0.125000,0.00,-0.06,0.299361,-1.000000,0.000000,0.000000,0.000000,0.000000,0.000000,0.000000,-0.000000,0.000000,0.000000,0.000000,0.000000,0.000000,0.000000,819,819,819,819
8733,0,0.000000,-0.062500,-0.125000,0.06,0.06,0.133718,-1.000000,0.000000,0.000000,0.000000,0.000000,0.000000,0.000000,0.000036,0.000000,0.000000,0.000000,0.000000,0.000000,0.000000,819,819,819,819
8743,0,0.000000,-0.062500,-0.125000,0.06,-0.18,0.006686,-1.000000,0.000000,0.000000,0.000000,0.000000,0.000000,0.000000,0.000036,0.000000,0.000000,0.000000,0.000000,0.000000,0.000000,819,819,819,819
8753,0,0.000000,-0.062500,-0.125000,0.00,-0.24,-0.118416,-1.000000,0.000000,0.000000,0.000000,0.000000,0.000000,0.000000,-0.000000,0.000000,0.000000,0.000000,0.000000,0.000000,0.000000,819,819,819,819
8766,0,0.000000,-0.062500,-0.125000,-0.06,-0.06,-0.065296,-1.000000,0.000000,0.000000,0.000000,0.000000,0.000000,0.000000,-0.000036,0.000000,0.000000,0.000000,0.000000,0.000000,0.000000,819,819,819,819
8776,0,0.000000,-0.062500,-0.125000,0.00,0.12,0.174860,-1.000000,0.000000,0.000000,0.000000,0.000000,0.000000,0.000000,-0.000000,0.000000,0.000000,0.000000,0.000000,0.000000,0.000000,819,819,819,819
8786,0,0.000000,-0.062500,-0.125000,-0.12,0.47,0.602493,-1.000000,0.000000,0.000000,0.000000,0.000000,0.000000,0.000000,-0.000072,0.000000,0.000000,0.000000,0.000000,0.000000,0.000000,819,819,819,819
8803,0,0.000000,-0.062500,-0.125000,0.00,0.24,0.386375,-1.000000,0.000000,0.000000,0.000000,0.000000,0.000000,0.000000,-0.000000,0.000000,0.000000,0.000000,0.000000,0.000000,0.000000,819,819,819,819
8813,0,0.000000,-0.062500,-0.125000,0.00,0.06,0.078694,-1.000000,0.000000,0.000000,0.000000,0.000000,0.000000,0.000000,-0.000000,0.000000,0.000000,0.000000,0.000000,0.000000,0.000000,819,819,819,819
8823,0,0.000000,-0.062500,-0.125000,0.06,0.12,-0.352315,-1.000000,0.000000,0.000000,0.000000,0.000000,0.000000,0.000000,0.000036,0.000000,0.000000,0.000000,0.000000,0.000000,0.000000,819,819,819,819
8833,0,0.000000,-0.062500,-0.125000,-0.18,-0.12,-0.373866,-1.000000,0.000000,0.000000,0.000000,0.000000,0.000000,0.000000,-0.000107,0.000000,0.000000,0.000000,0.000000,0.000000,0.000000,819,819,819,819
8844,0,0.000000,-0.062500,-0.125000,0.06,0.06,-0.493693,-1.000000,0.000000,0.000000,0.000000,0.000000,0.000000,0.000000,0.000036,0.000000,0.000000,0.000000,0.000000,0.000000,0.000000,819,819,819,819
8854,0,0.000000,-0.062500,-0.125000,-0.12,-0.12,-0.440310,-1.000000,0.000000,0.000000,0.000000,0.000000,0.000000,0.000000,-0.000072,0.000000,0.000000,0.000000,0.000000,0.000000,0.000000,819,819,819,819
8864,0,0.000000,-0.062500,-0.125000,-0.06,-0.12,-0.259515,-1.000000,0.000000,0.000000,0.000000,0.000000,0.000000,0.000000,-0.000036,0.000000,0.000000,0.000000,0.000000,0.000000,0.000000,819,819,819,819
8874,0,0.000000,-0.062500,-0.125000,0.00,0.00,-0.012976,-1.000000,0.000000,0.000000,0.000000,0.000000,0.000000,0.000000,-0.000000,0.000000,0.000000,0.000000,0.000000,0.000000,0.000000,819,819,819,819
8884,0,0.000000,-0.062500,-0.125000,0.06,-0.06,0.058726,-1.000000,0.000000,0.000000,0.000000,0.000000,0.000000,0.000000,0.000036,0.000000,0.000000,0.000000,0.000000,0.000000,0.000000,819,819,819,819
8894,0,0.000000,-0.062500,-0.125000,0.06,-0.12,0.002936,-1.000000,0.000000,0.000000,0.000000,0.000000,0.000000,0.000000,0.000036,0.000000,0.000000,0.000000,0.000000,0.000000,0.000000,819,819,819,819
8904,0,0.000000,-0.062500,-0.125000,0.06,-0.18,-0.059228,-1.000000,0.000000,0.000000,0.000000,0.000000,0.000000,0.000000,0.000036,0.000000,0.000000,0.000000,0.000000,0.000000,0.000000,819,819,819,819
8914,0,0.000000,-0.062500,-0.125000,0.00,-0.18,-0.062336,-1.000000,0.000000,0.000000,0.000000,0.000000,0.000000,0.000000,-0.000000,0.000000,0.000000,0.000000,0.000000,0.000000,0.000000,819,819,819,819
8924,0,0.000000,-0.062500,-0.125000,-0.06,0.00,0.056258,-1.000000,0.000000,0.000000,0.000000,0.000000,0.000000,0.000000,-0.000036,0.000000,0.000000,0.000000,0.000000,0.000000,0.000000,819,819,819,819
8934,0,0.000000,-0.062500,-0.125000,-0.06,-0.18,-0.294062,-1.000000,0.000000,0.000000,0.000000,0.000000,0.000000,0.000000,-0.000036,0.000000,0.000000,0.000000,0.000000,0.000000,0.000000,819,819,819,819
8944,0,0.000000,-0.062500,-0.125000,0.06,0.12,-0.252203,-1.000000,0.000000,0.000000,0.000000,0.000000,0.000000,0.000000,0.000036,0.000000,0.000000,0.000000,0.000000,0.000000,0.000000,819,819,819,819
8954,0,0.000000,-0.062500,-0.125000,0.00,-0.24,0.106140,-1.000000,0.000000,0.000000,0.000000,0.000000,0.000000,0.000000,-0.000000,0.000000,0.000000,0.000000,0.000000,0.000000,0.000000,819,819,819,819
8964,0,0.000000,-0.062500,-0.125000,-0.06,-0.12,0.183432,-1.000000,0.000000,0.000000,0.000000,0.000000,0.000000,0.000000,-0.000036,0.000000,0.000000,0.000000,0.000000,0.000000,0.000000,819,819,819,819
8974,0,0.000000,-0.062500,-0.125000,-0.12,-0.06,0.365422,-1.000000,0.000000,0.000000,0.000000,0.000000,0.000000,0.000000,-0.000072,0.000000,0.000000,0.000000,0.000000,0.000000,0.000000,819,819,819,819
8984,0,0.000000,-0.062500,-0.125000,0.00,-0.18,0.196396,-1.000000,0.000000,0.000000,0.000000,0.000000,0.000000,0.000000,-0.000000,0.000000,0.000000,0.000000,0.000000,0.000000,0.000000,819,819,819,819
8994,0,0.000000,-0.062500,-0.125000,-0.12,-0.59,0.128570,-1.000000,0.000000,0.000000,0.000000,0.000000,0.000000,0.000000,-0.000072,0.000000,0.000000,0.000000,0.000000,0.000000,0.000000,819,819,819,819
9004,0,0.000000,-0.062500,-0.125000,0.06,-0.30,0.065803,-1.000000,0.000000,0.000000,0.000000,0.000000,0.000000,0.000000,0.000036,0.000000,0.000000,0.000000,0.000000,0.000000,0.000000,819,819,819,819
9014,0,0.000000,-0.062500,-0.125000,0.06,-0.12,0.003290,-1.000000,0.000000,0.000000,0.000000,0.000000,0.000000,0.000000,0.000036,0.000000,0.000000,0.000000,0.000000,0.000000,0.000000,819,819,819,819
9024,0,0.000000,-0.062500,-0.125000,0.00,0.12,-0.415460,-1.000000,0.000000,0.000000,0.000000,0.000000,0.000000,0.000000,-0.000000,0.000000,0.000000,0.000000,0.000000,0.000000,0.000000,819,819,819,819
9034,0,0.000000,-0.062500,-0.125000,0.00,0.65,-0.673898,-1.000000,0.000000,0.000000,0.000000,0.000000,0.000000,0.000000,-0.000000,0.000000,0.000000,0.000000,0.000000,0.000000,0.000000,819,819,819,819
9044,0,0.000000,-0.062500,-0.125000,0.00,0.53,-0.627445,-1.000000,0.000000,0.000000,0.000000,0.000000,0.000000,0.000000,-0.000000,0.000000,0.000000,0.000000,0.000000,0.000000,0.000000,819,819,819,819
9054,0,0.000000,-0.062500,-0.125000,-0.06,-0.06,-0.150122,-1.000000,0.000000,0.000000,0.000000,0.000000,0.000000,0.000000,-0.000036,0.000000,0.000000,0.000000,0.000000,0.000000,0.000000,819,819,819,819
9064,0,0.000000,-0.062500,-0.125000,-0.06,-0.42,0.586244,-1.000000,0.000000,0.000000,0.000000,0.000000,0.000000,0.000000,-0.000036,0.000000,0.000000,0.000000,0.000000,0.000000,0.000000,819,819,819,819
9074,0,0.000000,-0.062500,-0.125000,0.06,-0.24,0.741812,-1.000000,0.000000,0.000000,0.000000,0.000000,0.000000,0.000000,0.000036,0.000000,0.000000,0.000000,0.000000,0.000000,0.000000,819,819,819,819
9084,0,0.000000,-0.062500,-0.125000,0.00,0.00,0.690216,-1.000000,0.000000,0.000000,0.000000,0.000000,0.000000,0.000000,-0.000000,0.000000,0.000000,0.000000,0.000000,0.000000,0.000000,819,819,819,819
9094,0,0.000000,-0.062500,-0.125000,0.06,0.12,0.272011,-1.000000,0.000000,0.000000,0.000000,0.000000,0.000000,0.000000,0.000036,0.000000,0.000000,0.000000,0.000000,0.000000,0.000000,819,819,819,819
9104,0,0.000000,-0.062500,-0.125000,-0.06,0.12,-0.164524,-1.000000,0.000000,0.000000,0.000000,0.000000,0.000000,0.000000,-0.000036,0.000000,0.000000,0.000000,0.000000,0.000000,0.000000,819,819,819,819
9122,0,0.000000,-0.062500,-0.125000,0.12,-0.06,-0.305101,-1.000000,0.000000,0.000000,0.000000,0.000000,0.000000,0.000000,0.000072,0.000000,0.000000,0.000000,0.000000,0.000000,0.000000,819,819,819,819
9133,0,0.000000,-0.062500,-0.125000,-0.06,-0.12,-0.549630,-1.000000,0.000000,0.000000,0.000000,0.000000,0.000000,0.000000,-0.000036,0.000000,0.000000,0.000000,0.000000,0.000000,0.000000,819,819,819,819
9144,0,0.000000,-0.062500,-0.125000,0.00,0.18,-0.561857,-1.000000,0.000000,0.000000,0.000000,0.000000,0.000000,0.000000,-0.000000,0.000000,0.000000,0.000000,0.000000,0.000000,0.000000,819,819,819,819
9154,0,0.000000,-0.062500,-0.125000,0.00,0.00,-0.265593,-1.000000,0.000000,0.000000,0.000000,0.000000,0.000000,0.000000,-0.000000,0.000000,0.000000,0.000000,0.000000,0.000000,0.000000,819,819,819,819
9164,0,0.000000,-0.062500,-0.125000,0.12,-0.12,0.046095,-1.000000,0.000000,0.000000,0.000000,0.000000,0.000000,0.000000,0.000072,0.000000,0.000000,0.000000,0.000000,0.000000,0.000000,819,819,819,819
9174,0,0.000000,-0.062500,-0.125000,0.00,-0.24,0.121055,-1.000000,0.000000,0.000000,0.000000,0.000000,0.000000,0.000000,-0.000000,0.000000,0.000000,0.000000,0.000000,0.000000,0.000000,819,819,819,819
9184,0,0.000000,-0.062500,-0.125000,-0.06,-0.24,0.243553,-1.000000,0.000000,0.000000,0.000000,0.000000,0.000000,0.000000,-0.000036,0.000000,0.000000,0.000000,0.000000,0.000000,0.000000,819,819,819,819
9194,0,0.000000,-0.062500,-0.125000,0.12,-0.12,0.190303,-1.000000,0.000000,0.000000,0.000000,0.000000,0.000000,0.000000,0.000072,0.000000,0.000000,0.000000,0.000000,0.000000,0.000000,819,819,819,819
9204,0,0.000000,-0.062500,-0.125000,-0.06,0.12,0.187640,-1.000000,0.000000,0.000000,0.000000,0.000000,0.000000,0.000000,-0.000036,0.000000,0.000000,0.000000,0.000000,0.000000,0.000000,819,819,819,819
9214,0,0.000000,-0.062500,-0.125000,0.06,0.06,0.068757,-1.000000,0.000000,0.000000,0.000000,0.000000,0.000000,0.000000,0.000036,0.000000,0.000000,0.000000,0.000000,0.000000,0.000000,819,819,819,819
9224,0,0.000000,-0.062500,-0.125000,0.00,0.12,-0.174687,-1.000000,0.000000,0.000000,0.000000,0.000000,0.000000,0.000000,-0.000000,0.000000,0.000000,0.000000,0.000000,0.000000,0.000000,819,819,819,819
9234,0,0.000000,-0.062500,-0.125000,0.00,-0.18,-0.127484,-1.000000,0.000000,0.000000,0.000000,0.000000,0.000000,0.000000,-0.000000,0.000000,0.000000,0.000000,0.000000,0.000000,0.000000,819,819,819,819
9244,0,0.000000,-0.062500,-0.125000,-0.06,-0.12,-0.362624,-1.000000,0.000000,0.000000,0.000000,0.000000,0.000000,0.000000,-0.000036,0.000000,0.000000,0.000000,0.000000,0.000000,0.000000,819,819,819,819
9254,0,0.000000,-0.062500,-0.125000,-0.12,-0.12,-0.315006,-1.000000,0.000000,0.000000,0.000000,0.000000,0.000000,0.000000,-0.000072,0.000000,0.000000,0.000000,0.000000,0.000000,0.000000,819,819,819,819
9264,0,0.000000,-0.062500,-0.125000,0.00,-0.18,-0.312625,-1.000000,0.000000,0.000000,0.000000,0.000000,0.000000,0.000000,-0.000000,0.000000,0.000000,0.000000,0.000000,0.000000,0.000000,819,819,819,819
9274,0,0.000000,-0.062500,-0.125000,-0.06,0.00,-0.015631,-1.000000,0.000000,0.000000,0.000000,0.000000,0.000000,0.000000,-0.000036,0.000000,0.000000,0.000000,0.000000,0.000000,0.000000,819,819,819,819
9284,0,0.000000,-0.062500,-0.125000,0.00,-0.12,0.236718,-1.000000,0.000000,0.000000,0.000000,0.000000,0.000000,0.000000,-0.000000,0.000000,0.000000,0.000000,0.000000,0.000000,0.000000,819,819,819,819
9294,0,0.000000,-0.062500,-0.125000,0.00,0.24,0.486836,-1.000000,0.000000,0.000000,0.000000,0.000000,0.000000,0.000000,-0.000000,0.000000,0.000000,0.000000,0.000000,0.000000,0.000000,819,819,819,819
9304,0,0.000000,-0.062500,-0.125000,0.06,0.12,0.618092,-1.000000,0.000000,0.000000,0.000000,0.000000,0.000000,0.000000,0.000036,0.000000,0.000000,0.000000,0.000000,0.000000,0.000000,819,819,819,819
9314,0,0.000000,-0.062500,-0.125000,-0.12,-0.06,0.268405,-1.000000,0.000000,0.000000,0.000000,0.000000,0.000000,0.000000,-0.000072,0.000000,0.000000,0.000000,0.000000,0.000000,0.000000,819,819,819,819
9324,0,0.000000,-0.062500,-0.125000,0.12,-0.06,0.072795,-1.000000,0.000000,0.000000,0.000000,0.000000,0.000000,0.000000,0.000072,0.000000,0.000000,0.000000,0.000000,0.000000,0.000000,819,819,819,819
9334,0,0.000000,-0.062500,-0.125000,0.00,-0.12,-0.115110,-1.000000,0.000000,0.000000,0.000000,0.000000,0.000000,0.000000,-0.000000,0.000000,0.000000,0.000000,0.000000,0.000000,0.000000,819,819,819,819
9345,0,0.000000,-0.062500,-0.125000,0.00,-0.12,-0.302631,-1.000000,0.000000,0.000000,0.000000,0.000000,0.000000,0.000000,-0.000000,0.000000,0.000000,0.000000,0.000000,0.000000,0.000000,819,819,819,819
9354,0,0.000000,-0.062500,-0.125000,-0.18,0.00,-0.371382,-1.000000,0.000000,0.000000,0.000000,0.000000,0.000000,0.000000,-0.000107,0.000000,0.000000,0.000000,0.000000,0.000000,0.000000,819,819,819,819
9364,0,0.000000,-0.062500,-0.125000,-0.18,0.12,-0.434194,-1.000000,0.000000,0.000000,0.000000,0.000000,0.000000,0.000000,-0.000107,0.000000,0.000000,0.000000,0.000000,0.000000,0.000000,819,819,819,819
9374,0,0.000000,-0.062500,-0.125000,-0.12,-0.24,-0.199835,-1.000000,0.000000,0.000000,0.000000,0.000000,0.000000,0.000000,-0.000072,0.000000,0.000000,0.000000,0.000000,0.000000,0.000000,819,819,819,819
9384,0,0.000000,-0.062500,-0.125000,0.00,-0.30,-0.128742,-1.000000,0.000000,0.000000,0.000000,0.000000,0.000000,0.000000,-0.000000,0.000000,0.000000,0.000000,0.000000,0.000000,0.000000,819,819,819,819
9395,0,0.000000,-0.062500,-0.125000,0.06,0.00,-0.006437,-1.000000,0.000000,0.000000,0.000000,0.000000,0.000000,0.000000,0.000036,0.000000,0.000000,0.000000,0.000000,0.000000,0.000000,819,819,819,819
9404,0,0.000000,-0.062500,-0.125000,0.00,0.00,0.177803,-1.000000,0.000000,0.000000,0.000000,0.000000,0.000000,0.000000,-0.000000,0.000000,0.000000,0.000000,0.000000,0.000000,0.000000,819,819,819,819
9414,0,0.000000,-0.062500,-0.125000,-0.06,0.06,0.305765,-1.000000,0.000000,0.000000,0.000000,0.000000,0.000000,0.000000,-0.000036,0.000000,0.000000,0.000000,0.000000,0.000000,0.000000,819,819,819,819
9424,0,0.000000,-0.062500,-0.125000,0.06,-0.06,0.074663,-1.000000,0.000000,0.000000,0.000000,0.000000,0.000000,0.000000,0.000036,0.000000,0.000000,0.000000,0.000000,0.000000,0.000000,819,819,819,819
9442,0,0.000000,-0.062500,-0.125000,-0.06,0.06,-0.055642,-1.000000,0.000000,0.000000,0.000000,0.000000,0.000000,0.000000,-0.000036,0.000000,0.000000,0.000000,0.000000,0.000000,0.000000,819,819,819,819
9454,0,0.000000,-0.062500,-0.125000,-0.12,0.12,-0.359032,-1.000000,0.000000,0.000000,0.000000,0.000000,0.000000,0.000000,-0.000072,0.000000,0.000000,0.000000,0.000000,0.000000,0.000000,819,819,819,819
9465,0,0.000000,-0.062500,-0.125000,-0.06,0.06,-0.314827,-1.000000,0.000000,0.000000,0.000000,0.000000,0.000000,0.000000,-0.000036,0.000000,0.000000,0.000000,0.000000,0.000000,0.000000,819,819,819,819
9475,0,0.000000,-0.062500,-0.125000,0.06,0.06,-0.134491,-1.000000,0.000000,0.000000,0.000000,0.000000,0.000000,0.000000,0.000036,0.000000,0.000000,0.000000,0.000000,0.000000,0.000000,819,819,819,819
9485,0,0.000000,-0.062500,-0.125000,0.06,0.00,-0.066100,-1.000000,0.000000,0.000000,0.000000,0.000000,0.000000,0.000000,0.000036,0.000000,0.000000,0.000000,0.000000,0.000000,0.000000,819,819,819,819
9495,0,0.000000,-0.062500,-0.125000,0.00,0.36,0.174820,-1.000000,0.000000,0.000000,0.000000,0.000000,0.000000,0.000000,-0.000000,0.000000,0.000000,0.000000,0.000000,0.000000,0.000000,819,819,819,819
9505,0,0.000000,-0.062500,-0.125000,-0.18,0.00,0.424366,-1.000000,0.000000,0.000000,0.000000,0.000000,0.000000,0.000000,-0.000107,0.000000,0.000000,0.000000,0.000000,0.000000,0.000000,819,819,819,819
9515,0,0.000000,-0.062500,-0.125000,-0.18,0.00,0.436843,-1.000000,0.000000,0.000000,0.000000,0.000000,0.000000,0.000000,-0.000107,0.000000,0.000000,0.000000,0.000000,0.000000,0.000000,819,819,819,819
9525,0,0.000000,-0.062500,-0.125000,-0.06,-0.18,0.318717,-1.000000,0.000000,0.000000,0.000000,0.000000,0.000000,0.000000,-0.000036,0.000000,0.000000,0.000000,0.000000,0.000000,0.000000,819,819,819,819
9535,0,0.000000,-0.062500,-0.125000,0.00,-0.30,0.194061,-1.000000,0.000000,0.000000,0.000000,0.000000,0.000000,0.000000,-0.000000,0.000000,0.000000,0.000000,0.000000,0.000000,0.000000,819,819,819,819
9545,0,0.000000,-0.062500,-0.125000,-0.06,-0.18,-0.346547,-1.000000,0.000000,0.000000,0.000000,0.000000,0.000000,0.000000,-0.000036,0.000000,0.000000,0.000000,0.000000,0.000000,0.000000,819,819,819,819
9555,0,0.000000,-0.062500,-0.125000,0.06,-0.18,-0.373577,-1.000000,0.000000,0.000000,0.000000,0.000000,0.000000,0.000000,0.000036,0.000000,0.000000,0.000000,0.000000,0.000000,0.000000,819,819,819,819
9565,0,0.000000,-0.062500,-0.125000,0.06,0.00,-0.196804,-1.000000,0.000000,0.000000,0.000000,0.000000,0.000000,0.000000,0.000036,0.000000,0.000000,0.000000,0.000000,0.000000,0.000000,819,819,819,819
9575,0,0.000000,-0.062500,-0.125000,0.12,-0.06,-0.069215,-1.000000,0.000000,0.000000,0.000000,0.000000,0.000000,0.000000,0.000072,0.000000,0.000000,0.000000,0.000000,0.000000,0.000000,819,819,819,819
9585,0,0.000000,-0.062500,-0.125000,0.12,-0.06,-0.062836,-1.000000,0.000000,0.000000,0.000000,0.000000,0.000000,0.000000,0.000072,0.000000,0.000000,0.000000,0.000000,0.000000,0.000000,819,819,819,819
9595,0,0.000000,-0.062500,-0.125000,0.06,0.12,0.293733,-1.000000,0.000000,0.000000,0.000000,0.000000,0.000000,0.000000,0.000036,0.000000,0.000000,0.000000,0.000000,0.000000,0.000000,819,819,819,819
9608,0,0.000000,-0.062500,-0.125000,-0.12,-0.12,0.370937,-1.000000,0.000000,0.000000,0.000000,0.000000,0.000000,0.000000,-0.000072,0.000000,0.000000,0.000000,0.000000,0.000000,0.000000,819,819,819,819
9617,0,0.000000,-0.062500,-0.125000,-0.06,0.06,0.315422,-1.000000,0.000000,0.000000,0.000000,0.000000,0.000000,0.000000,-0.000036,0.000000,0.000000,0.000000,0.000000,0.000000,0.000000,819,819,819,819
9627,0,0.000000,-0.062500,-0.125000,-0.06,0.00,0.372021,-1.000000,0.000000,0.000000,0.000000,0.000000,0.000000,0.000000,-0.000036,0.000000,0.000000,0.000000,0.000000,0.000000,0.000000,819,819,819,819
9636,0,0.000000,-0.062500,-0.125000,0.00,-0.12,0.256101,-1.000000,0.000000,0.000000,0.000000,0.000000,0.000000,0.000000,-0.000000,0.000000,0.000000,0.000000,0.000000,0.000000,0.000000,819,819,819,819
9646,0,0.000000,-0.062500,-0.125000,-0.12,-0.12,0.072180,-1.000000,0.000000,0.000000,0.000000,0.000000,0.000000,0.000000,-0.000072,0.000000,0.000000,0.000000,0.000000,0.000000,0.000000,819,819,819,819
9656,0,0.000000,-0.062500,-0.125000,0.06,0.12,-0.174516,-1.000000,0.000000,0.000000,0.000000,0.000000,0.000000,0.000000,0.000036,0.000000,0.000000,0.000000,0.000000,0.000000,0.000000,819,819,819,819
9665,0,0.000000,-0.062500,-0.125000,-0.06,-0.12,-0.127476,-1.000000,0.000000,0.000000,0.000000,0.000000,0.000000,0.000000,-0.000036,0.000000,0.000000,0.000000,0.000000,0.000000,0.000000,819,819,819,819
9675,0,0.000000,-0.062500,-0.125000,-0.06,0.00,-0.303249,-1.000000,0.000000,0.000000,0.000000,0.000000,0.000000,0.000000,-0.000036,0.000000,0.000000,0.000000,0.000000,0.000000,0.000000,819,819,819,819
9685,0,0.000000,-0.062500,-0.125000,-0.12,-0.06,-0.133912,-1.000000,0.000000,0.000000,0.000000,0.000000,0.000000,0.000000,-0.000072,0.000000,0.000000,0.000000,0.000000,0.000000,0.000000,819,819,819,819
9695,0,0.000000,-0.062500,-0.125000,0.06,0.00,-0.244196,-1.000000,0.000000,0.000000,0.000000,0.000000,0.000000,0.000000,0.000036,0.000000,0.000000,0.000000,0.000000,0.000000,0.000000,819,819,819,819
9705,0,0.000000,-0.062500,-0.125000,-0.12,-0.06,0.047165,-1.000000,0.000000,0.000000,0.000000,0.000000,0.000000,0.000000,-0.000072,0.000000,0.000000,0.000000,0.000000,0.000000,0.000000,819,819,819,819
9715,0,0.000000,-0.062500,-0.125000,0.00,-0.12,0.061733,-1.000000,0.000000,0.000000,0.000000,0.000000,0.000000,0.000000,-0.000000,0.000000,0.000000,0.000000,0.000000,0.000000,0.000000,819,819,819,819
9725,0,0.000000,-0.062500,-0.125000,0.06,-0.12,0.121837,-1.000000,0.000000,0.000000,0.000000,0.000000,0.000000,0.000000,0.000036,0.000000,0.000000,0.000000,0.000000,0.000000,0.000000,819,819,819,819
9735,0,0.000000,-0.062500,-0.125000,0.00,-0.06,0.065467,-1.000000,0.000000,0.000000,0.000000,0.000000,0.000000,0.000000,-0.000000,0.000000,0.000000,0.000000,0.000000,0.000000,0.000000,819,819,819,819
9750,0,0.000000,-0.062500,-0.125000,-0.06,-0.18,-0.115477,-1.000000,0.000000,0.000000,0.000000,0.000000,0.000000,0.000000,-0.000036,0.000000,0.000000,0.000000,0.000000,0.000000,0.000000,819,819,819,819
9762,0,0.000000,-0.062500,-0.125000,-0.06,-0.06,-0.243274,-1.000000,0.000000,0.000000,0.000000,0.000000,0.000000,0.000000,-0.000036,0.000000,0.000000,0.000000,0.000000,0.000000,0.000000,819,819,819,819
9774,0,0.000000,-0.062500,-0.125000,0.06,0.00,-0.368414,-1.000000,0.000000,0.000000,0.000000,0.000000,0.000000,0.000000,0.000036,0.000000,0.000000,0.000000,0.000000,0.000000,0.000000,819,819,819,819
9784,0,0.000000,-0.062500,-0.125000,0.00,0.00,-0.196546,-1.000000,0.000000,0.000000,0.000000,0.000000,0.000000,0.000000,-0.000000,0.000000,0.000000,0.000000,0.000000,0.000000,0.000000,819,819,819,819
9795,0,0.000000,-0.062500,-0.125000,0.06,-0.12,-0.069202,-1.000000,0.000000,0.000000,0.000000,0.000000,0.000000,0.000000,0.000036,0.000000,0.000000,0.000000,0.000000,0.000000,0.000000,819,819,819,819
9805,0,0.000000,-0.062500,-0.125000,-0.06,-0.06,-0.062835,-1.000000,0.000000,0.000000,0.000000,0.000000,0.000000,0.000000,-0.000036,0.000000,0.000000,0.000000,0.000000,0.000000,0.000000,819,819,819,819
9815,0,0.000000,-0.062500,-0.125000,-0.12,-0.06,0.115608,-1.000000,0.000000,0.000000,0.000000,0.000000,0.000000,0.000000,-0.000072,0.000000,0.000000,0.000000,0.000000,0.000000,0.000000,819,819,819,819
9825,0,0.000000,-0.062500,-0.125000,-0.06,-0.12,0.065155,-1.000000,0.000000,0.000000,0.000000,0.000000,0.000000,0.000000,-0.000036,0.000000,0.000000,0.000000,0.000000,0.000000,0.000000,819,819,819,819
9835,0,0.000000,-0.062500,-0.125000,-0.06,-0.06,-0.115492,-1.000000,0.000000,0.000000,0.000000,0.000000,0.000000,0.000000,-0.000036,0.000000,0.000000,0.000000,0.000000,0.000000,0.000000,819,819,819,819
9845,0,0.000000,-0.062500,-0.125000,0.06,0.00,-0.124525,-1.000000,0.000000,0.000000,0.000000,0.000000,0.000000,0.000000,0.000036,0.000000,0.000000,0.000000,0.000000,0.000000,0.000000,819,819,819,819
9855,0,0.000000,-0.062500,-0.125000,0.00,0.06,-0.184351,-1.000000,0.000000,0.000000,0.000000,0.000000,0.000000,0.000000,-0.000000,0.000000,0.000000,0.000000,0.000000,0.000000,0.000000,819,819,819,819
9865,0,0.000000,-0.062500,-0.125000,0.00,0.12,-0.009218,-1.000000,0.000000,0.000000,0.000000,0.000000,0.000000,0.000000,-0.000000,0.000000,0.000000,0.000000,0.000000,0.000000,0.000000,819,819,819,819
9875,0,0.000000,-0.062500,-0.125000,0.12,0.00,-0.059836,-1.000000,0.000000,0.000000,0.000000,0.000000,0.000000,0.000000,0.000072,0.000000,0.000000,0.000000,0.000000,0.000000,0.000000,819,819,819,819
9885,0,0.000000,-0.062500,-0.125000,-0.06,-0.18,0.115758,-1.000000,0.000000,0.000000,0.000000,0.000000,0.000000,0.000000,-0.000036,0.000000,0.000000,0.000000,0.000000,0.000000,0.000000,819,819,819,819
9895,0,0.000000,-0.062500,-0.125000,0.00,-0.18,0.065163,-1.000000,0.000000,0.000000,0.000000,0.000000,0.000000,0.000000,-0.000000,0.000000,0.000000,0.000000,0.000000,0.000000,0.000000,819,819,819,819
9905,0,0.000000,-0.062500,-0.125000,0.06,0.12,-0.056117,-1.000000,0.000000,0.000000,0.000000,0.000000,0.000000,0.000000,0.000036,0.000000,0.000000,0.000000,0.000000,0.000000,0.000000,819,819,819,819
9915,0,0.000000,-0.062500,-0.125000,-0.06,0.06,0.056569,-1.000000,0.000000,0.000000,0.000000,0.000000,0.000000,0.000000,-0.000036,0.000000,0.000000,0.000000,0.000000,0.000000,0.000000,819,819,819,819
9925,0,0.000000,-0.062500,-0.125000,0.06,0.00,0.002828,-1.000000,0.000000,0.000000,0.000000,0.000000,0.000000,0.000000,0.000036,0.000000,0.000000,0.000000,0.000000,0.000000,0.000000,819,819,819,819
9935,0,0.000000,-0.062500,-0.125000,0.00,-0.06,0.000141,-1.000000,0.000000,0.000000,0.000000,0.000000,0.000000,0.000000,-0.000000,0.000000,0.000000,0.000000,0.000000,0.000000,0.000000,819,819,819,819
9945,0,0.000000,-0.062500,-0.125000,0.06,0.30,0.118757,-1.000000,0.000000,0.000000,0.000000,0.000000,0.000000,0.000000,0.000036,0.000000,0.000000,0.000000,0.000000,0.000000,0.000000,819,819,819,819
9955,0,0.000000,-0.062500,-0.125000,-0.06,0.24,0.184063,-1.000000,0.000000,0.000000,0.000000,0.000000,0.000000,0.000000,-0.000036,0.000000,0.000000,0.000000,0.000000,0.000000,0.000000,819,819,819,819
9965,0,0.000000,-0.062500,-0.125000,-0.06,0.36,0.187328,-1.000000,0.000000,0.000000,0.000000,0.000000,0.000000,0.000000,-0.000036,0.000000,0.000000,0.000000,0.000000,0.000000,0.000000,819,819,819,819
9975,0,0.000000,-0.062500,-0.125000,0.12,0.06,0.306241,-1.000000,0.000000,0.000000,0.000000,0.000000,0.000000,0.000000,0.000072,0.000000,0.000000,0.000000,0.000000,0.000000,0.000000,819,819,819,819
9985,0,0.000000,-0.062500,-0.125000,0.00,-0.18,0.252812,-1.000000,0.000000,0.000000,0.000000,0.000000,0.000000,0.000000,-0.000000,0.000000,0.000000,0.000000,0.000000,0.000000,0.000000,819,819,819,819
9996,0,0.000000,-0.062500,-0.125000,0.12,0.12,0.250141,-1.000000,0.000000,0.000000,0.000000,0.000000,0.000000,0.000000,0.000072,0.000000,0.000000,0.000000,0.000000,0.000000,0.000000,819,819,819,819
10005,0,0.000000,-0.062500,-0.125000,0.00,-0.12,0.131257,-1.000000,0.000000,0.000000,0.000000,0.000000,0.000000,0.000000,-0.000000,0.000000,0.000000,0.000000,0.000000,0.000000,0.000000,819,819,819,819
10015,0,0.000000,-0.062500,-0.125000,0.06,0.00,0.006563,-1.000000,0.000000,0.000000,0.000000,0.000000,0.000000,0.000000,0.000036,0.000000,0.000000,0.000000,0.000000,0.000000,0.000000,819,819,819,819
10025,0,0.000000,-0.062500,-0.125000,0.06,0.00,0.119078,-1.000000,0.000000,0.000000,0.000000,0.000000,0.000000,0.000000,0.000036,0.000000,0.000000,0.000000,0.000000,0.000000,0.000000,819,819,819,819
10035,0,0.000000,-0.062500,-0.125000,-0.12,-0.18,-0.053421,-1.000000,0.000000,0.000000,0.000000,0.000000,0.000000,0.000000,-0.000072,0.000000,0.000000,0.000000,0.000000,0.000000,0.000000,819,819,819,819
10045,0,0.000000,-0.062500,-0.125000,-0.18,0.30,-0.121421,-1.000000,0.000000,0.000000,0.000000,0.000000,0.000000,0.000000,-0.000107,0.000000,0.000000,0.000000,0.000000,0.000000,0.000000,819,819,819,819
10055,0,0.000000,-0.062500,-0.125000,0.00,0.24,0.112679,-1.000000,0.000000,0.000000,0.000000,0.000000,0.000000,0.000000,-0.000000,0.000000,0.000000,0.000000,0.000000,0.000000,0.000000,819,819,819,819
10073,0,0.000000,-0.062500,-0.125000,0.18,0.12,0.065009,-1.000000,0.000000,0.000000,0.000000,0.000000,0.000000,0.000000,0.000107,0.000000,0.000000,0.000000,0.000000,0.000000,0.000000,819,819,819,819
10085,0,0.000000,-0.062500,-0.125000,0.06,0.18,0.062625,-1.000000,0.000000,0.000000,0.000000,0.000000,0.000000,0.000000,0.000036,0.000000,0.000000,0.000000,0.000000,0.000000,0.000000,819,819,819,819
10096,0,0.000000,-0.062500,-0.125000,0.06,0.06,0.003131,-1.000000,0.000000,0.000000,0.000000,0.000000,0.000000,0.000000,0.000036,0.000000,0.000000,0.000000,0.000000,0.000000,0.000000,819,819,819,819
10106,0,0.000000,-0.062500,-0.125000,0.00,-0.06,-0.059218,-1.000000,0.000000,0.000000,0.000000,0.000000,0.000000,0.000000,-0.000000,0.000000,0.000000,0.000000,0.000000,0.000000,0.000000,819,819,819,819
10116,0,0.000000,-0.062500,-0.125000,-0.12,0.00,-0.002961,-1.000000,0.000000,0.000000,0.000000,0.000000,0.000000,0.000000,-0.000072,0.000000,0.000000,0.000000,0.000000,0.000000,0.000000,819,819,819,819
10126,0,0.000000,-0.062500,-0.125000,0.00,0.00,-0.000148,-1.000000,0.000000,0.000000,0.000000,0.000000,0.000000,0.000000,-0.000000,0.000000,0.000000,0.000000,0.000000,0.000000,0.000000,819,819,819,819
10135,0,0.000000,-0.062500,-0.125000,0.00,0.06,0.178118,-1.000000,0.000000,0.000000,0.000000,0.000000,0.000000,0.000000,-0.000000,0.000000,0.000000,0.000000,0.000000,0.000000,0.000000,819,819,819,819
10146,0,0.000000,-0.062500,-0.125000,0.06,0.00,0.008906,-1.000000,0.000000,0.000000,0.000000,0.000000,0.000000,0.000000,0.000036,0.000000,0.000000,0.000000,0.000000,0.000000,0.000000,819,819,819,819
