t,is_crashed,roll,pitch,yaw,p,q,r,throttle,p_cmd,q_cmd,r_cmd,roll_cmd,pitch_cmd,yaw_cmd,roll_pid_out,pitch_pid_out,yaw_pid_out,motor_fl,motor_bl,motor_fr,motor_br,pwm_fl,pwm_bl,pwm_fr,pwm_br
6986,0,0.475000,0.337500,0.000000,0.00,0.00,-0.000207,0.006000,0.000000,0.000000,0.000000,0.000000,0.000000,0.000000,0.000002,-0.000004,0.000002,0.000000,0.000000,0.000000,0.000000,0,0,0,0
6999,0,0.760000,0.540000,0.000000,0.11,0.08,-0.000291,0.006000,0.000000,0.000000,0.000000,0.000000,0.000000,0.000000,0.001037,-0.000898,0.000004,0.000000,0.000000,0.000000,0.000000,819,819,819,819
7010,0,0.988000,0.702000,0.000000,0.20,0.14,-0.000160,0.006000,0.000000,0.000000,0.000000,0.000000,0.000000,0.000000,0.002065,-0.001763,0.000003,0.000000,0.000000,0.000000,0.000000,819,819,819,819
7022,0,1.170400,0.831600,0.000000,0.26,0.18,-0.000041,0.006000,0.000000,0.000000,0.000000,0.000000,0.000000,0.000000,0.002877,-0.002417,0.000001,0.000000,0.000000,0.000000,0.000000,819,819,819,819
7032,0,1.316320,0.935280,0.000000,0.31,0.22,0.000066,0.006000,0.000000,0.000000,0.000000,0.000000,0.000000,0.000000,0.003685,-0.003054,0.000000,0.000000,0.000000,0.000000,0.000000,819,819,819,819
7042,0,1.433056,1.018224,0.000000,0.33,0.24,0.000060,0.006000,0.000000,0.000000,0.000000,0.000000,0.000000,0.000000,0.004379,-0.003589,0.000000,0.000000,0.000000,0.000000,0.000000,819,819,819,819
7052,0,1.526445,1.084579,0.000000,0.35,0.25,0.000054,0.006000,0.000000,0.000000,0.000000,0.000000,0.000000,0.000000,0.004974,-0.004035,0.000000,0.000000,0.000000,0.000000,0.000000,819,819,819,819
7062,0,1.601156,1.137663,0.000000,0.35,0.25,-0.000262,0.006000,0.000000,0.000000,0.000000,0.000000,0.000000,0.000000,0.005489,-0.004410,0.000004,0.000000,0.000000,0.000000,0.000000,819,819,819,819
7072,0,1.660925,1.180131,0.000000,0.34,0.25,-0.000133,0.006000,0.000000,0.000000,0.000000,0.000000,0.000000,0.000000,0.005936,-0.004723,0.000003,0.000000,0.000000,0.000000,0.000000,819,819,819,819
7082,0,1.708740,1.214105,0.000000,0.33,0.24,-0.000224,0.006000,0.000000,0.000000,0.000000,0.000000,0.000000,0.000000,0.006324,-0.004987,0.000004,0.000000,0.000000,0.000000,0.000000,819,819,819,819
7092,0,1.746992,1.241284,0.000000,0.32,0.23,-0.000617,0.006000,0.000000,0.000000,0.000000,0.000000,0.000000,0.000000,0.006664,-0.005207,0.000009,0.000000,0.000000,0.000000,0.000000,819,819,819,819
7102,0,1.777593,1.263027,0.000000,0.30,0.22,-0.000559,0.006000,0.000000,0.000000,0.000000,0.000000,0.000000,0.000000,0.006960,-0.005394,0.000009,0.000000,0.000000,0.000000,0.000000,819,819,819,819
7112,0,1.802075,1.280422,0.000000,0.29,0.20,-0.000506,0.006000,0.000000,0.000000,0.000000,0.000000,0.000000,0.000000,0.007222,-0.005550,0.000009,0.000000,0.000000,0.000000,0.000000,819,819,819,819
7122,0,1.821660,1.294337,0.000000,0.27,0.19,-0.000458,0.006000,0.000000,0.000000,0.000000,0.000000,0.000000,0.000000,0.007453,-0.005686,0.000009,0.000000,0.000000,0.000000,0.000000,819,819,819,819
7132,0,1.837328,1.305470,0.000000,0.25,0.18,-0.000414,0.006000,0.000000,0.000000,0.000000,0.000000,0.000000,0.000000,0.007654,-0.005806,0.000009,0.000000,0.000000,0.000000,0.000000,819,819,819,819
7142,0,1.849862,1.314376,0.000000,0.23,0.16,0.000040,0.006000,0.000000,0.000000,0.000000,0.000000,0.000000,0.000000,0.007834,-0.005913,0.000005,0.000000,0.000000,0.000000,0.000000,819,819,819,819
7152,0,1.859890,1.321501,0.000000,0.21,0.15,-0.000068,0.006000,0.000000,0.000000,0.000000,0.000000,0.000000,0.000000,0.007993,-0.006009,0.000006,0.000000,0.000000,0.000000,0.000000,819,819,819,819
7169,0,1.867912,1.327201,0.000000,0.19,0.14,-0.000165,0.006000,0.000000,0.000000,0.000000,0.000000,0.000000,0.000000,0.008120,-0.006076,0.000007,0.000000,0.000000,0.000000,0.000000,819,819,819,819
7181,0,1.874330,1.331760,0.000000,0.18,0.13,-0.000356,0.007000,0.000000,0.000000,0.000000,0.000000,0.000000,0.000000,0.008239,-0.006140,0.000010,0.000000,0.000000,0.000000,0.000000,819,819,819,819
7192,0,1.879464,1.335408,0.000000,0.16,0.12,-0.000633,0.007000,0.000000,0.000000,0.000000,0.000000,0.000000,0.000000,0.008348,-0.006195,0.000013,0.000000,0.000000,0.000000,0.000000,819,819,819,819
7202,0,1.883571,1.338327,0.000000,0.15,0.11,-0.000677,0.006000,0.000000,0.000000,0.000000,0.000000,0.000000,0.000000,0.008448,-0.006249,0.000015,0.000000,0.000000,0.000000,0.000000,819,819,819,819
7212,0,1.886857,1.340661,0.000000,0.13,0.10,-0.000613,0.006000,0.000000,0.000000,0.000000,0.000000,0.000000,0.000000,0.008536,-0.006294,0.000015,0.000000,0.000000,0.000000,0.000000,819,819,819,819
7222,0,1.889485,1.342529,0.000000,0.12,0.09,-0.000347,0.006000,0.000000,0.000000,0.000000,0.000000,0.000000,0.000000,0.008616,-0.006340,0.000013,0.000000,0.000000,0.000000,0.000000,819,819,819,819
7232,0,1.891588,1.344023,0.000000,0.11,0.08,-0.000211,0.006000,0.000000,0.000000,0.000000,0.000000,0.000000,0.000000,0.008687,-0.006380,0.000012,0.000000,0.000000,0.000000,0.000000,819,819,819,819
7242,0,1.893271,1.345219,0.000000,0.10,0.07,-0.000398,0.006000,0.000000,0.000000,0.000000,0.000000,0.000000,0.000000,0.008753,-0.006411,0.000014,0.000000,0.000000,0.000000,0.000000,819,819,819,819
7252,0,1.894617,1.346175,0.000000,0.09,0.07,-0.000567,0.006000,0.000000,0.000000,0.000000,0.000000,0.000000,0.000000,0.008811,-0.006439,0.000017,0.000000,0.000000,0.000000,0.000000,819,819,819,819
7262,0,1.895693,1.346940,0.000000,0.08,0.06,-0.000824,0.006000,0.000000,0.000000,0.000000,0.000000,0.000000,0.000000,0.008862,-0.006468,0.000020,0.000000,0.000000,0.000000,0.000000,819,819,819,819
7272,0,1.896555,1.347552,0.000000,0.07,0.05,-0.000746,0.006000,0.000000,0.000000,0.000000,0.000000,0.000000,0.000000,0.008906,-0.006489,0.000021,0.000000,0.000000,0.000000,0.000000,819,819,819,819
7282,0,1.897244,1.348042,0.000000,0.07,0.05,-0.000882,0.006000,0.000000,0.000000,0.000000,0.000000,0.000000,0.000000,0.008948,-0.006510,0.000023,0.000000,0.000000,0.000000,0.000000,819,819,819,819
7292,0,1.897795,1.348433,0.000000,0.06,0.05,-0.000799,0.006000,0.000000,0.000000,0.000000,0.000000,0.000000,0.000000,0.008987,-0.006530,0.000024,0.000000,0.000000,0.000000,0.000000,819,819,819,819
7302,0,1.898236,1.348747,0.000000,0.06,0.04,-0.000308,0.006000,0.000000,0.000000,0.000000,0.000000,0.000000,0.000000,0.009021,-0.006546,0.000019,0.000000,0.000000,0.000000,0.000000,819,819,819,819
7312,0,1.898589,1.348997,0.000000,0.05,0.04,0.000032,0.006000,0.000000,0.000000,0.000000,0.000000,0.000000,0.000000,0.009051,-0.006556,0.000016,0.000000,0.000000,0.000000,0.000000,819,819,819,819
7322,0,1.898871,1.349198,0.000000,0.05,0.03,0.000133,0.006000,0.000000,0.000000,0.000000,0.000000,0.000000,0.000000,0.009078,-0.006566,0.000015,0.000000,0.000000,0.000000,0.000000,819,819,819,819
7332,0,1.899097,1.349358,0.000000,0.04,0.03,-0.000398,0.006000,0.000000,0.000000,0.000000,0.000000,0.000000,0.000000,0.009103,-0.006576,0.000021,0.000000,0.000000,0.000000,0.000000,819,819,819,819
7342,0,1.899278,1.349487,0.000000,0.04,0.03,-0.000568,0.006000,0.000000,0.000000,0.000000,0.000000,0.000000,0.000000,0.009126,-0.006586,0.000023,0.000000,0.000000,0.000000,0.000000,819,819,819,819
7352,0,1.899422,1.349589,0.000000,0.03,0.02,-0.000721,0.006000,0.000000,0.000000,0.000000,0.000000,0.000000,0.000000,0.009147,-0.006596,0.000026,0.000000,0.000000,0.000000,0.000000,819,819,819,819
7362,0,1.899538,1.349671,0.000000,0.03,0.02,-0.000652,0.006000,0.000000,0.000000,0.000000,0.000000,0.000000,0.000000,0.009166,-0.006607,0.000026,0.000000,0.000000,0.000000,0.000000,819,819,819,819
7372,0,1.899630,1.349737,0.000000,0.03,0.02,-0.000280,0.006000,0.000000,0.000000,0.000000,0.000000,0.000000,0.000000,0.009181,-0.006609,0.000023,0.000000,0.000000,0.000000,0.000000,819,819,819,819
7383,0,1.899704,1.349790,0.000000,0.02,0.02,0.000265,0.006000,0.000000,0.000000,0.000000,0.000000,0.000000,0.000000,0.009196,-0.006609,0.000017,0.000000,0.000000,0.000000,0.000000,819,819,819,819
7392,0,1.899763,1.349832,0.000000,0.02,0.01,0.000758,0.006000,0.000000,0.000000,0.000000,0.000000,0.000000,0.000000,0.009209,-0.006605,0.000011,0.000000,0.000000,0.000000,0.000000,819,819,819,819
7402,0,1.899811,1.349865,0.000000,0.02,0.01,0.000790,0.006000,0.000000,0.000000,0.000000,0.000000,0.000000,0.000000,0.009222,-0.006607,0.000009,0.000000,0.000000,0.000000,0.000000,819,819,819,819
7412,0,1.899849,1.349892,0.000000,0.02,0.01,0.000300,0.006000,0.000000,0.000000,0.000000,0.000000,0.000000,0.000000,0.009234,-0.006614,0.000014,0.000000,0.000000,0.000000,0.000000,819,819,819,819
7422,0,1.899879,1.349914,0.000000,0.02,0.01,-0.000350,0.006000,0.000000,0.000000,0.000000,0.000000,0.000000,0.000000,0.009244,-0.006628,0.000021,0.000000,0.000000,0.000000,0.000000,819,819,819,819
7433,0,1.899903,1.349931,0.000000,0.01,0.01,-0.000628,0.006000,0.000000,0.000000,0.000000,0.000000,0.000000,0.000000,0.009254,-0.006630,0.000024,0.000000,0.000000,0.000000,0.000000,819,819,819,819
7442,0,1.899922,1.349945,0.000000,0.01,0.00,-0.000672,0.006000,0.000000,0.000000,0.000000,0.000000,0.000000,0.000000,0.009263,-0.006629,0.000026,0.000000,0.000000,0.000000,0.000000,819,819,819,819
7452,0,1.899938,1.349956,0.000000,0.01,0.00,-0.000712,0.006000,0.000000,0.000000,0.000000,0.000000,0.000000,0.000000,0.009273,-0.006626,0.000027,0.000000,0.000000,0.000000,0.000000,819,819,819,819
7462,0,1.899950,1.349965,0.000000,0.01,0.00,-0.000644,0.006000,0.000000,0.000000,0.000000,0.000000,0.000000,0.000000,0.009278,-0.006622,0.000028,0.000000,0.000000,0.000000,0.000000,819,819,819,819
7473,0,1.899960,1.349972,0.000000,0.01,0.00,0.000143,0.006000,0.000000,0.000000,0.000000,0.000000,0.000000,0.000000,0.009282,-0.006621,0.000019,0.000000,0.000000,0.000000,0.000000,819,819,819,819
7488,0,1.899968,1.349977,0.000000,0.00,0.00,0.000647,0.006000,0.000000,0.000000,0.000000,0.000000,0.000000,0.000000,0.009289,-0.006622,0.000013,0.000000,0.000000,0.000000,0.000000,819,819,819,819
7500,0,1.899975,1.349982,0.000000,0.00,0.00,0.001104,0.006000,0.000000,0.000000,0.000000,0.000000,0.000000,0.000000,0.009294,-0.006623,0.000007,0.000000,0.000000,0.000000,0.000000,819,819,819,819
7512,0,1.899980,1.349985,0.000000,0.00,0.00,0.000999,0.006000,0.000000,0.000000,0.000000,0.000000,0.000000,0.000000,0.009298,-0.006617,0.000007,0.000000,0.000000,0.000000,0.000000,819,819,819,819
7522,0,1.899984,1.349988,0.000000,0.00,0.00,0.000490,0.006000,0.000000,0.000000,0.000000,0.000000,0.000000,0.000000,0.009304,-0.006614,0.000011,0.000000,0.000000,0.000000,0.000000,819,819,819,819
7533,0,1.899987,1.349991,0.000000,0.00,0.00,0.000029,0.006000,0.000000,0.000000,0.000000,0.000000,0.000000,0.000000,0.009308,-0.006616,0.000016,0.000000,0.000000,0.000000,0.000000,819,819,819,819
7543,0,1.899990,1.349993,0.000000,0.00,0.00,0.000026,0.006000,0.000000,0.000000,0.000000,0.000000,0.000000,0.000000,0.009310,-0.006619,0.000016,0.000000,0.000000,0.000000,0.000000,819,819,819,819
7553,0,1.899992,1.349994,0.000000,0.00,0.00,0.000127,0.006000,0.000000,0.000000,0.000000,0.000000,0.000000,0.000000,0.009316,-0.006622,0.000015,0.000000,0.000000,0.000000,0.000000,819,819,819,819
7563,0,1.899993,1.349995,0.000000,0.00,0.00,0.000633,0.006000,0.000000,0.000000,0.000000,0.000000,0.000000,0.000000,0.009319,-0.006620,0.000008,0.000000,0.000000,0.000000,0.000000,819,819,819,819
7573,0,1.899995,1.349996,0.000000,0.00,0.00,0.000884,0.006000,0.000000,0.000000,0.000000,0.000000,0.000000,0.000000,0.009322,-0.006619,0.000005,0.000000,0.000000,0.000000,0.000000,819,819,819,819
7583,0,1.899996,1.349997,0.000000,0.00,0.00,0.000800,0.006000,0.000000,0.000000,0.000000,0.000000,0.000000,0.000000,0.009325,-0.006618,0.000004,0.000000,0.000000,0.000000,0.000000,819,819,819,819
7593,0,1.899997,1.349998,0.000000,0.00,0.00,0.000828,0.006000,0.000000,0.000000,0.000000,0.000000,0.000000,0.000000,0.009327,-0.006616,0.000003,0.000000,0.000000,0.000000,0.000000,819,819,819,819
7603,0,1.899997,1.349998,0.000000,0.00,0.00,0.000749,0.006000,0.000000,0.000000,0.000000,0.000000,0.000000,0.000000,0.009330,-0.006620,0.000002,0.000000,0.000000,0.000000,0.000000,819,819,819,819
7613,0,1.899998,1.349998,0.000000,0.00,0.00,0.000263,0.006000,0.000000,0.000000,0.000000,0.000000,0.000000,0.000000,0.009333,-0.006622,0.000007,0.000000,0.000000,0.000000,0.000000,819,819,819,819
7623,0,1.899998,1.349999,0.000000,0.00,0.00,0.000342,0.006000,0.000000,0.000000,0.000000,0.000000,0.000000,0.000000,0.009336,-0.006622,0.000006,0.000000,0.000000,0.000000,0.000000,819,819,819,819
7633,0,1.899999,1.349999,0.000000,0.00,0.00,0.000206,0.007000,0.000000,0.000000,0.000000,0.000000,0.000000,0.000000,0.009338,-0.006615,0.000007,0.000000,0.000000,0.000000,0.000000,819,819,819,819
7643,0,1.899999,1.349999,0.000000,0.00,-0.00,0.000393,0.006000,0.000000,0.000000,0.000000,0.000000,0.000000,0.000000,0.009341,-0.006610,0.000004,0.000000,0.000000,0.000000,0.000000,819,819,819,819
7653,0,1.899999,1.349999,0.000000,0.00,-0.00,0.000563,0.006000,0.000000,0.000000,0.000000,0.000000,0.000000,0.000000,0.009341,-0.006605,0.000002,0.000000,0.000000,0.000000,0.000000,819,819,819,819
7663,0,1.899999,1.349999,0.000000,0.00,-0.00,0.000406,0.006000,0.000000,0.000000,0.000000,0.000000,0.000000,0.000000,0.009342,-0.006605,0.000002,0.000000,0.000000,0.000000,0.000000,819,819,819,819
7673,0,1.899999,1.350000,0.000000,0.00,-0.00,0.000160,0.006000,0.000000,0.000000,0.000000,0.000000,0.000000,0.000000,0.009343,-0.006604,0.000005,0.000000,0.000000,0.000000,0.000000,819,819,819,819
7683,0,1.900000,1.350000,0.000000,0.00,-0.00,0.000249,0.006000,0.000000,0.000000,0.000000,0.000000,0.000000,0.000000,0.009344,-0.006599,0.000003,0.000000,0.000000,0.000000,0.000000,819,819,819,819
7693,0,1.900000,1.350000,0.000000,0.00,-0.00,0.000018,0.006000,0.000000,0.000000,0.000000,0.000000,0.000000,0.000000,0.009348,-0.006595,0.000006,0.000000,0.000000,0.000000,0.000000,819,819,819,819
7703,0,1.900000,1.350000,0.000000,0.00,-0.00,0.000016,0.006000,0.000000,0.000000,0.000000,0.000000,0.000000,0.000000,0.009352,-0.006594,0.000006,0.000000,0.000000,0.000000,0.000000,819,819,819,819
7713,0,1.900000,1.350000,0.000000,0.00,-0.00,0.000015,0.006000,0.000000,0.000000,0.000000,0.000000,0.000000,0.000000,0.009354,-0.006593,0.000006,0.000000,0.000000,0.000000,0.000000,819,819,819,819
7723,0,1.900000,1.350000,0.000000,0.00,-0.00,0.000428,0.006000,0.000000,0.000000,0.000000,0.000000,0.000000,0.000000,0.009354,-0.006590,0.000000,0.000000,0.000000,0.000000,0.000000,819,819,819,819
7733,0,1.900000,1.350000,0.000000,0.00,-0.00,0.000802,0.006000,0.000000,0.000000,0.000000,0.000000,0.000000,0.000000,0.009355,-0.006586,-0.000004,0.000000,0.000000,0.000000,0.000000,819,819,819,819
7743,0,1.900000,1.350000,0.000000,0.00,-0.00,0.000933,0.006000,0.000000,0.000000,0.000000,0.000000,0.000000,0.000000,0.009356,-0.006582,-0.000007,0.000000,0.000000,0.000000,0.000000,819,819,819,819
7753,0,1.900000,1.350000,0.000000,0.00,-0.00,0.000844,0.006000,0.000000,0.000000,0.000000,0.000000,0.000000,0.000000,0.009358,-0.006578,-0.000007,0.000000,0.000000,0.000000,0.000000,819,819,819,819
7763,0,1.900000,1.350000,0.000000,0.00,-0.00,0.000868,0.006000,0.000000,0.000000,0.000000,0.000000,0.000000,0.000000,0.009360,-0.006576,-0.000009,0.000000,0.000000,0.000000,0.000000,819,819,819,819
7773,0,1.900000,1.350000,0.000000,0.00,-0.00,0.000578,0.006000,0.000000,0.000000,0.000000,0.000000,0.000000,0.000000,0.009362,-0.006575,-0.000007,0.000000,0.000000,0.000000,0.000000,819,819,819,819
7783,0,1.900000,1.350000,0.000000,0.00,-0.00,0.000212,0.006000,0.000000,0.000000,0.000000,0.000000,0.000000,0.000000,0.009362,-0.006573,-0.000004,0.000000,0.000000,0.000000,0.000000,819,819,819,819
7793,0,1.900000,1.350000,0.000000,0.00,-0.00,0.000296,0.006000,0.000000,0.000000,0.000000,0.000000,0.000000,0.000000,0.009363,-0.006573,-0.000005,0.000000,0.000000,0.000000,0.000000,819,819,819,819
7811,0,1.900000,1.350000,0.000000,0.00,-0.00,0.000267,0.006000,0.000000,0.000000,0.000000,0.000000,0.000000,0.000000,0.009364,-0.006572,-0.000005,0.000000,0.000000,0.000000,0.000000,819,819,819,819
7822,0,1.900000,1.350000,0.000000,0.00,-0.00,0.000553,0.006000,0.000000,0.000000,0.000000,0.000000,0.000000,0.000000,0.009364,-0.006572,-0.000009,0.000000,0.000000,0.000000,0.000000,819,819,819,819
7833,0,1.900000,1.350000,0.000000,0.00,-0.00,0.000708,0.006000,0.000000,0.000000,0.000000,0.000000,0.000000,0.000000,0.009366,-0.006574,-0.000011,0.000000,0.000000,0.000000,0.000000,819,819,819,819
7845,0,1.900000,1.350000,0.000000,0.00,-0.00,0.000640,0.006000,0.000000,0.000000,0.000000,0.000000,0.000000,0.000000,0.009366,-0.006575,-0.000012,0.000000,0.000000,0.000000,0.000000,819,819,819,819
7854,0,1.900000,1.350000,0.000000,0.00,-0.00,0.000269,0.006000,0.000000,0.000000,0.000000,0.000000,0.000000,0.000000,0.009367,-0.006574,-0.000008,0.000000,0.000000,0.000000,0.000000,819,819,819,819
7864,0,1.900000,1.350000,0.000000,0.00,-0.00,0.000036,0.006000,0.000000,0.000000,0.000000,0.000000,0.000000,0.000000,0.009367,-0.006574,-0.000006,0.000000,0.000000,0.000000,0.000000,819,819,819,819
7873,0,1.900000,1.350000,0.000000,0.00,-0.00,-0.000175,0.006000,0.000000,0.000000,0.000000,0.000000,0.000000,0.000000,0.009369,-0.006575,-0.000004,0.000000,0.000000,0.000000,0.000000,819,819,819,819
7884,0,1.900000,1.350000,0.000000,0.00,-0.00,-0.000262,0.006000,0.000000,0.000000,0.000000,0.000000,0.000000,0.000000,0.009369,-0.006575,-0.000002,0.000000,0.000000,0.000000,0.000000,819,819,819,819
7893,0,1.900000,1.350000,0.000000,0.00,-0.00,-0.000341,0.006000,0.000000,0.000000,0.000000,0.000000,0.000000,0.000000,0.009368,-0.006576,-0.000001,0.000000,0.000000,0.000000,0.000000,819,819,819,819
7903,0,1.900000,1.350000,0.000000,0.00,-0.00,0.000003,0.006000,0.000000,0.000000,0.000000,0.000000,0.000000,0.000000,0.009368,-0.006577,-0.000005,0.000000,0.000000,0.000000,0.000000,819,819,819,819
7913,0,1.900000,1.350000,0.000000,0.00,0.00,-0.000205,0.006000,0.000000,0.000000,0.000000,0.000000,0.000000,0.000000,0.009370,-0.006579,-0.000002,0.000000,0.000000,0.000000,0.000000,819,819,819,819
7923,0,1.900000,1.350000,0.000000,0.00,-0.00,-0.000185,0.006000,0.000000,0.000000,0.000000,0.000000,0.000000,0.000000,0.009370,-0.006577,-0.000002,0.000000,0.000000,0.000000,0.000000,819,819,819,819
7934,0,1.900000,1.350000,0.000000,0.00,-0.00,-0.000479,0.006000,0.000000,0.000000,0.000000,0.000000,0.000000,0.000000,0.009369,-0.006575,0.000002,0.000000,0.000000,0.000000,0.000000,819,819,819,819
7943,0,1.900000,1.350000,0.000000,0.00,-0.00,-0.000433,0.006000,0.000000,0.000000,0.000000,0.000000,0.000000,0.000000,0.009369,-0.006574,0.000002,0.000000,0.000000,0.000000,0.000000,819,819,819,819
7953,0,1.900000,1.350000,0.000000,0.00,-0.00,-0.000392,0.006000,0.000000,0.000000,0.000000,0.000000,0.000000,0.000000,0.009368,-0.006572,0.000002,0.000000,0.000000,0.000000,0.000000,819,819,819,819
7963,0,1.900000,1.350000,0.000000,-0.00,0.00,-0.000458,0.006000,0.000000,0.000000,0.000000,0.000000,0.000000,0.000000,0.009366,-0.006577,0.000004,0.000000,0.000000,0.000000,0.000000,819,819,819,819
7973,0,1.900000,1.350000,0.000000,-0.00,0.00,-0.000415,0.006000,0.000000,0.000000,0.000000,0.000000,0.000000,0.000000,0.009365,-0.006577,0.000004,0.000000,0.000000,0.000000,0.000000,819,819,819,819
7984,0,1.900000,1.350000,0.000000,-0.00,-0.00,-0.000790,0.006000,0.000000,0.000000,0.000000,0.000000,0.000000,0.000000,0.009364,-0.006575,0.000009,0.000000,0.000000,0.000000,0.000000,819,819,819,819
7994,0,1.900000,1.350000,0.000000,-0.00,-0.00,-0.000819,0.006000,0.000000,0.000000,0.000000,0.000000,0.000000,0.000000,0.009364,-0.006573,0.000010,0.000000,0.000000,0.000000,0.000000,819,819,819,819
8003,0,1.900000,1.350000,0.000000,-0.00,-0.00,-0.000844,0.006000,0.000000,0.000000,0.000000,0.000000,0.000000,0.000000,0.009363,-0.006576,0.000012,0.000000,0.000000,0.000000,0.000000,819,819,819,819
8013,0,1.900000,1.350000,0.000000,-0.00,0.00,-0.000971,0.006000,0.000000,0.000000,0.000000,0.000000,0.000000,0.000000,0.009362,-0.006578,0.000015,0.000000,0.000000,0.000000,0.000000,819,819,819,819
8023,0,1.900000,1.350000,0.000000,-0.00,0.00,-0.000983,0.006000,0.000000,0.000000,0.000000,0.000000,0.000000,0.000000,0.009364,-0.006579,0.000016,0.000000,0.000000,0.000000,0.000000,819,819,819,819
8033,0,1.900000,1.350000,0.000000,-0.00,0.00,-0.000993,0.006000,0.000000,0.000000,0.000000,0.000000,0.000000,0.000000,0.009364,-0.006580,0.000018,0.000000,0.000000,0.000000,0.000000,819,819,819,819
8044,0,1.900000,1.350000,0.000000,-0.00,0.00,-0.001106,0.006000,0.000000,0.000000,0.000000,0.000000,0.000000,0.000000,0.009361,-0.006577,0.000021,0.000000,0.000000,0.000000,0.000000,819,819,819,819
8054,0,1.900000,1.350000,0.000000,-0.00,-0.00,-0.001105,0.006000,0.000000,0.000000,0.000000,0.000000,0.000000,0.000000,0.009360,-0.006576,0.000023,0.000000,0.000000,0.000000,0.000000,819,819,819,819
8063,0,1.900000,1.350000,0.000000,-0.00,0.00,-0.001207,0.006000,0.000000,0.000000,0.000000,0.000000,0.000000,0.000000,0.009361,-0.006577,0.000026,0.000000,0.000000,0.000000,0.000000,819,819,819,819
8073,0,1.900000,1.350000,0.000000,-0.00,0.00,-0.000989,0.006000,0.000000,0.000000,0.000000,0.000000,0.000000,0.000000,0.009362,-0.006580,0.000025,0.000000,0.000000,0.000000,0.000000,819,819,819,819
8084,0,1.900000,1.350000,0.000000,-0.00,0.00,-0.000687,0.006000,0.000000,0.000000,0.000000,0.000000,0.000000,0.000000,0.009361,-0.006577,0.000023,0.000000,0.000000,0.000000,0.000000,819,819,819,819
8094,0,1.900000,1.350000,0.000000,-0.00,-0.00,-0.000622,0.006000,0.000000,0.000000,0.000000,0.000000,0.000000,0.000000,0.009362,-0.006576,0.000024,0.000000,0.000000,0.000000,0.000000,819,819,819,819
8104,0,1.900000,1.350000,0.000000,-0.00,-0.00,-0.000770,0.006000,0.000000,0.000000,0.000000,0.000000,0.000000,0.000000,0.009362,-0.006574,0.000026,0.000000,0.000000,0.000000,0.000000,819,819,819,819
8119,0,1.900000,1.350000,0.000000,-0.00,-0.00,-0.000697,0.006000,0.000000,0.000000,0.000000,0.000000,0.000000,0.000000,0.009360,-0.006574,0.000027,0.000000,0.000000,0.000000,0.000000,819,819,819,819
8132,0,1.900000,1.350000,0.000000,-0.00,-0.00,-0.000734,0.006000,0.000000,0.000000,0.000000,0.000000,0.000000,0.000000,0.009359,-0.006575,0.000028,0.000000,0.000000,0.000000,0.000000,819,819,819,819
8143,0,1.900000,1.350000,0.000000,-0.00,-0.00,-0.000872,0.006000,0.000000,0.000000,0.000000,0.000000,0.000000,0.000000,0.009357,-0.006566,0.000031,0.000000,0.000000,0.000000,0.000000,819,819,819,819
8154,0,1.900000,1.350000,0.000000,-0.00,-0.00,-0.000686,0.006000,0.000000,0.000000,0.000000,0.000000,0.000000,0.000000,0.009357,-0.006561,0.000030,0.000000,0.000000,0.000000,0.000000,819,819,819,819
8164,0,1.900000,1.350000,0.000000,-0.00,-0.00,-0.000620,0.006000,0.000000,0.000000,0.000000,0.000000,0.000000,0.000000,0.009357,-0.006559,0.000031,0.000000,0.000000,0.000000,0.000000,819,819,819,819
8174,0,1.900000,1.350000,0.000000,-0.00,-0.00,-0.000665,0.006000,0.000000,0.000000,0.000000,0.000000,0.000000,0.000000,0.009357,-0.006562,0.000032,0.000000,0.000000,0.000000,0.000000,819,819,819,819
8184,0,1.900000,1.350000,0.000000,-0.00,-0.00,-0.000809,0.006000,0.000000,0.000000,0.000000,0.000000,0.000000,0.000000,0.009357,-0.006569,0.000035,0.000000,0.000000,0.000000,0.000000,819,819,819,819
8194,0,1.900000,1.350000,0.000000,-0.00,-0.00,-0.000732,0.006000,0.000000,0.000000,0.000000,0.000000,0.000000,0.000000,0.009356,-0.006569,0.000036,0.000000,0.000000,0.000000,0.000000,819,819,819,819
8204,0,1.900000,1.350000,0.000000,-0.00,-0.00,-0.000766,0.006000,0.000000,0.000000,0.000000,0.000000,0.000000,0.000000,0.009357,-0.006565,0.000037,0.000000,0.000000,0.000000,0.000000,819,819,819,819
8214,0,1.900000,1.350000,0.000000,-0.00,-0.00,-0.000797,0.006000,0.000000,0.000000,0.000000,0.000000,0.000000,0.000000,0.009356,-0.006560,0.000039,0.000000,0.000000,0.000000,0.000000,819,819,819,819
8224,0,1.900000,1.350000,0.000000,-0.00,-0.00,-0.000929,0.006000,0.000000,0.000000,0.000000,0.000000,0.000000,0.000000,0.009356,-0.006552,0.000042,0.000000,0.000000,0.000000,0.000000,819,819,819,819
8234,0,1.900000,1.350000,0.000000,-0.00,-0.00,-0.000840,0.006000,0.000000,0.000000,0.000000,0.000000,0.000000,0.000000,0.009356,-0.006550,0.000042,0.000000,0.000000,0.000000,0.000000,819,819,819,819
8244,0,1.900000,1.350000,0.000000,-0.00,-0.00,-0.000761,0.006000,0.000000,0.000000,0.000000,0.000000,0.000000,0.000000,0.009356,-0.006554,0.000043,0.000000,0.000000,0.000000,0.000000,819,819,819,819
8254,0,1.900000,1.350000,0.000000,-0.00,0.00,-0.000792,0.006000,0.000000,0.000000,0.000000,0.000000,0.000000,0.000000,0.009354,-0.006562,0.000044,0.000000,0.000000,0.000000,0.000000,819,819,819,819
8264,0,1.900000,1.350000,0.000000,-0.00,0.00,-0.000717,0.006000,0.000000,0.000000,0.000000,0.000000,0.000000,0.000000,0.009355,-0.006568,0.000045,0.000000,0.000000,0.000000,0.000000,819,819,819,819
8274,0,1.900000,1.350000,0.000000,-0.00,0.00,-0.000960,0.006000,0.000000,0.000000,0.000000,0.000000,0.000000,0.000000,0.009354,-0.006568,0.000049,0.000000,0.000000,0.000000,0.000000,819,819,819,819
8284,0,1.900000,1.350000,0.000000,-0.00,0.00,-0.001283,0.006000,0.000000,0.000000,0.000000,0.000000,0.000000,0.000000,0.009354,-0.006565,0.000054,0.000000,0.000000,0.000000,0.000000,819,819,819,819
8294,0,1.900000,1.350000,0.000000,-0.00,-0.00,-0.001161,0.006000,0.000000,0.000000,0.000000,0.000000,0.000000,0.000000,0.009351,-0.006554,0.000055,0.000000,0.000000,0.000000,0.000000,819,819,819,819
8304,0,1.900000,1.350000,0.000000,-0.00,-0.00,-0.000843,0.006000,0.000000,0.000000,0.000000,0.000000,0.000000,0.000000,0.009351,-0.006551,0.000053,0.000000,0.000000,0.000000,0.000000,819,819,819,819
8314,0,1.900000,1.350000,0.000000,-0.00,-0.00,-0.000245,0.006000,0.000000,0.000000,0.000000,0.000000,0.000000,0.000000,0.009348,-0.006551,0.000047,0.000000,0.000000,0.000000,0.000000,819,819,819,819
8324,0,1.900000,1.350000,0.000000,-0.00,-0.00,-0.000015,0.006000,0.000000,0.000000,0.000000,0.000000,0.000000,0.000000,0.009348,-0.006553,0.000045,0.000000,0.000000,0.000000,0.000000,819,819,819,819
8334,0,1.900000,1.350000,0.000000,-0.00,-0.00,-0.000013,0.006000,0.000000,0.000000,0.000000,0.000000,0.000000,0.000000,0.009346,-0.006556,0.000045,0.000000,0.000000,0.000000,0.000000,819,819,819,819
8344,0,1.900000,1.350000,0.000000,-0.00,0.00,-0.000219,0.006000,0.000000,0.000000,0.000000,0.000000,0.000000,0.000000,0.009345,-0.006560,0.000047,0.000000,0.000000,0.000000,0.000000,819,819,819,819
8354,0,1.900000,1.350000,0.000000,-0.00,-0.00,-0.000406,0.006000,0.000000,0.000000,0.000000,0.000000,0.000000,0.000000,0.009345,-0.006554,0.000050,0.000000,0.000000,0.000000,0.000000,819,819,819,819
8364,0,1.900000,1.350000,0.000000,-0.00,-0.00,-0.000574,0.006000,0.000000,0.000000,0.000000,0.000000,0.000000,0.000000,0.009344,-0.006551,0.000053,0.000000,0.000000,0.000000,0.000000,819,819,819,819
8374,0,1.900000,1.350000,0.000000,-0.00,-0.00,-0.000416,0.006000,0.000000,0.000000,0.000000,0.000000,0.000000,0.000000,0.009342,-0.006546,0.000052,0.000000,0.000000,0.000000,0.000000,819,819,819,819
8384,0,1.900000,1.350000,0.000000,-0.00,-0.00,0.000038,0.006000,0.000000,0.000000,0.000000,0.000000,0.000000,0.000000,0.009341,-0.006548,0.000047,0.000000,0.000000,0.000000,0.000000,819,819,819,819
8394,0,1.900000,1.350000,0.000000,-0.00,-0.00,0.000242,0.006000,0.000000,0.000000,0.000000,0.000000,0.000000,0.000000,0.009338,-0.006545,0.000045,0.000000,0.000000,0.000000,0.000000,819,819,819,819
8404,0,1.900000,1.350000,0.000000,-0.00,-0.00,0.000322,0.006000,0.000000,0.000000,0.000000,0.000000,0.000000,0.000000,0.009337,-0.006546,0.000043,0.000000,0.000000,0.000000,0.000000,819,819,819,819
8414,0,1.900000,1.350000,0.000000,-0.00,-0.00,0.000188,0.006000,0.000000,0.000000,0.000000,0.000000,0.000000,0.000000,0.009334,-0.006544,0.000044,0.000000,0.000000,0.000000,0.000000,819,819,819,819
8424,0,1.900000,1.350000,0.000000,-0.00,-0.00,0.000170,0.006000,0.000000,0.000000,0.000000,0.000000,0.000000,0.000000,0.009332,-0.006543,0.000044,0.000000,0.000000,0.000000,0.000000,819,819,819,819
8438,0,1.900000,1.350000,0.000000,-0.00,-0.00,-0.000053,0.007000,0.000000,0.000000,0.000000,0.000000,0.000000,0.000000,0.009332,-0.006546,0.000047,0.000000,0.000000,0.000000,0.000000,819,819,819,819
8451,0,1.900000,1.350000,0.000000,-0.00,-0.00,-0.000256,0.006000,0.000000,0.000000,0.000000,0.000000,0.000000,0.000000,0.009330,-0.006546,0.000049,0.000000,0.000000,0.000000,0.000000,819,819,819,819
8463,0,1.900000,1.350000,0.000000,-0.00,-0.00,-0.000335,0.006000,0.000000,0.000000,0.000000,0.000000,0.000000,0.000000,0.009329,-0.006548,0.000050,0.000000,0.000000,0.000000,0.000000,819,819,819,819
8474,0,1.900000,1.350000,0.000000,-0.00,-0.00,-0.000096,0.006000,0.000000,0.000000,0.000000,0.000000,0.000000,0.000000,0.009329,-0.006547,0.000048,0.000000,0.000000,0.000000,0.000000,819,819,819,819
8485,0,1.900000,1.350000,0.000000,-0.00,-0.00,0.000224,0.006000,0.000000,0.000000,0.000000,0.000000,0.000000,0.000000,0.009328,-0.006543,0.000045,0.000000,0.000000,0.000000,0.000000,819,819,819,819
8494,0,1.900000,1.350000,0.000000,-0.00,-0.00,0.000617,0.006000,0.000000,0.000000,0.000000,0.000000,0.000000,0.000000,0.009328,-0.006546,0.000040,0.000000,0.000000,0.000000,0.000000,819,819,819,819
8504,0,1.900000,1.350000,0.000000,-0.00,-0.00,0.000559,0.006000,0.000000,0.000000,0.000000,0.000000,0.000000,0.000000,0.009328,-0.006547,0.000039,0.000000,0.000000,0.000000,0.000000,819,819,819,819
8514,0,1.900000,1.350000,0.000000,-0.00,0.00,0.000298,0.006000,0.000000,0.000000,0.000000,0.000000,0.000000,0.000000,0.009327,-0.006550,0.000041,0.000000,0.000000,0.000000,0.000000,819,819,819,819
8524,0,1.900000,1.350000,0.000000,0.00,0.00,-0.000041,0.006000,0.000000,0.000000,0.000000,0.000000,0.000000,0.000000,0.009331,-0.006555,0.000045,0.000000,0.000000,0.000000,0.000000,819,819,819,819
8534,0,1.900000,1.350000,0.000000,0.00,0.00,-0.000451,0.006000,0.000000,0.000000,0.000000,0.000000,0.000000,0.000000,0.009331,-0.006557,0.000050,0.000000,0.000000,0.000000,0.000000,819,819,819,819
8545,0,1.900000,1.350000,0.000000,0.00,0.00,-0.000409,0.006000,0.000000,0.000000,0.000000,0.000000,0.000000,0.000000,0.009331,-0.006556,0.000050,0.000000,0.000000,0.000000,0.000000,819,819,819,819
8554,0,1.900000,1.350000,0.000000,0.00,0.00,-0.000059,0.006000,0.000000,0.000000,0.000000,0.000000,0.000000,0.000000,0.009332,-0.006556,0.000047,0.000000,0.000000,0.000000,0.000000,819,819,819,819
8564,0,1.900000,1.350000,0.000000,0.00,0.00,0.000154,0.006000,0.000000,0.000000,0.000000,0.000000,0.000000,0.000000,0.009334,-0.006555,0.000044,0.000000,0.000000,0.000000,0.000000,819,819,819,819
8574,0,1.900000,1.350000,0.000000,0.00,0.00,0.000347,0.006000,0.000000,0.000000,0.000000,0.000000,0.000000,0.000000,0.009336,-0.006554,0.000042,0.000000,0.000000,0.000000,0.000000,819,819,819,819
8585,0,1.900000,1.350000,0.000000,0.00,0.00,0.000521,0.006000,0.000000,0.000000,0.000000,0.000000,0.000000,0.000000,0.009336,-0.006554,0.000039,0.000000,0.000000,0.000000,0.000000,819,819,819,819
8595,0,1.900000,1.350000,0.000000,0.00,-0.00,0.000471,0.006000,0.000000,0.000000,0.000000,0.000000,0.000000,0.000000,0.009336,-0.006551,0.000039,0.000000,0.000000,0.000000,0.000000,819,819,819,819
8604,0,1.900000,1.350000,0.000000,0.00,-0.00,0.000323,0.006000,0.000000,0.000000,0.000000,0.000000,0.000000,0.000000,0.009336,-0.006551,0.000040,0.000000,0.000000,0.000000,0.000000,819,819,819,819
8614,0,1.900000,1.350000,0.000000,0.00,-0.00,0.000396,0.006000,0.000000,0.000000,0.000000,0.000000,0.000000,0.000000,0.009335,-0.006552,0.000038,0.000000,0.000000,0.000000,0.000000,819,819,819,819
8625,0,1.900000,1.350000,0.000000,0.00,0.00,0.000255,0.006000,0.000000,0.000000,0.000000,0.000000,0.000000,0.000000,0.009335,-0.006553,0.000039,0.000000,0.000000,0.000000,0.000000,819,819,819,819
8635,0,1.900000,1.350000,0.000000,-0.00,0.00,0.000231,0.006000,0.000000,0.000000,0.000000,0.000000,0.000000,0.000000,0.009332,-0.006554,0.000039,0.000000,0.000000,0.000000,0.000000,819,819,819,819
8645,0,1.900000,1.350000,0.000000,-0.00,0.00,0.000001,0.006000,0.000000,0.000000,0.000000,0.000000,0.000000,0.000000,0.009330,-0.006554,0.000041,0.000000,0.000000,0.000000,0.000000,819,819,819,819
8655,0,1.900000,1.350000,0.000000,-0.00,0.00,0.000105,0.006000,0.000000,0.000000,0.000000,0.000000,0.000000,0.000000,0.009326,-0.006557,0.000040,0.000000,0.000000,0.000000,0.000000,819,819,819,819
8665,0,1.900000,1.350000,0.000000,-0.00,0.00,0.000406,0.006000,0.000000,0.000000,0.000000,0.000000,0.000000,0.000000,0.009327,-0.006560,0.000036,0.000000,0.000000,0.000000,0.000000,819,819,819,819
8675,0,1.900000,1.350000,0.000000,-0.00,0.00,0.000471,0.006000,0.000000,0.000000,0.000000,0.000000,0.000000,0.000000,0.009326,-0.006561,0.000035,0.000000,0.000000,0.000000,0.000000,819,819,819,819
8685,0,1.900000,1.350000,0.000000,-0.00,0.00,0.000426,0.006000,0.000000,0.000000,0.000000,0.000000,0.000000,0.000000,0.009328,-0.006561,0.000035,0.000000,0.000000,0.000000,0.000000,819,819,819,819
8697,0,1.900000,1.350000,0.000000,-0.00,0.00,0.000593,0.006000,0.000000,0.000000,0.000000,0.000000,0.000000,0.000000,0.009326,-0.006562,0.000032,0.000000,0.000000,0.000000,0.000000,819,819,819,819
8706,0,1.900000,1.350000,0.000000,-0.00,0.00,0.000537,0.006000,0.000000,0.000000,0.000000,0.000000,0.000000,0.000000,0.009327,-0.006562,0.000032,0.000000,0.000000,0.000000,0.000000,819,819,819,819
8716,0,1.900000,1.350000,0.000000,-0.00,0.00,0.000278,0.006000,0.000000,0.000000,0.000000,0.000000,0.000000,0.000000,0.009325,-0.006561,0.000034,0.000000,0.000000,0.000000,0.000000,819,819,819,819
8726,0,1.900000,1.350000,0.000000,-0.00,0.00,0.000459,0.006000,0.000000,0.000000,0.000000,0.000000,0.000000,0.000000,0.009327,-0.006561,0.000031,0.000000,0.000000,0.000000,0.000000,819,819,819,819
8735,0,1.900000,1.350000,0.000000,-0.00,0.00,0.000519,0.006000,0.000000,0.000000,0.000000,0.000000,0.000000,0.000000,0.009325,-0.006562,0.000030,0.000000,0.000000,0.000000,0.000000,819,819,819,819
8753,0,1.900000,1.350000,0.000000,-0.00,0.00,0.000470,0.006000,0.000000,0.000000,0.000000,0.000000,0.000000,0.000000,0.009324,-0.006563,0.000029,0.000000,0.000000,0.000000,0.000000,819,819,819,819
8765,0,1.900000,1.350000,0.000000,-0.00,0.00,0.000425,0.006000,0.000000,0.000000,0.000000,0.000000,0.000000,0.000000,0.009323,-0.006564,0.000029,0.000000,0.000000,0.000000,0.000000,819,819,819,819
8775,0,1.900000,1.350000,0.000000,-0.00,0.00,0.000592,0.006000,0.000000,0.000000,0.000000,0.000000,0.000000,0.000000,0.009322,-0.006568,0.000026,0.000000,0.000000,0.000000,0.000000,819,819,819,819
8785,0,1.900000,1.350000,0.000000,-0.00,0.00,0.000432,0.006000,0.000000,0.000000,0.000000,0.000000,0.000000,0.000000,0.009322,-0.006570,0.000027,0.000000,0.000000,0.000000,0.000000,819,819,819,819
8795,0,1.900000,1.350000,0.000000,-0.00,0.00,0.000288,0.006000,0.000000,0.000000,0.000000,0.000000,0.000000,0.000000,0.009320,-0.006569,0.000028,0.000000,0.000000,0.000000,0.000000,819,819,819,819
8805,0,1.900000,1.350000,0.000000,-0.00,0.00,-0.000154,0.006000,0.000000,0.000000,0.000000,0.000000,0.000000,0.000000,0.009316,-0.006568,0.000033,0.000000,0.000000,0.000000,0.000000,819,819,819,819
8815,0,1.900000,1.350000,0.000000,-0.00,0.00,-0.000347,0.006000,0.000000,0.000000,0.000000,0.000000,0.000000,0.000000,0.009314,-0.006569,0.000035,0.000000,0.000000,0.000000,0.000000,819,819,819,819
8825,0,1.900000,1.350000,0.000000,-0.00,0.00,-0.000418,0.006000,0.000000,0.000000,0.000000,0.000000,0.000000,0.000000,0.009312,-0.006569,0.000037,0.000000,0.000000,0.000000,0.000000,819,819,819,819
8835,0,1.900000,1.350000,0.000000,-0.00,0.00,-0.000274,0.006000,0.000000,0.000000,0.000000,0.000000,0.000000,0.000000,0.009313,-0.006567,0.000036,0.000000,0.000000,0.000000,0.000000,819,819,819,819
8845,0,1.900000,1.350000,0.000000,-0.00,0.00,-0.000145,0.006000,0.000000,0.000000,0.000000,0.000000,0.000000,0.000000,0.009315,-0.006570,0.000035,0.000000,0.000000,0.000000,0.000000,819,819,819,819
8855,0,1.900000,1.350000,0.000000,-0.00,0.00,0.000284,0.006000,0.000000,0.000000,0.000000,0.000000,0.000000,0.000000,0.009314,-0.006574,0.000030,0.000000,0.000000,0.000000,0.000000,819,819,819,819
8865,0,1.900000,1.350000,0.000000,-0.00,0.00,0.000360,0.007000,0.000000,0.000000,0.000000,0.000000,0.000000,0.000000,0.009313,-0.006579,0.000029,0.000000,0.000000,0.000000,0.000000,819,819,819,819
8875,0,1.900000,1.350000,0.000000,-0.00,0.00,0.000222,0.007000,0.000000,0.000000,0.000000,0.000000,0.000000,0.000000,0.009314,-0.006579,0.000029,0.000000,0.000000,0.000000,0.000000,819,819,819,819
8885,0,1.900000,1.350000,0.000000,-0.00,0.00,-0.000006,0.007000,0.000000,0.000000,0.000000,0.000000,0.000000,0.000000,0.009315,-0.006576,0.000032,0.000000,0.000000,0.000000,0.000000,819,819,819,819
8895,0,1.900000,1.350000,0.000000,-0.00,0.00,-0.000213,0.006000,0.000000,0.000000,0.000000,0.000000,0.000000,0.000000,0.009313,-0.006574,0.000034,0.000000,0.000000,0.000000,0.000000,819,819,819,819
8905,0,1.900000,1.350000,0.000000,-0.00,0.00,-0.000400,0.006000,0.000000,0.000000,0.000000,0.000000,0.000000,0.000000,0.009313,-0.006573,0.000037,0.000000,0.000000,0.000000,0.000000,819,819,819,819
8915,0,1.900000,1.350000,0.000000,-0.00,0.00,-0.000362,0.006000,0.000000,0.000000,0.000000,0.000000,0.000000,0.000000,0.009314,-0.006574,0.000037,0.000000,0.000000,0.000000,0.000000,819,819,819,819
8925,0,1.900000,1.350000,0.000000,-0.00,0.00,-0.000327,0.006000,0.000000,0.000000,0.000000,0.000000,0.000000,0.000000,0.009313,-0.006576,0.000037,0.000000,0.000000,0.000000,0.000000,819,819,819,819
8935,0,1.900000,1.350000,0.000000,-0.00,0.00,-0.000296,0.006000,0.000000,0.000000,0.000000,0.000000,0.000000,0.000000,0.009312,-0.006583,0.000038,0.000000,0.000000,0.000000,0.000000,819,819,819,819
8945,0,1.900000,1.350000,0.000000,-0.00,0.00,-0.000475,0.006000,0.000000,0.000000,0.000000,0.000000,0.000000,0.000000,0.009310,-0.006586,0.000040,0.000000,0.000000,0.000000,0.000000,819,819,819,819
8955,0,1.900000,1.350000,0.000000,-0.00,0.00,-0.000534,0.006000,0.000000,0.000000,0.000000,0.000000,0.000000,0.000000,0.009307,-0.006588,0.000042,0.000000,0.000000,0.000000,0.000000,819,819,819,819
8965,0,1.900000,1.350000,0.000000,-0.00,0.00,-0.000483,0.006000,0.000000,0.000000,0.000000,0.000000,0.000000,0.000000,0.009306,-0.006587,0.000042,0.000000,0.000000,0.000000,0.000000,819,819,819,819
8975,0,1.900000,1.350000,0.000000,-0.00,0.00,-0.000334,0.006000,0.000000,0.000000,0.000000,0.000000,0.000000,0.000000,0.009303,-0.006585,0.000041,0.000000,0.000000,0.000000,0.000000,819,819,819,819
8985,0,1.900000,1.350000,0.000000,-0.00,0.00,-0.000198,0.006000,0.000000,0.000000,0.000000,0.000000,0.000000,0.000000,0.009301,-0.006581,0.000040,0.000000,0.000000,0.000000,0.000000,819,819,819,819
8995,0,1.900000,1.350000,0.000000,-0.00,-0.00,-0.000076,0.006000,0.000000,0.000000,0.000000,0.000000,0.000000,0.000000,0.009298,-0.006578,0.000039,0.000000,0.000000,0.000000,0.000000,819,819,819,819
9005,0,1.900000,1.350000,0.000000,-0.00,-0.00,0.000035,0.006000,0.000000,0.000000,0.000000,0.000000,0.000000,0.000000,0.009297,-0.006579,0.000038,0.000000,0.000000,0.000000,0.000000,819,819,819,819
9015,0,1.900000,1.350000,0.000000,-0.00,-0.00,-0.000279,0.006000,0.000000,0.000000,0.000000,0.000000,0.000000,0.000000,0.009295,-0.006578,0.000042,0.000000,0.000000,0.000000,0.000000,819,819,819,819
9025,0,1.900000,1.350000,0.000000,-0.00,0.00,-0.000460,0.006000,0.000000,0.000000,0.000000,0.000000,0.000000,0.000000,0.009295,-0.006582,0.000044,0.000000,0.000000,0.000000,0.000000,819,819,819,819
9035,0,1.900000,1.350000,0.000000,-0.00,0.00,-0.001142,0.006000,0.000000,0.000000,0.000000,0.000000,0.000000,0.000000,0.009294,-0.006584,0.000053,0.000000,0.000000,0.000000,0.000000,819,819,819,819
9045,0,1.900000,1.350000,0.000000,-0.00,0.00,-0.001551,0.006000,0.000000,0.000000,0.000000,0.000000,0.000000,0.000000,0.009295,-0.006585,0.000060,0.000000,0.000000,0.000000,0.000000,819,819,819,819
9055,0,1.900000,1.350000,0.000000,-0.00,-0.00,-0.001404,0.006000,0.000000,0.000000,0.000000,0.000000,0.000000,0.000000,0.009295,-0.006579,0.000061,0.000000,0.000000,0.000000,0.000000,819,819,819,819
9073,0,1.900000,1.350000,0.000000,-0.00,-0.00,-0.000960,0.006000,0.000000,0.000000,0.000000,0.000000,0.000000,0.000000,0.009294,-0.006574,0.000058,0.000000,0.000000,0.000000,0.000000,819,819,819,819
9085,0,1.900000,1.350000,0.000000,-0.00,-0.00,-0.000454,0.006000,0.000000,0.000000,0.000000,0.000000,0.000000,0.000000,0.009293,-0.006576,0.000054,0.000000,0.000000,0.000000,0.000000,819,819,819,819
9095,0,1.900000,1.350000,0.000000,-0.00,-0.00,-0.000307,0.006000,0.000000,0.000000,0.000000,0.000000,0.000000,0.000000,0.009294,-0.006579,0.000053,0.000000,0.000000,0.000000,0.000000,819,819,819,819
9105,0,1.900000,1.350000,0.000000,-0.00,0.00,-0.000485,0.006000,0.000000,0.000000,0.000000,0.000000,0.000000,0.000000,0.009295,-0.006584,0.000056,0.000000,0.000000,0.000000,0.000000,819,819,819,819
9115,0,1.900000,1.350000,0.000000,-0.00,0.00,-0.001475,0.006000,0.000000,0.000000,0.000000,0.000000,0.000000,0.000000,0.009295,-0.006588,0.000069,0.000000,0.000000,0.000000,0.000000,819,819,819,819
9125,0,1.900000,1.350000,0.000000,0.00,0.00,-0.002061,0.006000,0.000000,0.000000,0.000000,0.000000,0.000000,0.000000,0.009296,-0.006590,0.000078,0.000000,0.000000,0.000000,0.000000,819,819,819,819
9136,0,1.900000,1.350000,0.000000,-0.00,0.00,-0.002383,0.007000,0.000000,0.000000,0.000000,0.000000,0.000000,0.000000,0.009295,-0.006585,0.000086,0.000000,0.000000,0.000000,0.000000,819,819,819,819
9145,0,1.900000,1.350000,0.000000,-0.00,-0.00,-0.002157,0.007000,0.000000,0.000000,0.000000,0.000000,0.000000,0.000000,0.009294,-0.006582,0.000087,0.000000,0.000000,0.000000,0.000000,819,819,819,819
9155,0,1.900000,1.350000,0.000000,-0.00,-0.00,-0.001537,0.007000,0.000000,0.000000,0.000000,0.000000,0.000000,0.000000,0.009293,-0.006580,0.000084,0.000000,0.000000,0.000000,0.000000,819,819,819,819
9165,0,1.900000,1.350000,0.000000,-0.00,0.00,-0.000666,0.006000,0.000000,0.000000,0.000000,0.000000,0.000000,0.000000,0.009293,-0.006583,0.000076,0.000000,0.000000,0.000000,0.000000,819,819,819,819
9176,0,1.900000,1.350000,0.000000,-0.00,0.00,0.000226,0.006000,0.000000,0.000000,0.000000,0.000000,0.000000,0.000000,0.009292,-0.006585,0.000067,0.000000,0.000000,0.000000,0.000000,819,819,819,819
9186,0,1.900000,1.350000,0.000000,-0.00,0.00,0.000412,0.006000,0.000000,0.000000,0.000000,0.000000,0.000000,0.000000,0.009291,-0.006590,0.000065,0.000000,0.000000,0.000000,0.000000,819,819,819,819
9196,0,1.900000,1.350000,0.000000,-0.00,0.00,-0.000145,0.006000,0.000000,0.000000,0.000000,0.000000,0.000000,0.000000,0.009292,-0.006593,0.000070,0.000000,0.000000,0.000000,0.000000,819,819,819,819
9206,0,1.900000,1.350000,0.000000,-0.00,0.00,-0.001064,0.006000,0.000000,0.000000,0.000000,0.000000,0.000000,0.000000,0.009291,-0.006590,0.000082,0.000000,0.000000,0.000000,0.000000,819,819,819,819
9216,0,1.900000,1.350000,0.000000,-0.00,0.00,-0.001896,0.006000,0.000000,0.000000,0.000000,0.000000,0.000000,0.000000,0.009291,-0.006590,0.000093,0.000000,0.000000,0.000000,0.000000,819,819,819,819
9226,0,1.900000,1.350000,0.000000,-0.00,-0.00,-0.002337,0.006000,0.000000,0.000000,0.000000,0.000000,0.000000,0.000000,0.009292,-0.006587,0.000102,0.000000,0.000000,0.000000,0.000000,819,819,819,819
9236,0,1.900000,1.350000,0.000000,-0.00,-0.00,-0.002012,0.007000,0.000000,0.000000,0.000000,0.000000,0.000000,0.000000,0.009291,-0.006587,0.000103,0.000000,0.000000,0.000000,0.000000,819,819,819,819
9246,0,1.900000,1.350000,0.000000,-0.00,-0.00,-0.001095,0.006000,0.000000,0.000000,0.000000,0.000000,0.000000,0.000000,0.009292,-0.006587,0.000095,0.000000,0.000000,0.000000,0.000000,819,819,819,819
9256,0,1.900000,1.350000,0.000000,0.00,-0.00,-0.000266,0.006000,0.000000,0.000000,0.000000,0.000000,0.000000,0.000000,0.009293,-0.006587,0.000088,0.000000,0.000000,0.000000,0.000000,819,819,819,819
9266,0,1.900000,1.350000,0.000000,-0.00,-0.00,0.000485,0.006000,0.000000,0.000000,0.000000,0.000000,0.000000,0.000000,0.009292,-0.006584,0.000079,0.000000,0.000000,0.000000,0.000000,819,819,819,819
9276,0,1.900000,1.350000,0.000000,-0.00,0.00,0.000335,0.006000,0.000000,0.000000,0.000000,0.000000,0.000000,0.000000,0.009291,-0.006587,0.000080,0.000000,0.000000,0.000000,0.000000,819,819,819,819
9286,0,1.900000,1.350000,0.000000,0.00,0.00,-0.000318,0.006000,0.000000,0.000000,0.000000,0.000000,0.000000,0.000000,0.009292,-0.006591,0.000087,0.000000,0.000000,0.000000,0.000000,819,819,819,819
9296,0,1.900000,1.350000,0.000000,0.00,0.00,-0.001221,0.006000,0.000000,0.000000,0.000000,0.000000,0.000000,0.000000,0.009293,-0.006592,0.000098,0.000000,0.000000,0.000000,0.000000,819,819,819,819
9306,0,1.900000,1.350000,0.000000,0.00,0.00,-0.001623,0.006000,0.000000,0.000000,0.000000,0.000000,0.000000,0.000000,0.009294,-0.006592,0.000106,0.000000,0.000000,0.000000,0.000000,819,819,819,819
9316,0,1.900000,1.350000,0.000000,0.00,0.00,-0.001261,0.006000,0.000000,0.000000,0.000000,0.000000,0.000000,0.000000,0.009294,-0.006591,0.000104,0.000000,0.000000,0.000000,0.000000,819,819,819,819
9326,0,1.900000,1.350000,0.000000,0.00,0.00,-0.000520,0.006000,0.000000,0.000000,0.000000,0.000000,0.000000,0.000000,0.009293,-0.006595,0.000098,0.000000,0.000000,0.000000,0.000000,819,819,819,819
9336,0,1.900000,1.350000,0.000000,-0.00,0.00,0.000359,0.006000,0.000000,0.000000,0.000000,0.000000,0.000000,0.000000,0.009292,-0.006598,0.000088,0.000000,0.000000,0.000000,0.000000,819,819,819,819
9346,0,1.900000,1.350000,0.000000,0.00,0.00,0.001050,0.006000,0.000000,0.000000,0.000000,0.000000,0.000000,0.000000,0.009293,-0.006603,0.000079,0.000000,0.000000,0.000000,0.000000,819,819,819,819
9356,0,1.900000,1.350000,0.000000,-0.00,0.00,0.000950,0.006000,0.000000,0.000000,0.000000,0.000000,0.000000,0.000000,0.009292,-0.006605,0.000079,0.000000,0.000000,0.000000,0.000000,819,819,819,819
9366,0,1.900000,1.350000,0.000000,-0.00,0.00,0.000342,0.006000,0.000000,0.000000,0.000000,0.000000,0.000000,0.000000,0.009292,-0.006603,0.000084,0.000000,0.000000,0.000000,0.000000,819,819,819,819
9376,0,1.900000,1.350000,0.000000,-0.00,0.00,-0.000520,0.006000,0.000000,0.000000,0.000000,0.000000,0.000000,0.000000,0.009292,-0.006602,0.000094,0.000000,0.000000,0.000000,0.000000,819,819,819,819
9391,0,1.900000,1.350000,0.000000,-0.00,0.00,-0.001403,0.006000,0.000000,0.000000,0.000000,0.000000,0.000000,0.000000,0.009291,-0.006600,0.000105,0.000000,0.000000,0.000000,0.000000,819,819,819,819
9403,0,1.900000,1.350000,0.000000,-0.00,0.00,-0.001477,0.006000,0.000000,0.000000,0.000000,0.000000,0.000000,0.000000,0.009288,-0.006599,0.000109,0.000000,0.000000,0.000000,0.000000,819,819,819,819
9416,0,1.900000,1.350000,0.000000,-0.00,0.00,-0.000611,0.006000,0.000000,0.000000,0.000000,0.000000,0.000000,0.000000,0.009286,-0.006603,0.000101,0.000000,0.000000,0.000000,0.000000,819,819,819,819
9426,0,1.900000,1.350000,0.000000,-0.00,0.00,0.000069,0.006000,0.000000,0.000000,0.000000,0.000000,0.000000,0.000000,0.009285,-0.006607,0.000094,0.000000,0.000000,0.000000,0.000000,819,819,819,819
9436,0,1.900000,1.350000,0.000000,-0.00,0.00,0.000166,0.006000,0.000000,0.000000,0.000000,0.000000,0.000000,0.000000,0.009283,-0.006610,0.000093,0.000000,0.000000,0.000000,0.000000,819,819,819,819
9446,0,1.900000,1.350000,0.000000,-0.00,0.00,-0.000472,0.006000,0.000000,0.000000,0.000000,0.000000,0.000000,0.000000,0.009278,-0.006613,0.000100,0.000000,0.000000,0.000000,0.000000,819,819,819,819
9456,0,1.900000,1.350000,0.000000,-0.00,0.00,-0.000945,0.006000,0.000000,0.000000,0.000000,0.000000,0.000000,0.000000,0.009277,-0.006614,0.000107,0.000000,0.000000,0.000000,0.000000,819,819,819,819
9466,0,1.900000,1.350000,0.000000,-0.00,0.00,-0.001477,0.006000,0.000000,0.000000,0.000000,0.000000,0.000000,0.000000,0.009276,-0.006613,0.000115,0.000000,0.000000,0.000000,0.000000,819,819,819,819
9476,0,1.900000,1.350000,0.000000,-0.00,0.00,-0.001337,0.006000,0.000000,0.000000,0.000000,0.000000,0.000000,0.000000,0.009276,-0.006615,0.000116,0.000000,0.000000,0.000000,0.000000,819,819,819,819
9486,0,1.900000,1.350000,0.000000,-0.00,0.00,-0.000899,0.006000,0.000000,0.000000,0.000000,0.000000,0.000000,0.000000,0.009275,-0.006614,0.000113,0.000000,0.000000,0.000000,0.000000,819,819,819,819
9496,0,1.900000,1.350000,0.000000,-0.00,0.00,-0.000192,0.006000,0.000000,0.000000,0.000000,0.000000,0.000000,0.000000,0.009274,-0.006616,0.000107,0.000000,0.000000,0.000000,0.000000,819,819,819,819
9506,0,1.900000,1.350000,0.000000,-0.00,0.00,0.000345,0.006000,0.000000,0.000000,0.000000,0.000000,0.000000,0.000000,0.009271,-0.006617,0.000101,0.000000,0.000000,0.000000,0.000000,819,819,819,819
9516,0,1.900000,1.350000,0.000000,-0.00,0.00,0.000312,0.006000,0.000000,0.000000,0.000000,0.000000,0.000000,0.000000,0.009270,-0.006614,0.000100,0.000000,0.000000,0.000000,0.000000,819,819,819,819
9526,0,1.900000,1.350000,0.000000,-0.00,0.00,-0.000132,0.006000,0.000000,0.000000,0.000000,0.000000,0.000000,0.000000,0.009271,-0.006617,0.000105,0.000000,0.000000,0.000000,0.000000,819,819,819,819
9537,0,1.900000,1.350000,0.000000,-0.00,0.00,-0.000949,0.006000,0.000000,0.000000,0.000000,0.000000,0.000000,0.000000,0.009271,-0.006615,0.000115,0.000000,0.000000,0.000000,0.000000,819,819,819,819
9549,0,1.900000,1.350000,0.000000,-0.00,0.00,-0.002102,0.006000,0.000000,0.000000,0.000000,0.000000,0.000000,0.000000,0.009270,-0.006615,0.000131,0.000000,0.000000,0.000000,0.000000,819,819,819,819
9558,0,1.900000,1.350000,0.000000,-0.00,0.00,-0.002317,0.006000,0.000000,0.000000,0.000000,0.000000,0.000000,0.000000,0.009268,-0.006617,0.000137,0.000000,0.000000,0.000000,0.000000,819,819,819,819
9567,0,1.900000,1.350000,0.000000,-0.00,0.00,-0.002097,0.006000,0.000000,0.000000,0.000000,0.000000,0.000000,0.000000,0.009268,-0.006616,0.000139,0.000000,0.000000,0.000000,0.000000,819,819,819,819
9577,0,1.900000,1.350000,0.000000,-0.00,0.00,-0.001069,0.006000,0.000000,0.000000,0.000000,0.000000,0.000000,0.000000,0.009267,-0.006617,0.000131,0.000000,0.000000,0.000000,0.000000,819,819,819,819
9587,0,1.900000,1.350000,0.000000,-0.00,0.00,0.000173,0.006000,0.000000,0.000000,0.000000,0.000000,0.000000,0.000000,0.009267,-0.006615,0.000118,0.000000,0.000000,0.000000,0.000000,819,819,819,819
9597,0,1.900000,1.350000,0.000000,-0.00,0.00,0.000882,0.006000,0.000000,0.000000,0.000000,0.000000,0.000000,0.000000,0.009266,-0.006616,0.000109,0.000000,0.000000,0.000000,0.000000,819,819,819,819
9607,0,1.900000,1.350000,0.000000,-0.00,0.00,0.001213,0.006000,0.000000,0.000000,0.000000,0.000000,0.000000,0.000000,0.009266,-0.006619,0.000104,0.000000,0.000000,0.000000,0.000000,819,819,819,819
9617,0,1.900000,1.350000,0.000000,-0.00,0.00,0.000890,0.006000,0.000000,0.000000,0.000000,0.000000,0.000000,0.000000,0.009265,-0.006621,0.000105,0.000000,0.000000,0.000000,0.000000,819,819,819,819
9627,0,1.900000,1.350000,0.000000,-0.00,0.00,-0.000023,0.006000,0.000000,0.000000,0.000000,0.000000,0.000000,0.000000,0.009264,-0.006622,0.000114,0.000000,0.000000,0.000000,0.000000,819,819,819,819
9637,0,1.900000,1.350000,0.000000,-0.00,0.00,-0.000850,0.006000,0.000000,0.000000,0.000000,0.000000,0.000000,0.000000,0.009261,-0.006620,0.000124,0.000000,0.000000,0.000000,0.000000,819,819,819,819
9647,0,1.900000,1.350000,0.000000,-0.00,0.00,-0.001495,0.006000,0.000000,0.000000,0.000000,0.000000,0.000000,0.000000,0.009261,-0.006624,0.000134,0.000000,0.000000,0.000000,0.000000,819,819,819,819
9657,0,1.900000,1.350000,0.000000,-0.00,0.00,-0.001767,0.006000,0.000000,0.000000,0.000000,0.000000,0.000000,0.000000,0.009260,-0.006626,0.000140,0.000000,0.000000,0.000000,0.000000,819,819,819,819
9667,0,1.900000,1.350000,0.000000,-0.00,0.00,-0.001496,0.006000,0.000000,0.000000,0.000000,0.000000,0.000000,0.000000,0.009260,-0.006631,0.000140,0.000000,0.000000,0.000000,0.000000,819,819,819,819
9677,0,1.900000,1.350000,0.000000,-0.00,0.00,-0.001043,0.006000,0.000000,0.000000,0.000000,0.000000,0.000000,0.000000,0.009256,-0.006637,0.000137,0.000000,0.000000,0.000000,0.000000,819,819,819,819
9687,0,1.900000,1.350000,0.000000,-0.00,0.00,-0.000529,0.006000,0.000000,0.000000,0.000000,0.000000,0.000000,0.000000,0.009255,-0.006640,0.000133,0.000000,0.000000,0.000000,0.000000,819,819,819,819
9704,0,1.900000,1.350000,0.000000,-0.00,0.00,-0.000272,0.006000,0.000000,0.000000,0.000000,0.000000,0.000000,0.000000,0.009255,-0.006641,0.000131,0.000000,0.000000,0.000000,0.000000,819,819,819,819
9716,0,1.900000,1.350000,0.000000,-0.00,0.00,-0.000142,0.006000,0.000000,0.000000,0.000000,0.000000,0.000000,0.000000,0.009254,-0.006641,0.000130,0.000000,0.000000,0.000000,0.000000,819,819,819,819
9726,0,1.900000,1.350000,0.000000,-0.00,0.00,-0.000336,0.006000,0.000000,0.000000,0.000000,0.000000,0.000000,0.000000,0.009253,-0.006644,0.000133,0.000000,0.000000,0.000000,0.000000,819,819,819,819
9737,0,1.900000,1.350000,0.000000,-0.00,0.00,-0.000822,0.006000,0.000000,0.000000,0.000000,0.000000,0.000000,0.000000,0.009250,-0.006645,0.000139,0.000000,0.000000,0.000000,0.000000,819,819,819,819
9747,0,1.900000,1.350000,0.000000,-0.00,0.00,-0.001159,0.006000,0.000000,0.000000,0.000000,0.000000,0.000000,0.000000,0.009249,-0.006652,0.000145,0.000000,0.000000,0.000000,0.000000,819,819,819,819
9757,0,1.900000,1.350000,0.000000,-0.00,0.00,-0.001463,0.006000,0.000000,0.000000,0.000000,0.000000,0.000000,0.000000,0.009250,-0.006655,0.000151,0.000000,0.000000,0.000000,0.000000,819,819,819,819
9767,0,1.900000,1.350000,0.000000,-0.00,0.00,-0.001635,0.006000,0.000000,0.000000,0.000000,0.000000,0.000000,0.000000,0.009248,-0.006656,0.000156,0.000000,0.000000,0.000000,0.000000,819,819,819,819
9777,0,1.900000,1.350000,0.000000,-0.00,0.00,-0.001583,0.006000,0.000000,0.000000,0.000000,0.000000,0.000000,0.000000,0.009247,-0.006657,0.000158,0.000000,0.000000,0.000000,0.000000,819,819,819,819
9787,0,1.900000,1.350000,0.000000,-0.00,0.00,-0.001329,0.006000,0.000000,0.000000,0.000000,0.000000,0.000000,0.000000,0.009246,-0.006657,0.000158,0.000000,0.000000,0.000000,0.000000,819,819,819,819
9797,0,1.900000,1.350000,0.000000,-0.00,0.00,-0.000996,0.007000,0.000000,0.000000,0.000000,0.000000,0.000000,0.000000,0.009245,-0.006658,0.000157,0.000000,0.000000,0.000000,0.000000,819,819,819,819
9807,0,1.900000,1.350000,0.000000,-0.00,0.00,-0.000590,0.007000,0.000000,0.000000,0.000000,0.000000,0.000000,0.000000,0.009243,-0.006659,0.000154,0.000000,0.000000,0.000000,0.000000,819,819,819,819
9817,0,1.900000,1.350000,0.000000,-0.00,0.00,-0.000431,0.007000,0.000000,0.000000,0.000000,0.000000,0.000000,0.000000,0.009243,-0.006659,0.000153,0.000000,0.000000,0.000000,0.000000,819,819,819,819
9827,0,1.900000,1.350000,0.000000,-0.00,0.00,-0.000597,0.006000,0.000000,0.000000,0.000000,0.000000,0.000000,0.000000,0.009242,-0.006663,0.000156,0.000000,0.000000,0.000000,0.000000,819,819,819,819
9837,0,1.900000,1.350000,0.000000,-0.00,0.00,-0.000747,0.006000,0.000000,0.000000,0.000000,0.000000,0.000000,0.000000,0.009240,-0.006668,0.000159,0.000000,0.000000,0.000000,0.000000,819,819,819,819
9847,0,1.900000,1.350000,0.000000,-0.00,0.00,-0.001091,0.006000,0.000000,0.000000,0.000000,0.000000,0.000000,0.000000,0.009241,-0.006668,0.000165,0.000000,0.000000,0.000000,0.000000,819,819,819,819
9857,0,1.900000,1.350000,0.000000,-0.00,0.00,-0.001402,0.006000,0.000000,0.000000,0.000000,0.000000,0.000000,0.000000,0.009241,-0.006669,0.000171,0.000000,0.000000,0.000000,0.000000,819,819,819,819
9867,0,1.900000,1.350000,0.000000,-0.00,0.00,-0.001683,0.006000,0.000000,0.000000,0.000000,0.000000,0.000000,0.000000,0.009241,-0.006669,0.000177,0.000000,0.000000,0.000000,0.000000,819,819,819,819
9877,0,1.900000,1.350000,0.000000,-0.00,0.00,-0.001731,0.006000,0.000000,0.000000,0.000000,0.000000,0.000000,0.000000,0.009241,-0.006670,0.000181,0.000000,0.000000,0.000000,0.000000,819,819,819,819
9887,0,1.900000,1.350000,0.000000,-0.00,0.00,-0.001359,0.006000,0.000000,0.000000,0.000000,0.000000,0.000000,0.000000,0.009239,-0.006669,0.000180,0.000000,0.000000,0.000000,0.000000,819,819,819,819
9897,0,1.900000,1.350000,0.000000,-0.00,0.00,-0.001126,0.008000,0.000000,0.000000,0.000000,0.000000,0.000000,0.000000,0.009238,-0.006674,0.000179,0.000000,0.000000,0.000000,0.000000,819,819,819,819
9907,0,1.900000,1.350000,0.000000,-0.00,0.00,-0.000501,0.008000,0.000000,0.000000,0.000000,0.000000,0.000000,0.000000,0.009237,-0.006679,0.000174,0.000000,0.000000,0.000000,0.000000,819,819,819,819
9917,0,1.900000,1.350000,0.000000,-0.00,0.00,-0.000246,0.008000,0.000000,0.000000,0.000000,0.000000,0.000000,0.000000,0.009238,-0.006682,0.000172,0.000000,0.000000,0.000000,0.000000,819,819,819,819
9927,0,1.900000,1.350000,0.000000,-0.00,0.00,-0.000119,0.009000,0.000000,0.000000,0.000000,0.000000,0.000000,0.000000,0.009237,-0.006680,0.000171,0.000000,0.000000,0.000000,0.000000,819,819,819,819
9938,0,1.900000,1.350000,0.000000,-0.00,0.00,-0.000108,0.010000,0.000000,0.000000,0.000000,0.000000,0.000000,0.000000,0.009239,-0.006682,0.000171,0.000000,0.000000,0.000000,0.000000,819,819,819,819
9947,0,1.900000,1.350000,0.000000,-0.00,0.00,-0.000201,0.010000,0.000000,0.000000,0.000000,0.000000,0.000000,0.000000,0.009237,-0.006684,0.000172,0.000000,0.000000,0.000000,0.000000,819,819,819,819
9957,0,1.900000,1.350000,0.000000,-0.00,0.00,-0.000493,0.010000,0.000000,0.000000,0.000000,0.000000,0.000000,0.000000,0.009237,-0.006686,0.000176,0.000000,0.000000,0.000000,0.000000,819,819,819,819
9967,0,1.900000,1.350000,0.000000,0.00,0.00,-0.000861,0.010000,0.000000,0.000000,0.000000,0.000000,0.000000,0.000000,0.009239,-0.006689,0.000182,0.000000,0.000000,0.000000,0.000000,819,819,819,819
9977,0,1.900000,1.350000,0.000000,0.00,0.00,-0.001090,0.010000,0.000000,0.000000,0.000000,0.000000,0.000000,0.000000,0.009239,-0.006691,0.000186,0.000000,0.000000,0.000000,0.000000,819,819,819,819
9987,0,1.900000,1.350000,0.000000,0.00,0.00,-0.001297,0.010000,0.000000,0.000000,0.000000,0.000000,0.000000,0.000000,0.009240,-0.006694,0.000191,0.000000,0.000000,0.000000,0.000000,819,819,819,819
9997,0,1.900000,1.350000,0.000000,0.00,0.00,-0.001070,0.010000,0.000000,0.000000,0.000000,0.000000,0.000000,0.000000,0.009239,-0.006692,0.000191,0.000000,0.000000,0.000000,0.000000,819,819,819,819
10007,0,1.900000,1.350000,0.000000,0.00,0.00,-0.000554,0.010000,0.000000,0.000000,0.000000,0.000000,0.000000,0.000000,0.009240,-0.006696,0.000187,0.000000,0.000000,0.000000,0.000000,819,819,819,819
10025,0,1.900000,1.350000,0.000000,-0.00,0.00,-0.000398,0.010000,0.000000,0.000000,0.000000,0.000000,0.000000,0.000000,0.009239,-0.006697,0.000186,0.000000,0.000000,0.000000,0.000000,819,819,819,819
10037,0,1.900000,1.350000,0.000000,-0.00,0.00,-0.000049,0.010000,0.000000,0.000000,0.000000,0.000000,0.000000,0.000000,0.009236,-0.006700,0.000183,0.000000,0.000000,0.000000,0.000000,819,819,819,819
10048,0,1.900000,1.350000,0.000000,-0.00,0.00,0.000163,0.011000,0.000000,0.000000,0.000000,0.000000,0.000000,0.000000,0.009238,-0.006702,0.000180,0.000000,0.000000,0.000000,0.000000,819,819,819,819
10058,0,1.900000,1.350000,0.000000,-0.00,0.00,0.000044,0.011000,0.000000,0.000000,0.000000,0.000000,0.000000,0.000000,0.009237,-0.006703,0.000181,0.000000,0.000000,0.000000,0.000000,819,819,819,819
10068,0,1.900000,1.350000,0.000000,-0.00,0.00,-0.000168,0.011000,0.000000,0.000000,0.000000,0.000000,0.000000,0.000000,0.009237,-0.006705,0.000184,0.000000,0.000000,0.000000,0.000000,819,819,819,819
10078,0,1.900000,1.350000,0.000000,-0.00,0.00,-0.000877,0.011000,0.000000,0.000000,0.000000,0.000000,0.000000,0.000000,0.009236,-0.006708,0.000193,0.000000,0.000000,0.000000,0.000000,819,819,819,819
10088,0,1.900000,1.350000,0.000000,-0.00,0.00,-0.001312,0.011000,0.000000,0.000000,0.000000,0.000000,0.000000,0.000000,0.009236,-0.006713,0.000200,0.000000,0.000000,0.000000,0.000000,819,819,819,819
10098,0,1.900000,1.350000,0.000000,-0.00,0.00,-0.001291,0.011000,0.000000,0.000000,0.000000,0.000000,0.000000,0.000000,0.009235,-0.006714,0.000202,0.000000,0.000000,0.000000,0.000000,819,819,819,819
