t,is_crashed,roll,pitch,yaw,p,q,r,throttle,p_cmd,q_cmd,r_cmd,roll_cmd,pitch_cmd,yaw_cmd,roll_pid_out,pitch_pid_out,yaw_pid_out,motor_fl,motor_bl,motor_fr,motor_br,pwm_fl,pwm_bl,pwm_fr,pwm_br
6988,0,0.362500,0.362500,0.000000,0.00,0.00,0.000311,0.004000,0.000000,0.399995,0.000000,0.000000,0.000000,0.000000,0.000000,0.250000,-0.001600,0.000000,0.000000,0.000000,0.000000,0,0,0,0
7002,0,0.580000,0.580000,0.000000,0.08,0.08,0.000281,0.004000,0.000000,0.399995,0.000000,0.000000,0.000000,0.000000,0.250000,0.250000,-0.001449,0.000000,0.000000,0.000000,0.000000,819,819,819,819
7014,0,0.754000,0.754000,0.000000,0.14,0.14,0.000255,0.004000,0.000000,0.399995,0.000000,0.000000,0.000000,0.000000,0.250000,0.250000,-0.001312,0.000000,0.000000,0.000000,0.000000,819,819,819,819
7026,0,0.893200,0.893200,0.000000,0.19,0.19,0.000749,0.004000,0.000000,0.399995,0.000000,0.000000,0.000000,0.000000,0.250000,0.250000,-0.003855,0.000000,0.000000,0.000000,0.000000,819,819,819,819
7036,0,1.004560,1.004560,0.000000,0.22,0.22,0.000677,0.004000,0.000000,0.399995,0.000000,0.000000,0.000000,0.000000,0.250000,0.250000,-0.003492,0.000000,0.000000,0.000000,0.000000,819,819,819,819
7046,0,1.093648,1.093648,0.000000,0.25,0.25,0.000406,0.004000,0.000000,0.399995,0.000000,0.000000,0.000000,0.000000,0.250000,0.250000,-0.002096,0.000000,0.000000,0.000000,0.000000,819,819,819,819
7056,0,1.164918,1.164918,0.000000,0.26,0.26,-0.000047,0.004000,0.000000,0.399995,0.000000,0.000000,0.000000,0.000000,0.250000,0.250000,0.000234,0.000000,0.000000,0.000000,0.000000,819,819,819,819
7066,0,1.221935,1.221935,0.000000,0.26,0.26,-0.000250,0.004000,0.000000,0.399995,0.000000,0.000000,0.000000,0.000000,0.250000,0.250000,0.001277,0.000000,0.000000,0.000000,0.000000,819,819,819,819
7075,0,1.267548,1.267548,0.000000,0.26,0.26,-0.000123,0.004000,0.000000,0.399995,0.000000,0.000000,0.000000,0.000000,0.250000,0.250000,0.000622,0.000000,0.000000,0.000000,0.000000,819,819,819,819
7089,0,1.304038,1.304038,0.000000,0.25,0.25,-0.000007,0.004000,0.000000,0.399995,0.000000,0.000000,0.000000,0.000000,0.250000,0.250000,0.000030,0.000000,0.000000,0.000000,0.000000,819,819,819,819
7103,0,1.333231,1.333231,0.000000,0.23,0.23,0.000201,0.004000,0.000000,0.399995,0.000000,0.000000,0.000000,0.000000,0.250000,0.250000,-0.001040,0.000000,0.000000,0.000000,0.000000,819,819,819,819
7114,0,1.356584,1.356584,0.000000,0.22,0.22,0.000492,0.004000,0.000000,0.399995,0.000000,0.000000,0.000000,0.000000,0.250000,0.250000,-0.002542,0.000000,0.000000,0.000000,0.000000,819,819,819,819
7126,0,1.375268,1.375268,0.000000,0.21,0.21,0.000653,0.004000,0.000000,0.399995,0.000000,0.000000,0.000000,0.000000,0.250000,0.250000,-0.003369,0.000000,0.000000,0.000000,0.000000,819,819,819,819
7136,0,1.390214,1.390214,0.000000,0.19,0.19,0.000695,0.004000,0.000000,0.399995,0.000000,0.000000,0.000000,0.000000,0.250000,0.250000,-0.003585,0.000000,0.000000,0.000000,0.000000,819,819,819,819
7145,0,1.402171,1.402171,0.000000,0.18,0.18,0.000629,0.004000,0.000000,0.399995,0.000000,0.000000,0.000000,0.000000,0.250000,0.250000,-0.003248,0.000000,0.000000,0.000000,0.000000,819,819,819,819
7156,0,1.411737,1.411737,0.000000,0.17,0.17,0.000362,0.004000,0.000000,0.399995,0.000000,0.000000,0.000000,0.000000,0.250000,0.250000,-0.001877,0.000000,0.000000,0.000000,0.000000,819,819,819,819
7165,0,1.419389,1.419389,0.000000,0.15,0.16,0.000224,0.004000,0.000000,0.399995,0.000000,0.000000,0.000000,0.000000,0.250000,0.250000,-0.001169,0.000000,0.000000,0.000000,0.000000,819,819,819,819
7175,0,1.425512,1.425512,0.000000,0.14,0.14,0.000099,0.004000,0.000000,0.399995,0.000000,0.000000,0.000000,0.000000,0.250000,0.250000,-0.000527,0.000000,0.000000,0.000000,0.000000,819,819,819,819
7186,0,1.430409,1.430409,0.000000,0.13,0.13,0.000193,0.004000,0.000000,0.399995,0.000000,0.000000,0.000000,0.000000,0.250000,0.250000,-0.001012,0.000000,0.000000,0.000000,0.000000,819,819,819,819
7195,0,1.434327,1.434327,0.000000,0.12,0.12,-0.000033,0.004000,0.000000,0.399995,0.000000,0.000000,0.000000,0.000000,0.250000,0.250000,0.000147,0.000000,0.000000,0.000000,0.000000,819,819,819,819
7206,0,1.437462,1.437462,0.000000,0.11,0.11,-0.000133,0.004000,0.000000,0.399995,0.000000,0.000000,0.000000,0.000000,0.250000,0.250000,0.000664,0.000000,0.000000,0.000000,0.000000,819,819,819,819
7216,0,1.439970,1.439970,0.000000,0.10,0.10,0.000294,0.004000,0.000000,0.399995,0.000000,0.000000,0.000000,0.000000,0.250000,0.250000,-0.001532,0.000000,0.000000,0.000000,0.000000,819,819,819,819
7225,0,1.441976,1.441976,0.000000,0.09,0.09,0.000681,0.004000,0.000000,0.399995,0.000000,0.000000,0.000000,0.000000,0.250000,0.250000,-0.003521,0.000000,0.000000,0.000000,0.000000,819,819,819,819
7236,0,1.443581,1.443581,0.000000,0.08,0.08,0.000720,0.004000,0.000000,0.399995,0.000000,0.000000,0.000000,0.000000,0.250000,0.250000,-0.003723,0.000000,0.000000,0.000000,0.000000,819,819,819,819
7246,0,1.444864,1.444864,0.000000,0.07,0.08,0.000340,0.004000,0.000000,0.000000,0.000000,0.000000,0.000000,0.000000,0.250000,-0.250000,-0.001776,0.000000,0.000000,0.000000,0.000000,819,819,819,819
7256,0,1.445891,1.445891,0.000000,0.07,0.07,0.000204,0.004000,0.000000,0.000000,0.000000,0.000000,0.000000,0.000000,0.250000,-0.250000,-0.001078,0.000000,0.000000,0.000000,0.000000,819,819,819,819
7266,0,1.446713,1.446713,0.000000,0.06,0.06,0.000496,0.004000,0.000000,0.399995,0.000000,0.000000,0.000000,0.000000,0.250000,0.250000,-0.002577,0.000000,0.000000,0.000000,0.000000,819,819,819,819
7276,0,1.447371,1.447371,0.000000,0.06,0.06,0.000552,0.004000,0.000000,0.399995,0.000000,0.000000,0.000000,0.000000,0.250000,0.250000,-0.002870,0.000000,0.000000,0.000000,0.000000,819,819,819,819
7286,0,1.447896,1.447896,0.000000,0.05,0.05,0.000500,0.004000,0.000000,0.399995,0.000000,0.000000,0.000000,0.000000,0.250000,0.250000,-0.002602,0.000000,0.000000,0.000000,0.000000,819,819,819,819
7296,0,1.448317,1.448317,0.000000,0.05,0.04,0.000245,0.004000,0.000000,0.399995,0.000000,0.000000,0.000000,0.000000,0.249073,0.250000,-0.001294,0.000000,0.000000,0.000000,0.000000,819,819,819,819
7306,0,1.448654,1.448654,0.000000,0.04,0.04,0.000222,0.004000,0.000000,0.399995,0.000000,0.000000,0.000000,0.000000,0.226733,0.250000,-0.001175,0.000000,0.000000,0.000000,0.000000,819,819,819,819
7316,0,1.448923,1.448923,0.000000,0.04,0.04,0.000097,0.004000,0.000000,0.399995,0.000000,0.000000,0.000000,0.000000,0.205924,0.250000,-0.000535,0.000000,0.000000,0.000000,0.000000,819,819,819,819
7326,0,1.449138,1.449138,0.000000,0.03,0.03,-0.000119,0.004000,0.000000,0.399995,0.000000,0.000000,0.000000,0.000000,0.188123,0.250000,0.000578,0.000000,0.000000,0.000000,0.000000,819,819,819,819
7336,0,1.449311,1.449311,0.000000,0.03,0.03,0.000099,0.004000,0.000000,0.399995,0.000000,0.000000,0.000000,0.000000,0.170927,0.250000,-0.000545,0.000000,0.000000,0.000000,0.000000,819,819,819,819
7346,0,1.449448,1.449448,0.000000,0.03,0.03,-0.000014,0.004000,0.000000,0.399995,0.000000,0.000000,0.000000,0.000000,0.154831,0.250000,0.000035,0.000000,0.000000,0.000000,0.000000,819,819,819,819
7356,0,1.449559,1.449559,0.000000,0.02,0.03,0.000195,0.004000,0.000000,0.399995,0.000000,0.000000,0.000000,0.000000,0.141338,0.250000,-0.001037,0.000000,0.000000,0.000000,0.000000,819,819,819,819
7366,0,1.449647,1.449647,0.000000,0.02,0.02,0.000694,0.004000,0.000000,0.399995,0.000000,0.000000,0.000000,0.000000,0.128607,0.250000,-0.003605,0.000000,0.000000,0.000000,0.000000,819,819,819,819
7376,0,1.449718,1.449718,0.000000,0.02,0.02,0.000836,0.004000,0.000000,0.399995,0.000000,0.000000,0.000000,0.000000,0.117103,0.250000,-0.004334,0.000000,0.000000,0.000000,0.000000,819,819,819,819
7386,0,1.449774,1.449774,0.000000,0.02,0.02,0.000860,0.004000,0.000000,0.399995,0.000000,0.000000,0.000000,0.000000,0.107247,0.250000,-0.004461,0.000000,0.000000,0.000000,0.000000,819,819,819,819
7396,0,1.449819,1.449819,0.000000,0.02,0.02,0.000778,0.004000,0.000000,0.399995,0.000000,0.000000,0.000000,0.000000,0.099412,0.250000,-0.004044,0.000000,0.000000,0.000000,0.000000,819,819,819,819
7411,0,1.449855,1.449855,0.000000,0.01,0.02,0.000290,0.004000,0.000000,0.399995,0.000000,0.000000,0.000000,0.000000,0.091775,0.250000,-0.001537,0.000000,0.000000,0.000000,0.000000,819,819,819,819
7425,0,1.449884,1.449884,0.000000,0.01,0.01,-0.000049,0.004000,0.000000,0.399995,0.000000,0.000000,0.000000,0.000000,0.084893,0.250000,0.000201,0.000000,0.000000,0.000000,0.000000,819,819,819,819
7436,0,1.449907,1.449907,0.000000,0.01,0.01,-0.000148,0.004000,0.000000,0.399995,0.000000,0.000000,0.000000,0.000000,0.077637,0.250000,0.000710,0.000000,0.000000,0.000000,0.000000,819,819,819,819
7446,0,1.449926,1.449926,0.000000,0.01,0.01,0.000177,0.004000,0.000000,0.000000,0.000000,0.000000,0.000000,0.000000,0.072165,-0.016403,-0.000959,0.000000,0.000000,0.000000,0.000000,819,819,819,819
7456,0,1.449941,1.449941,0.000000,0.01,0.01,0.000471,0.004000,0.000000,0.000000,0.000000,0.000000,0.000000,0.000000,0.066699,-0.007943,-0.002471,0.000000,0.000000,0.000000,0.000000,819,819,819,819
7466,0,1.449952,1.449952,0.000000,0.00,0.00,0.000634,0.004000,0.000000,0.399995,0.000000,0.000000,0.000000,0.000000,0.061772,0.250000,-0.003307,0.000000,0.000000,0.000000,0.000000,819,819,819,819
7476,0,1.449962,1.449962,0.000000,0.00,0.00,0.000781,0.004000,0.000000,0.399995,0.000000,0.000000,0.000000,0.000000,0.056268,0.250000,-0.004065,0.000000,0.000000,0.000000,0.000000,819,819,819,819
7486,0,1.449970,1.449970,0.000000,0.00,0.00,0.000810,0.004000,0.000000,0.399995,0.000000,0.000000,0.000000,0.000000,0.051840,0.250000,-0.004219,0.000000,0.000000,0.000000,0.000000,819,819,819,819
7496,0,1.449976,1.449976,0.000000,0.00,0.00,0.000526,0.004000,0.000000,0.399995,0.000000,0.000000,0.000000,0.000000,0.047852,0.250000,-0.002762,0.000000,0.000000,0.000000,0.000000,819,819,819,819
7506,0,1.449981,1.449981,0.000000,0.00,0.00,0.000062,0.004000,0.000000,0.399995,0.000000,0.000000,0.000000,0.000000,0.044791,0.250000,-0.000377,0.000000,0.000000,0.000000,0.000000,819,819,819,819
7516,0,1.449984,1.449984,0.000000,0.00,0.00,-0.000048,0.004000,0.000000,0.399995,0.000000,0.000000,0.000000,0.000000,0.040437,0.250000,0.000185,0.000000,0.000000,0.000000,0.000000,819,819,819,819
7526,0,1.449988,1.449988,0.000000,0.00,0.00,-0.000147,0.004000,0.000000,0.000000,0.000000,0.000000,0.000000,0.000000,0.038645,0.028025,0.000694,0.000000,0.000000,0.000000,0.000000,819,819,819,819
7537,0,1.449990,1.449990,0.000000,0.00,0.00,0.000281,0.004000,0.000000,0.399995,0.000000,0.000000,0.000000,0.000000,0.035965,0.250000,-0.001506,0.000000,0.000000,0.000000,0.000000,819,819,819,819
7546,0,1.449992,1.449992,0.000000,0.00,0.00,0.000669,0.004000,0.000000,0.399995,0.000000,0.000000,0.000000,0.000000,0.033554,0.250000,-0.003499,0.000000,0.000000,0.000000,0.000000,819,819,819,819
7556,0,1.449994,1.449994,0.000000,0.00,0.00,0.001124,0.004000,0.000000,0.399995,0.000000,0.000000,0.000000,0.000000,0.030849,0.250000,-0.005836,0.000000,0.000000,0.000000,0.000000,819,819,819,819
7566,0,1.449995,1.449995,0.000000,0.00,0.00,0.001017,0.004000,0.000000,0.399995,0.000000,0.000000,0.000000,0.000000,0.029478,0.250000,-0.005292,0.000000,0.000000,0.000000,0.000000,819,819,819,819
7576,0,1.449996,1.449996,0.000000,0.00,0.00,0.000817,0.004000,0.000000,0.399995,0.000000,0.000000,0.000000,0.000000,0.028775,0.250000,-0.004267,0.000000,0.000000,0.000000,0.000000,819,819,819,819
7587,0,1.449997,1.449997,0.000000,0.00,0.00,0.001050,0.004000,0.000000,0.399995,0.000000,0.000000,0.000000,0.000000,0.028142,0.250000,-0.005468,0.000000,0.000000,0.000000,0.000000,819,819,819,819
7597,0,1.449997,1.449997,0.000000,0.00,0.00,0.001261,0.004000,0.000000,0.399995,0.000000,0.000000,0.000000,0.000000,0.025977,0.250000,-0.006556,0.000000,0.000000,0.000000,0.000000,819,819,819,819
7606,0,1.449998,1.449998,0.000000,0.00,0.00,0.001245,0.004000,0.000000,0.399995,0.000000,0.000000,0.000000,0.000000,0.025623,0.250000,-0.006478,0.000000,0.000000,0.000000,0.000000,819,819,819,819
7616,0,1.449998,1.449998,0.000000,0.00,0.00,0.001541,0.004000,0.000000,0.399995,0.000000,0.000000,0.000000,0.000000,0.025837,0.250000,-0.008003,0.000000,0.000000,0.000000,0.000000,819,819,819,819
7627,0,1.449999,1.449999,0.000000,0.00,0.00,0.001498,0.004000,0.000000,0.399995,0.000000,0.000000,0.000000,0.000000,0.024434,0.250000,-0.007789,0.000000,0.000000,0.000000,0.000000,819,819,819,819
7637,0,1.449999,1.449999,0.000000,0.00,0.00,0.001356,0.004000,0.000000,0.399995,0.000000,0.000000,0.000000,0.000000,0.024235,0.250000,-0.007064,0.000000,0.000000,0.000000,0.000000,819,819,819,819
7647,0,1.449999,1.449999,0.000000,0.00,0.00,0.000916,0.004000,0.000000,0.399995,0.000000,0.000000,0.000000,0.000000,0.021395,0.250000,-0.004811,0.000000,0.000000,0.000000,0.000000,819,819,819,819
7657,0,1.449999,1.449999,0.000000,0.00,0.00,0.001037,0.004000,0.000000,0.399995,0.000000,0.000000,0.000000,0.000000,0.020434,0.250000,-0.005432,0.000000,0.000000,0.000000,0.000000,819,819,819,819
7667,0,1.449999,1.449999,0.000000,0.00,0.00,0.001145,0.004000,0.000000,0.399995,0.000000,0.000000,0.000000,0.000000,0.020633,0.250000,-0.005994,0.000000,0.000000,0.000000,0.000000,819,819,819,819
7677,0,1.449999,1.449999,0.000000,0.00,0.00,0.000933,0.004000,0.000000,0.000000,0.000000,0.000000,0.000000,0.000000,0.020280,0.069268,-0.004907,0.000000,0.000000,0.000000,0.000000,819,819,819,819
7687,0,1.450000,1.450000,0.000000,0.00,0.00,0.000741,0.004000,0.000000,0.000000,0.000000,0.000000,0.000000,0.000000,0.018899,0.069564,-0.003924,0.000000,0.000000,0.000000,0.000000,819,819,819,819
7697,0,1.450000,1.450000,0.000000,0.00,0.00,0.000670,0.004000,0.000000,0.399995,0.000000,0.000000,0.000000,0.000000,0.018719,0.250000,-0.003565,0.000000,0.000000,0.000000,0.000000,819,819,819,819
7707,0,1.450000,1.450000,0.000000,-0.00,-0.00,0.000814,0.004000,0.000000,0.399995,0.000000,0.000000,0.000000,0.000000,0.016961,0.250000,-0.004305,0.000000,0.000000,0.000000,0.000000,819,819,819,819
7717,0,1.450000,1.450000,0.000000,-0.00,-0.00,0.000633,0.004000,0.000000,0.399995,0.000000,0.000000,0.000000,0.000000,0.016441,0.250000,-0.003379,0.000000,0.000000,0.000000,0.000000,819,819,819,819
7733,0,1.450000,1.450000,0.000000,0.00,-0.00,0.000987,0.004000,0.000000,0.399995,0.000000,0.000000,0.000000,0.000000,0.017569,0.250000,-0.005200,0.000000,0.000000,0.000000,0.000000,819,819,819,819
7747,0,1.450000,1.450000,0.000000,0.00,-0.00,0.001308,0.004000,0.000000,0.399995,0.000000,0.000000,0.000000,0.000000,0.018585,0.250000,-0.006850,0.000000,0.000000,0.000000,0.000000,819,819,819,819
7757,0,1.450000,1.450000,0.000000,0.00,0.00,0.001080,0.004000,0.000000,0.399995,0.000000,0.000000,0.000000,0.000000,0.019500,0.250000,-0.005685,0.000000,0.000000,0.000000,0.000000,819,819,819,819
7767,0,1.450000,1.450000,0.000000,0.00,0.00,0.000356,0.004000,0.000000,0.399995,0.000000,0.000000,0.000000,0.000000,0.019792,0.250000,-0.001971,0.000000,0.000000,0.000000,0.000000,819,819,819,819
7777,0,1.450000,1.450000,0.000000,0.00,0.00,-0.000403,0.004000,0.000000,0.399995,0.000000,0.000000,0.000000,0.000000,0.018992,0.250000,0.001924,0.000000,0.000000,0.000000,0.000000,819,819,819,819
7787,0,1.450000,1.450000,0.000000,0.00,-0.00,-0.001194,0.004000,0.000000,0.399995,0.000000,0.000000,0.000000,0.000000,0.018803,0.250000,0.005984,0.000000,0.000000,0.000000,0.000000,819,819,819,819
7797,0,1.450000,1.462500,0.000000,0.00,0.00,-0.001910,0.004000,0.000000,0.399995,0.000000,0.000000,0.000000,0.000000,0.019165,0.250000,0.009661,0.000000,0.000000,0.000000,0.000000,819,819,819,819
7807,0,1.450000,1.472500,0.000000,0.00,0.00,-0.002350,0.004000,0.000000,0.399995,0.000000,0.000000,0.000000,0.000000,0.020555,0.250000,0.011928,0.000000,0.000000,0.000000,0.000000,819,819,819,819
7817,0,1.450000,1.480500,0.000000,0.00,0.01,-0.002230,0.004000,0.000000,0.399995,0.000000,0.000000,0.000000,0.000000,0.021275,0.250000,0.011323,0.000000,0.000000,0.000000,0.000000,819,819,819,819
7827,0,1.450000,1.486900,0.000000,0.00,0.02,-0.001397,0.004000,0.000000,0.399995,0.000000,0.000000,0.000000,0.000000,0.022455,0.250000,0.007053,0.000000,0.000000,0.000000,0.000000,819,819,819,819
7837,0,1.450000,1.492020,0.000000,0.00,0.02,0.000394,0.004000,0.000000,0.399995,0.000000,0.000000,0.000000,0.000000,0.022987,0.250000,-0.002131,0.000000,0.000000,0.000000,0.000000,819,819,819,819
7847,0,1.450000,1.496116,0.000000,0.00,0.02,0.002015,0.004000,0.000000,0.399995,0.000000,0.000000,0.000000,0.000000,0.023999,0.250000,-0.010449,0.000000,0.000000,0.000000,0.000000,819,819,819,819
7859,0,1.450000,1.499393,0.000000,0.00,0.02,0.002445,0.004000,0.000000,0.399995,0.000000,0.000000,0.000000,0.000000,0.023847,0.250000,-0.012665,0.000000,0.000000,0.000000,0.000000,819,819,819,819
7869,0,1.450000,1.502014,0.000000,0.00,0.02,0.001591,0.004000,0.000000,0.399995,0.000000,0.000000,0.000000,0.000000,0.023710,0.250000,-0.008292,0.000000,0.000000,0.000000,0.000000,819,819,819,819
7878,0,1.450000,1.504111,0.000000,0.00,0.02,-0.000426,0.004000,0.000000,0.399995,0.000000,0.000000,0.000000,0.000000,0.023056,0.250000,0.002048,0.000000,0.000000,0.000000,0.000000,819,819,819,819
7888,0,1.450000,1.505789,0.000000,0.00,0.01,-0.002665,0.004000,0.000000,0.399995,0.000000,0.000000,0.000000,0.000000,0.022467,0.250000,0.013540,0.000000,0.000000,0.000000,0.000000,819,819,819,819
7897,0,1.450000,1.507131,0.000000,0.00,0.01,-0.003966,0.004000,0.000000,0.399995,0.000000,0.000000,0.000000,0.000000,0.022469,0.250000,0.020226,0.000000,0.000000,0.000000,0.000000,819,819,819,819
7907,0,1.450000,1.508205,0.000000,0.00,0.01,-0.004108,0.004000,0.000000,0.399995,0.000000,0.000000,0.000000,0.000000,0.023003,0.250000,0.020966,0.000000,0.000000,0.000000,0.000000,819,819,819,819
7917,0,1.450000,1.509064,0.000000,0.00,0.01,-0.002785,0.004000,0.000000,0.399995,0.000000,0.000000,0.000000,0.000000,0.024547,0.250000,0.014195,0.000000,0.000000,0.000000,0.000000,819,819,819,819
7927,0,1.450000,1.509751,0.000000,0.00,0.01,-0.000551,0.004000,0.000000,0.000000,0.000000,0.000000,0.000000,0.000000,0.024344,0.041307,0.002748,0.000000,0.000000,0.000000,0.000000,819,819,819,819
7938,0,1.450000,1.510301,0.000000,0.00,0.01,0.001159,0.004000,0.000000,0.000000,0.000000,0.000000,0.000000,0.000000,0.024693,0.043780,-0.006024,0.000000,0.000000,0.000000,0.000000,819,819,819,819
7947,0,1.450000,1.510741,0.000000,0.00,0.01,0.001360,0.004000,0.000000,0.000000,0.000000,0.000000,0.000000,0.000000,0.024476,0.048689,-0.007059,0.000000,0.000000,0.000000,0.000000,819,819,819,819
7957,0,1.450000,1.511093,0.000000,0.00,0.01,-0.000427,0.004000,0.000000,0.399995,0.000000,0.000000,0.000000,0.000000,0.023218,0.250000,0.002104,0.000000,0.000000,0.000000,0.000000,819,819,819,819
7967,0,1.450000,1.511374,0.000000,0.00,0.00,-0.003081,0.004000,0.000000,0.399995,0.000000,0.000000,0.000000,0.000000,0.022086,0.250000,0.015718,0.000000,0.000000,0.000000,0.000000,819,819,819,819
7977,0,1.450000,1.511599,0.000000,0.00,0.00,-0.005897,0.004000,0.000000,0.399995,0.000000,0.000000,0.000000,0.000000,0.022129,0.250000,0.030175,0.000000,0.000000,0.000000,0.000000,819,819,819,819
7988,0,1.462500,1.511780,0.000000,0.00,0.00,-0.007720,0.004000,0.000000,0.399995,0.000000,0.000000,0.000000,0.000000,0.051844,0.250000,0.039549,0.000000,0.000000,0.000000,0.000000,819,819,819,819
7998,0,1.472500,1.511924,0.000000,0.01,0.00,-0.007401,0.004000,0.000000,0.399995,0.000000,0.000000,0.000000,0.000000,0.075643,0.250000,0.037943,0.000000,0.000000,0.000000,0.000000,819,819,819,819
8008,0,1.480500,1.512039,0.000000,0.01,0.00,-0.005662,0.004000,0.000000,0.399995,0.000000,0.000000,0.000000,0.000000,0.091422,0.250000,0.029050,0.000000,0.000000,0.000000,0.000000,819,819,819,819
8018,0,1.486900,1.512131,0.000000,0.02,0.00,-0.003673,0.004000,0.000000,0.399995,0.000000,0.000000,0.000000,0.000000,0.101536,0.250000,0.018873,0.000000,0.000000,0.000000,0.000000,819,819,819,819
8028,0,1.492020,1.512205,0.000000,0.02,0.00,-0.002392,0.004000,0.000000,0.399995,0.000000,0.000000,0.000000,0.000000,0.107900,0.250000,0.012314,0.000000,0.000000,0.000000,0.000000,819,819,819,819
8041,0,1.496116,1.512264,0.000000,0.02,0.00,-0.002061,0.004000,0.000000,0.399995,0.000000,0.000000,0.000000,0.000000,0.108588,0.250000,0.010626,0.000000,0.000000,0.000000,0.000000,819,819,819,819
8055,0,1.499393,1.512311,0.000000,0.02,0.00,-0.002072,0.004000,0.000000,0.399995,0.000000,0.000000,0.000000,0.000000,0.108131,0.250000,0.010693,0.000000,0.000000,0.000000,0.000000,819,819,819,819
8066,0,1.502014,1.512349,0.000000,0.02,0.00,-0.002290,0.004000,0.000000,0.399995,0.000000,0.000000,0.000000,0.000000,0.106865,0.250000,0.011817,0.000000,0.000000,0.000000,0.000000,819,819,819,819
8077,0,1.504111,1.512379,0.000000,0.02,0.00,-0.003005,0.004000,0.000000,0.399995,0.000000,0.000000,0.000000,0.000000,0.103424,0.250000,0.015493,0.000000,0.000000,0.000000,0.000000,819,819,819,819
8088,0,1.505789,1.512403,0.000000,0.02,0.00,-0.004067,0.004000,0.000000,0.399995,0.000000,0.000000,0.000000,0.000000,0.097760,0.250000,0.020949,0.000000,0.000000,0.000000,0.000000,819,819,819,819
8098,0,1.507131,1.512423,0.000000,0.01,0.00,-0.005235,0.004000,0.000000,0.399995,0.000000,0.000000,0.000000,0.000000,0.088476,0.250000,0.026954,0.000000,0.000000,0.000000,0.000000,819,819,819,819
8108,0,1.508205,1.512438,0.000000,0.01,0.00,-0.007017,0.004000,0.000000,0.399995,0.000000,0.000000,0.000000,0.000000,0.075713,0.250000,0.036114,0.000000,0.000000,0.000000,0.000000,819,819,819,819
8118,0,1.509064,1.512451,0.000000,0.00,0.00,-0.007698,0.004000,0.000000,0.399995,0.000000,0.000000,0.000000,0.000000,0.058358,0.250000,0.039631,0.000000,0.000000,0.000000,0.000000,819,819,819,819
8128,0,1.509751,1.512461,0.000000,0.00,0.00,-0.006448,0.004000,0.000000,0.399995,0.000000,0.000000,0.000000,0.000000,0.041758,0.250000,0.033255,0.000000,0.000000,0.000000,0.000000,819,819,819,819
8138,0,1.510301,1.512468,0.000000,0.00,0.00,-0.003660,0.004000,0.000000,0.399995,0.000000,0.000000,0.000000,0.000000,0.028051,0.250000,0.018982,0.000000,0.000000,0.000000,0.000000,819,819,819,819
8148,0,1.510741,1.512475,0.012500,-0.00,0.00,-0.001032,0.004000,0.000000,0.399995,0.000000,0.000000,0.000000,0.000000,0.015955,0.250000,0.005526,0.000000,0.000000,0.000000,0.000000,819,819,819,819
8158,0,1.511093,1.512480,0.022500,-0.00,0.00,0.000517,0.004000,0.000000,0.399995,0.000000,0.000000,0.000000,0.000000,0.005898,0.250000,-0.002411,0.000000,0.000000,0.000000,0.000000,819,819,819,819
8168,0,1.511374,1.512484,0.030500,-0.00,0.00,0.000778,0.004000,0.000000,0.399995,0.000000,0.000000,0.000000,0.000000,-0.003341,0.250000,-0.003755,0.000000,0.000000,0.000000,0.000000,819,819,819,819
8178,0,1.511599,1.512487,0.036900,-0.00,0.00,-0.000124,0.004000,0.000000,0.399995,0.000000,0.000000,0.000000,0.000000,-0.009683,0.250000,0.000871,0.000000,0.000000,0.000000,0.000000,819,819,819,819
8188,0,1.511780,1.512490,0.042020,-0.00,0.00,-0.001460,0.004000,0.000000,0.399995,0.000000,0.000000,0.000000,0.000000,-0.015514,0.250000,0.007717,0.000000,0.000000,0.000000,0.000000,819,819,819,819
8198,0,1.511924,1.512492,0.058616,-0.00,0.00,-0.002876,0.004000,0.000000,0.399995,0.000000,0.000000,0.000000,0.000000,-0.020859,0.250000,0.014980,0.000000,0.000000,0.000000,0.000000,819,819,819,819
8208,0,1.512039,1.512493,0.071893,-0.00,0.00,-0.004571,0.004000,0.000000,0.399995,0.000000,0.000000,0.000000,0.000000,-0.025751,0.250000,0.023683,0.000000,0.000000,0.000000,0.000000,819,819,819,819
8218,0,1.512131,1.512495,0.082514,-0.00,0.00,-0.006210,0.004000,0.000000,0.399995,0.000000,0.000000,0.000000,0.000000,-0.030219,0.250000,0.032099,0.000000,0.000000,0.000000,0.000000,819,819,819,819
8228,0,1.524705,1.512496,0.091011,-0.00,0.00,-0.006967,0.004000,0.000000,0.399995,0.000000,0.000000,0.000000,0.000000,-0.001197,0.250000,0.036005,0.000000,0.000000,0.000000,0.000000,819,819,819,819
8238,0,1.534764,1.512497,0.097809,0.00,0.00,-0.006512,0.004000,0.000000,0.399995,0.000000,0.000000,0.000000,0.000000,0.019027,0.250000,0.033703,0.000000,0.000000,0.000000,0.000000,819,819,819,819
8248,0,1.542811,1.512497,0.103247,0.00,0.00,-0.006723,0.004000,0.000000,0.399995,0.000000,0.000000,0.000000,0.000000,0.031556,0.250000,0.034807,0.000000,0.000000,0.000000,0.000000,819,819,819,819
8258,0,1.549249,1.512498,0.107598,0.00,0.00,-0.006913,0.004000,0.000000,0.399995,0.000000,0.000000,0.000000,0.000000,0.038717,0.250000,0.035809,0.000000,0.000000,0.000000,0.000000,819,819,819,819
8268,0,1.554399,1.499998,0.123578,0.00,-0.00,-0.008329,0.004000,0.000000,0.399995,0.000000,0.000000,0.000000,0.000000,0.037089,0.250000,0.043093,0.000000,0.000000,0.000000,0.000000,819,819,819,819
8278,0,1.558520,1.489999,0.136363,0.00,-0.00,-0.009610,0.004000,0.000000,0.399995,0.000000,0.000000,0.000000,0.000000,0.032985,0.250000,0.049693,0.000000,0.000000,0.000000,0.000000,819,819,819,819
8288,0,1.561816,1.481999,0.146590,0.00,-0.01,-0.008386,0.004000,0.000000,0.399995,0.000000,0.000000,0.000000,0.000000,0.029303,0.250000,0.043460,0.000000,0.000000,0.000000,0.000000,819,819,819,819
8298,0,1.564453,1.475599,0.154772,0.00,-0.01,-0.004792,0.004000,0.000000,0.399995,0.000000,0.000000,0.000000,0.000000,0.032795,0.250000,0.025072,0.000000,0.000000,0.000000,0.000000,819,819,819,819
8308,0,1.566562,1.470479,0.161318,0.00,-0.01,-0.005166,0.004000,0.000000,0.399995,0.000000,0.000000,0.000000,0.000000,0.031403,0.250000,0.027007,0.000000,0.000000,0.000000,0.000000,819,819,819,819
8318,0,1.580750,1.466383,0.166554,0.00,-0.01,-0.010685,0.004000,0.000000,0.399995,0.000000,0.000000,0.000000,0.000000,0.057911,0.250000,0.055313,0.000000,0.000000,0.000000,0.000000,819,819,819,819
8328,0,1.592100,1.463107,0.183243,0.01,-0.01,-0.017857,0.004000,0.000000,0.399995,0.000000,0.000000,0.000000,0.000000,0.070803,0.250000,0.092104,0.000000,0.000000,0.000000,0.000000,819,819,819,819
8339,0,1.626180,1.460485,0.196595,0.02,-0.01,-0.022378,0.004000,0.000000,0.399995,0.000000,0.000000,0.000000,0.000000,0.130591,0.250000,0.115344,0.000000,0.000000,0.000000,0.000000,819,819,819,819
8349,0,1.653444,1.458388,0.207276,0.03,-0.02,-0.022221,0.004000,0.000000,0.399995,0.000000,0.000000,0.000000,0.000000,0.171740,0.250000,0.114630,0.000000,0.000000,0.000000,0.000000,819,819,819,819
8364,0,1.675255,1.456711,0.228321,0.03,-0.01,-0.017519,0.004000,0.000000,0.399995,0.000000,0.000000,0.000000,0.000000,0.173030,0.250000,0.090627,0.000000,0.000000,0.000000,0.000000,819,819,819,819
8377,0,1.692704,1.455368,0.245156,0.03,-0.01,-0.010466,0.004000,0.000000,0.399995,0.000000,0.000000,0.000000,0.000000,0.172402,0.250000,0.054561,0.000000,0.000000,0.000000,0.000000,819,819,819,819
8388,0,1.694163,1.454295,0.271125,0.02,-0.01,-0.008229,0.004000,0.000000,0.399995,0.000000,0.000000,0.000000,0.000000,0.135554,0.250000,0.043138,0.000000,0.000000,0.000000,0.000000,819,819,819,819
8398,0,1.707831,1.440936,0.291900,0.02,-0.02,-0.006203,0.004000,0.000000,0.399995,0.000000,0.000000,0.000000,0.000000,0.133988,0.250000,0.032795,0.000000,0.000000,0.000000,0.000000,819,819,819,819
8408,0,1.743765,1.430249,0.321020,0.03,-0.02,-0.013801,0.004000,0.000000,0.399995,0.000000,0.000000,0.000000,0.000000,0.180598,0.250000,0.071743,0.000000,0.000000,0.000000,0.000000,819,819,819,819
8419,0,1.772512,1.421699,0.344316,0.03,-0.02,-0.020884,0.004000,0.000000,0.399995,0.000000,0.000000,0.000000,0.000000,0.190057,0.250000,0.108084,0.000000,0.000000,0.000000,0.000000,819,819,819,819
8429,0,1.808010,1.414859,0.375453,0.04,-0.02,-0.024910,0.004000,0.000000,0.399995,0.000000,0.000000,0.000000,0.000000,0.216205,0.250000,0.128797,0.000000,0.000000,0.000000,0.000000,819,819,819,819
8439,0,1.848908,1.409387,0.412862,0.05,-0.02,-0.024823,0.004000,0.000000,0.399995,0.000000,0.000000,0.000000,0.000000,0.250000,0.250000,0.128454,0.000000,0.000000,0.000000,0.000000,819,819,819,819
8449,0,1.881626,1.405010,0.455290,0.05,-0.02,-0.019771,0.004000,0.000000,0.399995,0.000000,0.000000,0.000000,0.000000,0.250000,0.250000,0.102673,0.000000,0.000000,0.000000,0.000000,819,819,819,819
8459,0,1.895301,1.389008,0.514232,0.04,-0.03,-0.012608,0.004000,0.000000,0.399995,0.000000,0.000000,0.000000,0.000000,0.220987,0.250000,0.066061,0.000000,0.000000,0.000000,0.000000,819,819,819,819
8469,0,1.906241,1.376206,0.561386,0.03,-0.03,-0.006021,0.004000,0.000000,0.399995,0.000000,0.000000,0.000000,0.000000,0.181235,0.250000,0.032375,0.000000,0.000000,0.000000,0.000000,819,819,819,819
8479,0,1.914993,1.365965,0.599108,0.02,-0.03,-0.001511,0.004000,0.000000,0.399995,0.000000,0.000000,0.000000,0.000000,0.142494,0.250000,0.009299,0.000000,0.000000,0.000000,0.000000,819,819,819,819
8489,0,1.921994,1.357772,0.641787,0.02,-0.03,-0.000124,0.004000,0.000000,0.399995,0.000000,0.000000,0.000000,0.000000,0.104720,0.250000,0.002200,0.000000,0.000000,0.000000,0.000000,819,819,819,819
8499,0,1.927595,1.351218,0.700929,0.00,-0.03,-0.002910,0.004000,0.000000,0.399995,0.000000,0.000000,0.000000,0.000000,0.066586,0.250000,0.016471,0.000000,0.000000,0.000000,0.000000,819,819,819,819
8509,0,1.932076,1.345974,0.748244,0.00,-0.03,-0.007297,0.004000,0.000000,0.399995,0.000000,0.000000,0.000000,0.000000,0.028313,0.250000,0.038952,0.000000,0.000000,0.000000,0.000000,819,819,819,819
8519,0,1.935661,1.341779,0.798595,-0.00,-0.03,-0.009195,0.004000,0.000000,0.399995,0.000000,0.000000,0.000000,0.000000,-0.006331,0.250000,0.048700,0.000000,0.000000,0.000000,0.000000,819,819,819,819
8529,0,1.951029,1.338423,0.851376,-0.00,-0.03,-0.006041,0.004000,0.000000,0.399995,0.000000,0.000000,0.000000,0.000000,-0.007363,0.250000,0.032588,0.000000,0.000000,0.000000,0.000000,819,819,819,819
8539,0,1.950823,1.335739,0.893601,-0.01,-0.03,0.000129,0.004000,0.000000,0.399995,0.000000,0.000000,0.000000,0.000000,-0.045521,0.250000,0.001015,0.000000,0.000000,0.000000,0.000000,819,819,819,819
8549,0,1.950659,1.333591,0.939881,-0.02,-0.03,0.006956,0.004000,0.000000,0.399995,0.000000,0.000000,0.000000,0.000000,-0.076606,0.250000,-0.033950,0.000000,0.000000,0.000000,0.000000,819,819,819,819
8559,0,1.938027,1.331873,0.989404,-0.03,-0.03,0.011062,0.004000,0.000000,0.399995,0.000000,0.000000,0.000000,0.000000,-0.131758,0.250000,-0.055007,0.000000,0.000000,0.000000,0.000000,819,819,819,819
8569,0,1.927922,1.330498,1.029024,-0.04,-0.02,0.011566,0.004000,0.000000,0.399995,0.000000,0.000000,0.000000,0.000000,-0.172324,0.250000,-0.057631,0.000000,0.000000,0.000000,0.000000,819,819,819,819
8579,0,1.919837,1.329399,1.073219,-0.04,-0.02,0.007669,0.004000,0.000000,0.399995,0.000000,0.000000,0.000000,0.000000,-0.202111,0.250000,-0.037725,0.000000,0.000000,0.000000,0.000000,819,819,819,819
8589,0,1.913370,1.328519,1.108575,-0.05,-0.02,0.000619,0.004000,0.000000,0.399995,0.000000,0.000000,0.000000,0.000000,-0.224818,0.250000,-0.001656,0.000000,0.000000,0.000000,0.000000,819,819,819,819
8599,0,1.920696,1.327815,1.149360,-0.04,-0.02,-0.007316,0.004000,0.000000,0.399995,0.000000,0.000000,0.000000,0.000000,-0.211037,0.250000,0.038971,0.000000,0.000000,0.000000,0.000000,819,819,819,819
8609,0,1.926557,1.327252,1.181988,-0.04,-0.02,-0.011802,0.004000,0.000000,0.399995,0.000000,0.000000,0.000000,0.000000,-0.206109,0.250000,0.061974,0.000000,0.000000,0.000000,0.000000,819,819,819,819
8619,0,1.943745,1.326802,1.220590,-0.04,-0.02,-0.010266,0.004000,0.000000,0.399995,0.000000,0.000000,0.000000,0.000000,-0.175871,0.250000,0.054160,0.000000,0.000000,0.000000,0.000000,819,819,819,819
8629,0,1.957496,1.326441,1.263972,-0.03,-0.02,-0.004421,0.004000,0.000000,0.399995,0.000000,0.000000,0.000000,0.000000,-0.159044,0.250000,0.024271,0.000000,0.000000,0.000000,0.000000,819,819,819,819
8639,0,1.955997,1.326153,1.298678,-0.04,-0.01,0.001492,0.004000,0.000000,0.399995,0.000000,0.000000,0.000000,0.000000,-0.182413,0.250000,-0.005982,0.000000,0.000000,0.000000,0.000000,819,819,819,819
8649,0,1.954798,1.313423,1.351442,-0.04,-0.02,0.003837,0.004000,0.000000,0.399995,0.000000,0.000000,0.000000,0.000000,-0.194752,0.250000,-0.017996,0.000000,0.000000,0.000000,0.000000,819,819,819,819
8659,0,1.953838,1.303238,1.393654,-0.04,-0.02,0.003473,0.004000,0.000000,0.399995,0.000000,0.000000,0.000000,0.000000,-0.201024,0.250000,-0.016146,0.000000,0.000000,0.000000,0.000000,819,819,819,819
8670,0,1.940571,1.295091,1.439923,-0.05,-0.02,0.002314,0.004000,0.000000,0.000000,0.000000,0.000000,0.000000,0.000000,-0.237138,0.250000,-0.010227,0.000000,0.000000,0.000000,0.000000,819,819,819,819
8684,0,1.929957,1.301072,1.476939,-0.05,-0.02,0.000747,0.004000,0.000000,0.000000,0.000000,0.000000,0.000000,0.000000,-0.250000,0.250000,-0.002215,0.000000,0.000000,0.000000,0.000000,819,819,819,819
8695,0,1.933965,1.305858,1.506551,-0.05,-0.02,-0.000671,0.004000,0.000000,0.000000,0.000000,0.000000,0.000000,0.000000,-0.241936,0.250000,0.005042,0.000000,0.000000,0.000000,0.000000,819,819,819,819
8707,0,1.924672,1.309686,1.542741,-0.05,-0.01,-0.001540,0.004000,0.000000,0.399995,0.000000,0.000000,0.000000,0.000000,-0.250000,0.250000,0.009493,0.000000,0.000000,0.000000,0.000000,819,819,819,819
8718,0,1.917238,1.312749,1.571693,-0.06,-0.01,-0.001601,0.004000,0.000000,0.399995,0.000000,0.000000,0.000000,0.000000,-0.250000,0.250000,0.009811,0.000000,0.000000,0.000000,0.000000,819,819,819,819
8729,0,1.911291,1.315199,1.607354,-0.06,-0.00,0.000209,0.004000,0.000000,0.399995,0.000000,0.000000,0.000000,0.000000,-0.250000,0.250000,0.000552,0.000000,0.000000,0.000000,0.000000,819,819,819,819
8739,0,1.906533,1.317160,1.635883,-0.06,-0.00,0.001122,0.004000,0.000000,0.399995,0.000000,0.000000,0.000000,0.000000,-0.250000,0.250000,-0.004122,0.000000,0.000000,0.000000,0.000000,819,819,819,819
8749,0,1.902726,1.318728,1.658707,-0.06,-0.00,0.000808,0.004000,0.000000,0.399995,0.000000,0.000000,0.000000,0.000000,-0.250000,0.250000,-0.002520,0.000000,0.000000,0.000000,0.000000,819,819,819,819
8759,0,1.899681,1.319982,1.676965,-0.05,-0.00,0.000006,0.004000,0.000000,0.399995,0.000000,0.000000,0.000000,0.000000,-0.250000,0.250000,0.001582,0.000000,0.000000,0.000000,0.000000,819,819,819,819
8769,0,1.884745,1.320986,1.704072,-0.06,-0.00,-0.002171,0.004000,0.000000,0.399995,0.000000,0.000000,0.000000,0.000000,-0.250000,0.250000,0.012724,0.000000,0.000000,0.000000,0.000000,819,819,819,819
8779,0,1.885296,1.321789,1.725758,-0.05,-0.00,-0.005281,0.004000,0.000000,0.399995,0.000000,0.000000,0.000000,0.000000,-0.237484,0.250000,0.028650,0.000000,0.000000,0.000000,0.000000,819,819,819,819
8790,0,1.885737,1.309931,1.743106,-0.04,-0.00,-0.008095,0.004000,0.000000,0.399995,0.000000,0.000000,0.000000,0.000000,-0.208191,0.250000,0.043078,0.000000,0.000000,0.000000,0.000000,819,819,819,819
8800,0,1.886090,1.312945,1.756985,-0.04,-0.00,-0.008673,0.004000,0.000000,0.399995,0.000000,0.000000,0.000000,0.000000,-0.179827,0.250000,0.046071,0.000000,0.000000,0.000000,0.000000,819,819,819,819
8810,0,1.886372,1.315356,1.755588,-0.03,-0.00,-0.007020,0.004000,0.000000,0.399995,0.000000,0.000000,0.000000,0.000000,-0.154475,0.250000,0.037648,0.000000,0.000000,0.000000,0.000000,819,819,819,819
8820,0,1.886598,1.317285,1.754470,-0.03,-0.00,-0.004177,0.004000,0.000000,0.399995,0.000000,0.000000,0.000000,0.000000,-0.130738,0.250000,0.023128,0.000000,0.000000,0.000000,0.000000,819,819,819,819
8830,0,1.886778,1.318828,1.753576,-0.02,-0.00,-0.001397,0.004000,0.000000,0.399995,0.000000,0.000000,0.000000,0.000000,-0.107363,0.250000,0.008917,0.000000,0.000000,0.000000,0.000000,819,819,819,819
8840,0,1.886923,1.320062,1.752861,-0.02,-0.00,0.001119,0.004000,0.000000,0.399995,0.000000,0.000000,0.000000,0.000000,-0.085882,0.250000,-0.003954,0.000000,0.000000,0.000000,0.000000,819,819,819,819
8850,0,1.887038,1.321050,1.752289,-0.01,-0.00,0.001635,0.004000,0.000000,0.399995,0.000000,0.000000,0.000000,0.000000,-0.060782,0.250000,-0.006596,0.000000,0.000000,0.000000,0.000000,819,819,819,819
8860,0,1.887131,1.321840,1.751831,-0.01,-0.00,-0.000490,0.004000,0.000000,0.399995,0.000000,0.000000,0.000000,0.000000,-0.034526,0.250000,0.004267,0.000000,0.000000,0.000000,0.000000,819,819,819,819
8870,0,1.887205,1.309972,1.738965,-0.00,-0.00,-0.004588,0.004000,0.000000,0.399995,0.000000,0.000000,0.000000,0.000000,-0.009868,0.250000,0.025243,0.000000,0.000000,0.000000,0.000000,819,819,819,819
8880,0,1.887264,1.300478,1.728672,0.00,-0.00,-0.009334,0.004000,0.000000,0.399995,0.000000,0.000000,0.000000,0.000000,0.016014,0.250000,0.049546,0.000000,0.000000,0.000000,0.000000,819,819,819,819
8890,0,1.899811,1.305382,1.720437,0.01,-0.00,-0.012178,0.004000,0.000000,0.399995,0.000000,0.000000,0.000000,0.000000,0.074460,0.250000,0.064138,0.000000,0.000000,0.000000,0.000000,819,819,819,819
8900,0,1.909849,1.309306,1.701350,0.02,-0.00,-0.011539,0.004000,0.000000,0.399995,0.000000,0.000000,0.000000,0.000000,0.115386,0.250000,0.060923,0.000000,0.000000,0.000000,0.000000,819,819,819,819
8909,0,1.917879,1.312445,1.686080,0.03,-0.00,-0.007748,0.004000,0.000000,0.399995,0.000000,0.000000,0.000000,0.000000,0.145164,0.250000,0.041577,0.000000,0.000000,0.000000,0.000000,819,819,819,819
8920,0,1.924303,1.314956,1.661364,0.03,-0.00,-0.002453,0.004000,0.000000,0.399995,0.000000,0.000000,0.000000,0.000000,0.161460,0.250000,0.014515,0.000000,0.000000,0.000000,0.000000,819,819,819,819
8930,0,1.929443,1.316965,1.641591,0.03,0.00,0.002236,0.004000,0.000000,0.399995,0.000000,0.000000,0.000000,0.000000,0.175949,0.250000,-0.009466,0.000000,0.000000,0.000000,0.000000,819,819,819,819
8940,0,1.921054,1.318572,1.625773,0.03,0.00,0.004407,0.004000,0.000000,0.399995,0.000000,0.000000,0.000000,0.000000,0.156529,0.250000,-0.020583,0.000000,0.000000,0.000000,0.000000,819,819,819,819
8950,0,1.914343,1.319857,1.613119,0.03,0.00,0.003056,0.004000,0.000000,0.399995,0.000000,0.000000,0.000000,0.000000,0.147050,0.250000,-0.013688,0.000000,0.000000,0.000000,0.000000,819,819,819,819
8960,0,1.908975,1.320886,1.590495,0.02,0.00,-0.001276,0.004000,0.000000,0.399995,0.000000,0.000000,0.000000,0.000000,0.141427,0.250000,0.008460,0.000000,0.000000,0.000000,0.000000,819,819,819,819
8970,0,1.917180,1.309209,1.572396,0.03,-0.00,-0.007061,0.004000,0.000000,0.399995,0.000000,0.000000,0.000000,0.000000,0.171625,0.250000,0.038065,0.000000,0.000000,0.000000,0.000000,819,819,819,819
8980,0,1.923744,1.312367,1.545417,0.03,-0.00,-0.011054,0.004000,0.000000,0.399995,0.000000,0.000000,0.000000,0.000000,0.193580,0.250000,0.058521,0.000000,0.000000,0.000000,0.000000,819,819,819,819
8994,0,1.941495,1.314894,1.523833,0.04,-0.00,-0.011869,0.004000,0.000000,0.399995,0.000000,0.000000,0.000000,0.000000,0.226362,0.250000,0.062739,0.000000,0.000000,0.000000,0.000000,819,819,819,819
9008,0,1.955696,1.316915,1.494067,0.04,-0.00,-0.009913,0.004000,0.000000,0.000000,0.000000,0.000000,0.000000,0.000000,0.242000,0.250000,0.052781,0.000000,0.000000,0.000000,0.000000,819,819,819,819
9019,0,1.967057,1.318532,1.470253,0.05,0.00,-0.004826,0.004000,0.000000,0.399995,0.000000,0.000000,0.000000,0.000000,0.250000,0.250000,0.026803,0.000000,0.000000,0.000000,0.000000,819,819,819,819
9031,0,1.963646,1.307326,1.451203,0.04,-0.00,0.000192,0.004000,0.000000,0.399995,0.000000,0.000000,0.000000,0.000000,0.224854,0.250000,0.001156,0.000000,0.000000,0.000000,0.000000,819,819,819,819
9041,0,1.960917,1.298361,1.435962,0.04,-0.00,0.001832,0.004000,0.000000,0.399995,0.000000,0.000000,0.000000,0.000000,0.201416,0.250000,-0.007233,0.000000,0.000000,0.000000,0.000000,819,819,819,819
9051,0,1.971233,1.291189,1.423770,0.04,-0.01,-0.001243,0.004000,0.000000,0.399995,0.000000,0.000000,0.000000,0.000000,0.209974,0.250000,0.008491,0.000000,0.000000,0.000000,0.000000,819,819,819,819
9060,0,1.979487,1.285451,1.414016,0.04,-0.01,-0.007654,0.004000,0.000000,0.399995,0.000000,0.000000,0.000000,0.000000,0.210529,0.250000,0.041286,0.000000,0.000000,0.000000,0.000000,819,819,819,819
9070,0,1.998589,1.280861,1.406213,0.04,-0.01,-0.013455,0.004000,0.000000,0.399995,0.000000,0.000000,0.000000,0.000000,0.233265,0.250000,0.070993,0.000000,0.000000,0.000000,0.000000,819,819,819,819
9080,0,2.013872,1.277189,1.399970,0.04,-0.02,-0.015804,0.004000,0.000000,0.399995,0.000000,0.000000,0.000000,0.000000,0.237633,0.250000,0.083065,0.000000,0.000000,0.000000,0.000000,819,819,819,819
9091,0,2.026097,1.274251,1.407476,0.04,-0.02,-0.013370,0.004000,0.000000,0.000000,0.000000,0.000000,0.000000,0.000000,0.225627,0.250000,0.070686,0.000000,0.000000,0.000000,0.000000,819,819,819,819
9100,0,2.035878,1.271901,1.413481,0.04,-0.02,-0.007229,0.004000,0.000000,0.000000,0.000000,0.000000,0.000000,0.000000,0.209960,0.250000,0.039339,0.000000,0.000000,0.000000,0.000000,819,819,819,819
9111,0,2.031202,1.270021,1.430785,0.03,-0.01,0.001126,0.004000,0.000000,0.000000,0.000000,0.000000,0.000000,0.000000,0.156146,0.250000,-0.003361,0.000000,0.000000,0.000000,0.000000,819,819,819,819
9120,0,2.027462,1.268517,1.444628,0.02,-0.01,0.008791,0.004000,0.000000,0.000000,0.000000,0.000000,0.000000,0.000000,0.110046,0.250000,-0.042567,0.000000,0.000000,0.000000,0.000000,819,819,819,819
9130,0,2.011970,1.267313,1.468202,0.00,-0.01,0.012619,0.004000,0.000000,0.000000,0.000000,0.000000,0.000000,0.000000,0.042191,0.250000,-0.062184,0.000000,0.000000,0.000000,0.000000,819,819,819,819
9141,0,1.999576,1.266351,1.487062,-0.00,-0.00,0.011524,0.004000,0.000000,0.000000,0.000000,0.000000,0.000000,0.000000,-0.003355,0.250000,-0.056639,0.000000,0.000000,0.000000,0.000000,819,819,819,819
9150,0,1.989661,1.265581,1.502149,-0.01,-0.00,0.005766,0.004000,0.000000,0.399995,0.000000,0.000000,0.000000,0.000000,-0.041622,0.250000,-0.027244,0.000000,0.000000,0.000000,0.000000,819,819,819,819
9161,0,1.994228,1.264965,1.514220,-0.01,-0.00,-0.001932,0.004000,0.000000,0.399995,0.000000,0.000000,0.000000,0.000000,-0.037841,0.250000,0.012096,0.000000,0.000000,0.000000,0.000000,819,819,819,819
9171,0,2.010383,1.264472,1.536376,-0.00,-0.00,-0.008485,0.004000,0.000000,0.399995,0.000000,0.000000,0.000000,0.000000,-0.005344,0.250000,0.045611,0.000000,0.000000,0.000000,0.000000,819,819,819,819
9181,0,2.023306,1.264078,1.554101,-0.00,-0.00,-0.010373,0.004000,0.000000,0.399995,0.000000,0.000000,0.000000,0.000000,0.011427,0.250000,0.055305,0.000000,0.000000,0.000000,0.000000,819,819,819,819
9191,0,2.033645,1.263762,1.568281,-0.00,-0.00,-0.007626,0.004000,0.000000,0.399995,0.000000,0.000000,0.000000,0.000000,0.014625,0.250000,0.041304,0.000000,0.000000,0.000000,0.000000,819,819,819,819
9201,0,2.041916,1.263510,1.592124,-0.00,-0.00,-0.001202,0.004000,0.000000,0.399995,0.000000,0.000000,0.000000,0.000000,0.010630,0.250000,0.008491,0.000000,0.000000,0.000000,0.000000,819,819,819,819
9211,0,2.048533,1.263308,1.611200,-0.00,-0.00,0.006063,0.004000,0.000000,0.399995,0.000000,0.000000,0.000000,0.000000,-0.000908,0.250000,-0.028649,0.000000,0.000000,0.000000,0.000000,819,819,819,819
9221,0,2.041326,1.263146,1.626460,-0.01,-0.00,0.010876,0.004000,0.000000,0.399995,0.000000,0.000000,0.000000,0.000000,-0.047702,0.250000,-0.053284,0.000000,0.000000,0.000000,0.000000,819,819,819,819
9231,0,2.023061,1.263017,1.651168,-0.03,-0.00,0.012226,0.004000,0.000000,0.399995,0.000000,0.000000,0.000000,0.000000,-0.119719,0.250000,-0.060237,0.000000,0.000000,0.000000,0.000000,819,819,819,819
9241,0,2.008449,1.262914,1.670934,-0.04,-0.00,0.009821,0.004000,0.000000,0.399995,0.000000,0.000000,0.000000,0.000000,-0.177913,0.250000,-0.047995,0.000000,0.000000,0.000000,0.000000,819,819,819,819
9251,0,1.996759,1.262831,1.699247,-0.05,-0.00,0.005675,0.004000,0.000000,0.399995,0.000000,0.000000,0.000000,0.000000,-0.225528,0.250000,-0.026845,0.000000,0.000000,0.000000,0.000000,819,819,819,819
9261,0,1.987407,1.262765,1.734398,-0.06,-0.00,0.003582,0.004000,0.000000,0.399995,0.000000,0.000000,0.000000,0.000000,-0.250000,0.250000,-0.016167,0.000000,0.000000,0.000000,0.000000,819,819,819,819
9271,0,1.979926,1.262712,1.775018,-0.06,-0.00,0.004692,0.004000,0.000000,0.399995,0.000000,0.000000,0.000000,0.000000,-0.250000,0.250000,-0.021860,0.000000,0.000000,0.000000,0.000000,819,819,819,819
9281,0,1.973941,1.262670,1.820015,-0.07,-0.00,0.007252,0.004000,0.000000,0.399995,0.000000,0.000000,0.000000,0.000000,-0.250000,0.250000,-0.034967,0.000000,0.000000,0.000000,0.000000,819,819,819,819
9291,0,1.969152,1.262636,1.868512,-0.07,-0.00,0.009154,0.004000,0.000000,0.000000,0.000000,0.000000,0.000000,0.000000,-0.250000,0.250000,-0.044722,0.000000,0.000000,0.000000,0.000000,819,819,819,819
9301,0,1.965322,1.262609,1.907310,-0.07,0.00,0.008491,0.004000,0.000000,0.399995,0.000000,0.000000,0.000000,0.000000,-0.250000,0.250000,-0.041378,0.000000,0.000000,0.000000,0.000000,819,819,819,819
9315,0,1.962258,1.250087,1.950848,-0.07,-0.00,0.005508,0.004000,0.000000,0.399995,0.000000,0.000000,0.000000,0.000000,-0.250000,0.250000,-0.026167,0.000000,0.000000,0.000000,0.000000,819,819,819,819
9329,0,1.959806,1.240070,1.985678,-0.07,-0.00,0.001151,0.004000,0.000000,0.399995,0.000000,0.000000,0.000000,0.000000,-0.250000,0.250000,-0.003917,0.000000,0.000000,0.000000,0.000000,819,819,819,819
9341,0,1.957845,1.232056,2.026042,-0.07,-0.01,0.000005,0.004000,0.000000,0.399995,0.000000,0.000000,0.000000,0.000000,-0.250000,0.250000,0.001934,0.000000,0.000000,0.000000,0.000000,819,819,819,819
9351,0,1.956276,1.225645,2.058334,-0.07,-0.01,0.000937,0.004000,0.000000,0.399995,0.000000,0.000000,0.000000,0.000000,-0.250000,0.250000,-0.002831,0.000000,0.000000,0.000000,0.000000,819,819,819,819
9361,0,1.955021,1.220516,2.096667,-0.07,-0.01,0.002403,0.004000,0.000000,0.399995,0.000000,0.000000,0.000000,0.000000,-0.250000,0.250000,-0.010326,0.000000,0.000000,0.000000,0.000000,819,819,819,819
9371,0,1.954017,1.216413,2.127334,-0.06,-0.01,0.002382,0.004000,0.000000,0.399995,0.000000,0.000000,0.000000,0.000000,-0.250000,0.250000,-0.010229,0.000000,0.000000,0.000000,0.000000,819,819,819,819
9381,0,1.953213,1.213130,2.164367,-0.06,-0.01,0.001223,0.004000,0.000000,0.399995,0.000000,0.000000,0.000000,0.000000,-0.250000,0.250000,-0.004316,0.000000,0.000000,0.000000,0.000000,819,819,819,819
9391,0,1.952571,1.210504,2.193994,-0.06,-0.01,-0.000759,0.004000,0.000000,0.399995,0.000000,0.000000,0.000000,0.000000,-0.250000,0.250000,0.005806,0.000000,0.000000,0.000000,0.000000,819,819,819,819
9401,0,1.952057,1.208403,2.217695,-0.06,-0.01,-0.003070,0.004000,0.000000,0.399995,0.000000,0.000000,0.000000,0.000000,-0.250000,0.250000,0.017623,0.000000,0.000000,0.000000,0.000000,819,819,819,819
9411,0,1.951645,1.206723,2.249156,-0.06,-0.01,-0.004333,0.004000,0.000000,0.399995,0.000000,0.000000,0.000000,0.000000,-0.250000,0.250000,0.024091,0.000000,0.000000,0.000000,0.000000,819,819,819,819
9421,0,1.951316,1.217878,2.274325,-0.06,-0.00,-0.002885,0.004000,0.000000,0.399995,0.000000,0.000000,0.000000,0.000000,-0.250000,0.250000,0.016711,0.000000,0.000000,0.000000,0.000000,819,819,819,819
9431,0,1.951053,1.226803,2.306960,-0.06,-0.00,0.000705,0.004000,0.000000,0.399995,0.000000,0.000000,0.000000,0.000000,-0.250000,0.250000,-0.001624,0.000000,0.000000,0.000000,0.000000,819,819,819,819
9442,0,1.938342,1.233942,2.333068,-0.06,0.00,0.004991,0.004000,0.000000,0.399995,0.000000,0.000000,0.000000,0.000000,-0.250000,0.250000,-0.023529,0.000000,0.000000,0.000000,0.000000,819,819,819,819
9451,0,1.928174,1.239654,2.366454,-0.07,0.00,0.007522,0.004000,0.000000,0.399995,0.000000,0.000000,0.000000,0.000000,-0.250000,0.250000,-0.036487,0.000000,0.000000,0.000000,0.000000,819,819,819,819
9461,0,1.920039,1.231723,2.393164,-0.07,0.00,0.007947,0.004000,0.000000,0.399995,0.000000,0.000000,0.000000,0.000000,-0.250000,0.250000,-0.038696,0.000000,0.000000,0.000000,0.000000,819,819,819,819
9471,0,1.913532,1.225379,2.427031,-0.07,-0.00,0.005949,0.004000,0.000000,0.399995,0.000000,0.000000,0.000000,0.000000,-0.250000,0.250000,-0.028519,0.000000,0.000000,0.000000,0.000000,819,819,819,819
9481,0,1.908325,1.220303,2.454125,-0.07,-0.00,0.002378,0.004000,0.000000,0.399995,0.000000,0.000000,0.000000,0.000000,-0.250000,0.250000,-0.010302,0.000000,0.000000,0.000000,0.000000,819,819,819,819
9492,0,1.904160,1.216242,2.488300,-0.07,-0.00,-0.000542,0.004000,0.000000,0.399995,0.000000,0.000000,0.000000,0.000000,-0.250000,0.250000,0.004610,0.000000,0.000000,0.000000,0.000000,819,819,819,819
9501,0,1.900828,1.225494,2.515640,-0.07,-0.00,-0.001009,0.004000,0.000000,0.399995,0.000000,0.000000,0.000000,0.000000,-0.250000,0.250000,0.006997,0.000000,0.000000,0.000000,0.000000,819,819,819,819
9512,0,1.898163,1.232895,2.537512,-0.07,0.00,0.002818,0.004000,0.000000,0.399995,0.000000,0.000000,0.000000,0.000000,-0.250000,0.250000,-0.012551,0.000000,0.000000,0.000000,0.000000,819,819,819,819
9522,0,1.896030,1.238816,2.567510,-0.07,0.00,0.009079,0.004000,0.000000,0.399995,0.000000,0.000000,0.000000,0.000000,-0.250000,0.250000,-0.044556,0.000000,0.000000,0.000000,0.000000,819,819,819,819
9532,0,1.881824,1.243553,2.591508,-0.07,0.00,0.013501,0.004000,0.000000,0.399995,0.000000,0.000000,0.000000,0.000000,-0.250000,0.250000,-0.067196,0.000000,0.000000,0.000000,0.000000,819,819,819,819
9542,0,1.870459,1.234842,2.623206,-0.07,0.00,0.013359,0.004000,0.000000,0.399995,0.000000,0.000000,0.000000,0.000000,-0.250000,0.250000,-0.066530,0.000000,0.000000,0.000000,0.000000,819,819,819,819
9551,0,1.861368,1.227874,2.648565,-0.07,0.00,0.008670,0.004000,0.000000,0.399995,0.000000,0.000000,0.000000,0.000000,-0.250000,0.250000,-0.042635,0.000000,0.000000,0.000000,0.000000,819,819,819,819
9563,0,1.866594,1.222299,2.668852,-0.06,-0.00,-0.000030,0.004000,0.000000,0.399995,0.000000,0.000000,0.000000,0.000000,-0.250000,0.250000,0.001773,0.000000,0.000000,0.000000,0.000000,819,819,819,819
9573,0,1.883275,1.217839,2.685081,-0.05,-0.00,-0.011115,0.004000,0.000000,0.399995,0.000000,0.000000,0.000000,0.000000,-0.248871,0.250000,0.058412,0.000000,0.000000,0.000000,0.000000,819,819,819,819
9582,0,1.909120,1.214272,2.698065,-0.03,-0.00,-0.018660,0.004000,0.000000,0.399995,0.000000,0.000000,0.000000,0.000000,-0.159623,0.250000,0.097014,0.000000,0.000000,0.000000,0.000000,819,819,819,819
9592,0,1.929796,1.211417,2.720952,-0.02,-0.01,-0.018753,0.004000,0.000000,0.399995,0.000000,0.000000,0.000000,0.000000,-0.104548,0.250000,0.097574,0.000000,0.000000,0.000000,0.000000,819,819,819,819
9602,0,1.946337,1.209134,2.739262,-0.02,-0.01,-0.010236,0.004000,0.000000,0.399995,0.000000,0.000000,0.000000,0.000000,-0.070804,0.250000,0.054147,0.000000,0.000000,0.000000,0.000000,819,819,819,819
9612,0,1.934570,1.219807,2.753910,-0.02,-0.00,0.003898,0.004000,0.000000,0.399995,0.000000,0.000000,0.000000,0.000000,-0.114842,0.250000,-0.018009,0.000000,0.000000,0.000000,0.000000,819,819,819,819
9628,0,1.912656,1.215846,2.778128,-0.03,-0.00,0.016274,0.004000,0.000000,0.399995,0.000000,0.000000,0.000000,0.000000,-0.157331,0.250000,-0.081252,0.000000,0.000000,0.000000,0.000000,819,819,819,819
9642,0,1.895125,1.212677,2.797502,-0.04,-0.00,0.011723,0.004000,0.000000,0.399995,0.000000,0.000000,0.000000,0.000000,-0.183093,0.250000,-0.058078,0.000000,0.000000,0.000000,0.000000,819,819,819,819
9652,0,1.893600,1.210141,2.813002,-0.04,-0.00,0.000142,0.004000,0.000000,0.399995,0.000000,0.000000,0.000000,0.000000,-0.175581,0.250000,0.001023,0.000000,0.000000,0.000000,0.000000,819,819,819,819
9662,0,1.904880,1.208113,2.837902,-0.03,-0.00,-0.013757,0.004000,0.000000,0.399995,0.000000,0.000000,0.000000,0.000000,-0.136655,0.250000,0.072027,0.000000,0.000000,0.000000,0.000000,819,819,819,819
9672,0,1.926404,1.206491,2.857821,-0.02,-0.00,-0.023332,0.004000,0.000000,0.399995,0.000000,0.000000,0.000000,0.000000,-0.079674,0.250000,0.120998,0.000000,0.000000,0.000000,0.000000,819,819,819,819
9682,0,1.943623,1.205193,2.873757,-0.01,-0.01,-0.024120,0.004000,0.000000,0.399995,0.000000,0.000000,0.000000,0.000000,-0.043582,0.250000,0.125138,0.000000,0.000000,0.000000,0.000000,819,819,819,819
9692,0,1.957399,1.204154,2.886506,-0.00,-0.01,-0.016544,0.004000,0.000000,0.399995,0.000000,0.000000,0.000000,0.000000,-0.023576,0.250000,0.086551,0.000000,0.000000,0.000000,0.000000,819,819,819,819
9702,0,1.955919,1.203323,2.909205,-0.01,-0.01,-0.004609,0.004000,0.000000,0.399995,0.000000,0.000000,0.000000,0.000000,-0.044517,0.250000,0.025669,0.000000,0.000000,0.000000,0.000000,819,819,819,819
9712,0,1.942235,1.202659,2.927364,-0.02,-0.00,0.005673,0.004000,0.000000,0.399995,0.000000,0.000000,0.000000,0.000000,-0.091378,0.250000,-0.026831,0.000000,0.000000,0.000000,0.000000,819,819,819,819
9722,0,1.931288,1.202127,2.941891,-0.03,-0.00,0.009072,0.004000,0.000000,0.399995,0.000000,0.000000,0.000000,0.000000,-0.123436,0.250000,-0.044219,0.000000,0.000000,0.000000,0.000000,819,819,819,819
9732,0,1.910031,1.201702,2.953513,-0.04,-0.00,0.004998,0.004000,0.000000,0.399995,0.000000,0.000000,0.000000,0.000000,-0.173364,0.250000,-0.023451,0.000000,0.000000,0.000000,0.000000,819,819,819,819
9742,0,1.905525,1.201361,2.975310,-0.04,-0.00,-0.004389,0.004000,0.000000,0.399995,0.000000,0.000000,0.000000,0.000000,-0.173461,0.250000,0.024468,0.000000,0.000000,0.000000,0.000000,819,819,819,819
9752,0,1.914420,1.201089,2.992748,-0.03,-0.00,-0.015371,0.004000,0.000000,0.399995,0.000000,0.000000,0.000000,0.000000,-0.139872,0.250000,0.080580,0.000000,0.000000,0.000000,0.000000,819,819,819,819
9762,0,1.934036,1.200871,3.006698,-0.02,-0.00,-0.023445,0.004000,0.000000,0.399995,0.000000,0.000000,0.000000,0.000000,-0.087542,0.250000,0.121888,0.000000,0.000000,0.000000,0.000000,819,819,819,819
9772,0,1.962229,1.200697,3.017859,-0.00,-0.00,-0.024534,0.004000,0.000000,0.399995,0.000000,0.000000,0.000000,0.000000,-0.025390,0.250000,0.127561,0.000000,0.000000,0.000000,0.000000,819,819,819,819
9782,0,1.984783,1.200558,3.026787,0.00,-0.00,-0.016711,0.004000,0.000000,0.399995,0.000000,0.000000,0.000000,0.000000,0.008788,0.250000,0.087726,0.000000,0.000000,0.000000,0.000000,819,819,819,819
9792,0,1.990326,1.200446,3.046430,-0.00,-0.00,-0.001651,0.004000,0.000000,0.399995,0.000000,0.000000,0.000000,0.000000,-0.009153,0.250000,0.010898,0.000000,0.000000,0.000000,0.000000,819,819,819,819
9802,0,1.982261,1.200357,3.062144,-0.01,-0.00,0.011977,0.004000,0.000000,0.399995,0.000000,0.000000,0.000000,0.000000,-0.060066,0.250000,-0.058695,0.000000,0.000000,0.000000,0.000000,819,819,819,819
9812,0,1.963309,1.200286,3.087215,-0.03,-0.00,0.022031,0.004000,0.000000,0.399995,0.000000,0.000000,0.000000,0.000000,-0.133734,0.250000,-0.110097,0.000000,0.000000,0.000000,0.000000,819,819,819,819
9822,0,1.935647,1.200229,3.119772,-0.04,-0.00,0.023358,0.004000,0.000000,0.399995,0.000000,0.000000,0.000000,0.000000,-0.216527,0.250000,-0.116978,0.000000,0.000000,0.000000,0.000000,819,819,819,819
9832,0,1.901018,1.200183,3.145818,-0.06,0.00,0.018030,0.004000,0.000000,0.399995,0.000000,0.000000,0.000000,0.000000,-0.250000,0.250000,-0.089883,0.000000,0.000000,0.000000,0.000000,819,819,819,819
9843,0,1.885814,1.200146,3.179154,-0.06,-0.00,0.009167,0.004000,0.000000,0.399995,0.000000,0.000000,0.000000,0.000000,-0.250000,0.250000,-0.044709,0.000000,0.000000,0.000000,0.000000,819,819,819,819
9852,0,1.886152,1.200117,3.205823,-0.06,-0.00,0.000213,0.004000,0.000000,0.399995,0.000000,0.000000,0.000000,0.000000,-0.250000,0.250000,0.000969,0.000000,0.000000,0.000000,0.000000,819,819,819,819
9862,0,1.898921,1.200094,3.227159,-0.05,-0.00,-0.004367,0.004000,0.000000,0.399995,0.000000,0.000000,0.000000,0.000000,-0.250000,0.250000,0.024355,0.000000,0.000000,0.000000,0.000000,819,819,819,819
9873,0,1.896637,1.200075,3.256727,-0.05,-0.00,-0.002916,0.004000,0.000000,0.399995,0.000000,0.000000,0.000000,0.000000,-0.250000,0.250000,0.016966,0.000000,0.000000,0.000000,0.000000,819,819,819,819
9883,0,1.894810,1.200060,3.280382,-0.05,-0.00,0.001817,0.004000,0.000000,0.399995,0.000000,0.000000,0.000000,0.000000,-0.250000,0.250000,-0.007187,0.000000,0.000000,0.000000,0.000000,819,819,819,819
9893,0,1.893348,1.200048,3.299305,-0.05,-0.00,0.006412,0.004000,0.000000,0.399995,0.000000,0.000000,0.000000,0.000000,-0.239050,0.250000,-0.030655,0.000000,0.000000,0.000000,0.000000,819,819,819,819
9903,0,1.892178,1.200039,3.314444,-0.04,0.00,0.007771,0.004000,0.000000,0.399995,0.000000,0.000000,0.000000,0.000000,-0.221740,0.250000,-0.037629,0.000000,0.000000,0.000000,0.000000,819,819,819,819
9913,0,1.878743,1.200031,3.326555,-0.05,0.00,0.006826,0.004000,0.000000,0.399995,0.000000,0.000000,0.000000,0.000000,-0.232719,0.250000,-0.032839,0.000000,0.000000,0.000000,0.000000,819,819,819,819
9923,0,1.867994,1.200025,3.336244,-0.05,-0.00,0.005452,0.004000,0.000000,0.399995,0.000000,0.000000,0.000000,0.000000,-0.228366,0.250000,-0.025858,0.000000,0.000000,0.000000,0.000000,819,819,819,819
9933,0,1.859396,1.200020,3.343996,-0.04,-0.00,0.005452,0.004000,0.000000,0.399995,0.000000,0.000000,0.000000,0.000000,-0.213687,0.250000,-0.025885,0.000000,0.000000,0.000000,0.000000,819,819,819,819
9947,0,1.852516,1.200016,3.337696,-0.04,-0.00,0.006489,0.004000,0.000000,0.399995,0.000000,0.000000,0.000000,0.000000,-0.187372,0.250000,-0.031203,0.000000,0.000000,0.000000,0.000000,819,819,819,819
9958,0,1.847013,1.200013,3.332657,-0.03,-0.00,0.007323,0.004000,0.000000,0.399995,0.000000,0.000000,0.000000,0.000000,-0.162855,0.250000,-0.035495,0.000000,0.000000,0.000000,0.000000,819,819,819,819
9970,0,1.842610,1.200010,3.328626,-0.03,-0.00,0.005384,0.004000,0.000000,0.399995,0.000000,0.000000,0.000000,0.000000,-0.133148,0.250000,-0.025630,0.000000,0.000000,0.000000,0.000000,819,819,819,819
9981,0,1.851588,1.200008,3.312901,-0.02,-0.00,-0.000102,0.004000,0.000000,0.399995,0.000000,0.000000,0.000000,0.000000,-0.075142,0.250000,0.002349,0.000000,0.000000,0.000000,0.000000,819,819,819,819
9992,0,1.858771,1.200007,3.300321,-0.00,-0.00,-0.006724,0.004000,0.000000,0.399995,0.000000,0.000000,0.000000,0.000000,-0.028649,0.250000,0.036158,0.000000,0.000000,0.000000,0.000000,819,819,819,819
10002,0,1.877017,1.200005,3.277757,0.00,-0.00,-0.012718,0.004000,0.000000,0.399995,0.000000,0.000000,0.000000,0.000000,0.043137,0.250000,0.066788,0.000000,0.000000,0.000000,0.000000,819,819,819,819
10012,0,1.891613,1.200004,3.259706,0.02,-0.00,-0.013271,0.004000,0.000000,0.399995,0.000000,0.000000,0.000000,0.000000,0.095850,0.250000,0.069676,0.000000,0.000000,0.000000,0.000000,819,819,819,819
10022,0,1.903291,1.200004,3.245265,0.02,-0.00,-0.001440,0.004000,0.000000,0.399995,0.000000,0.000000,0.000000,0.000000,0.125314,0.250000,0.009346,0.000000,0.000000,0.000000,0.000000,819,819,819,819
10034,0,1.875133,1.212503,3.233712,0.01,-0.00,0.012375,0.004000,0.000000,0.399995,0.000000,0.000000,0.000000,0.000000,0.056883,0.250000,-0.061172,0.000000,0.000000,0.000000,0.000000,819,819,819,819
10044,0,1.840106,1.222502,3.224469,-0.00,0.00,0.023324,0.004000,0.000000,0.399995,0.000000,0.000000,0.000000,0.000000,-0.033737,0.250000,-0.117123,0.000000,0.000000,0.000000,0.000000,819,819,819,819
10053,0,1.799585,1.218002,3.204576,-0.03,0.00,0.028777,0.004000,0.000000,0.399995,0.000000,0.000000,0.000000,0.000000,-0.135601,0.250000,-0.145071,0.000000,0.000000,0.000000,0.000000,819,819,819,819
10063,0,1.767168,1.214402,3.188660,-0.04,0.00,0.027390,0.004000,0.000000,0.399995,0.000000,0.000000,0.000000,0.000000,-0.187798,0.250000,-0.138135,0.000000,0.000000,0.000000,0.000000,819,819,819,819
10073,0,1.753734,1.211521,3.175928,-0.04,0.00,0.020540,0.004000,0.000000,0.399995,0.000000,0.000000,0.000000,0.000000,-0.183217,0.250000,-0.103301,0.000000,0.000000,0.000000,0.000000,819,819,819,819
10083,0,1.742988,1.209217,3.165743,-0.03,0.00,0.011645,0.004000,0.000000,0.399995,0.000000,0.000000,0.000000,0.000000,-0.173308,0.250000,-0.058004,0.000000,0.000000,0.000000,0.000000,819,819,819,819
10093,0,1.734390,1.207374,3.145094,-0.03,-0.00,0.005461,0.004000,0.000000,0.399995,0.000000,0.000000,0.000000,0.000000,-0.162617,0.250000,-0.026497,0.000000,0.000000,0.000000,0.000000,819,819,819,819
10103,0,1.740012,1.218399,3.128575,-0.02,-0.00,0.006808,0.004000,0.000000,0.399995,0.000000,0.000000,0.000000,0.000000,-0.121473,0.250000,-0.033397,0.000000,0.000000,0.000000,0.000000,819,819,819,819
