t,is_crashed,roll,pitch,yaw,p,q,r,throttle,p_cmd,q_cmd,r_cmd,roll_cmd,pitch_cmd,yaw_cmd,roll_pid_out,pitch_pid_out,yaw_pid_out,motor_fl,motor_bl,motor_fr,motor_br,pwm_fl,pwm_bl,pwm_fr,pwm_br
7052,0,2.812500,1.062500,-0.062500,-0.06,-0.18,0.000000,-1.000000,0.000000,0.000000,0.000000,0.000000,0.000000,0.000000,0.000000,0.000000,0.000000,0.000000,0.000000,0.000000,0.000000,0,0,0,0
7064,0,0.000000,0.000000,-0.062500,-11.78,-4.43,-0.059375,-1.000000,0.000000,0.000000,0.000000,0.000000,0.000000,0.000000,0.000000,0.000000,0.000000,0.000000,0.000000,0.000000,0.000000,819,819,819,819
7073,0,0.000000,0.000000,-0.062500,0.00,0.00,-0.121719,-1.000000,0.000000,0.000000,0.000000,0.000000,0.000000,0.000000,0.000000,0.000000,0.000000,0.000000,0.000000,0.000000,0.000000,819,819,819,819
7083,0,0.000000,0.000000,-0.062500,0.06,0.00,0.172039,-1.000000,0.000000,0.000000,0.000000,0.000000,0.000000,0.000000,0.000000,0.000000,0.000000,0.000000,0.000000,0.000000,0.000000,819,819,819,819
7093,0,0.000000,0.000000,-0.062500,0.06,-0.06,-0.110148,-1.000000,0.000000,0.000000,0.000000,0.000000,0.000000,0.000000,0.000000,0.000000,0.000000,0.000000,0.000000,0.000000,0.000000,819,819,819,819
7111,0,0.000000,0.000000,-0.062500,0.00,0.06,-0.124257,-1.000000,0.000000,0.000000,0.000000,0.000000,0.000000,0.000000,0.000000,0.000000,0.000000,0.000000,0.000000,0.000000,0.000000,819,819,819,819
7122,0,0.000000,0.000000,-0.062500,0.06,0.00,-0.065588,-1.000000,0.000000,0.000000,0.000000,0.000000,0.000000,0.000000,0.000000,0.000000,0.000000,0.000000,0.000000,0.000000,0.000000,819,819,819,819
7134,0,0.000000,0.000000,-0.062500,0.00,-0.06,0.056096,-1.000000,0.000000,0.000000,0.000000,0.000000,0.000000,0.000000,0.000000,0.000000,0.000000,0.000000,0.000000,0.000000,0.000000,819,819,819,819
7144,0,0.000000,0.000000,-0.062500,-0.12,0.00,0.002805,-1.000000,0.000000,0.000000,0.000000,0.000000,0.000000,0.000000,0.000000,0.000000,0.000000,0.000000,0.000000,0.000000,0.000000,819,819,819,819
7154,0,0.000000,0.000000,-0.062500,-0.12,0.00,0.118890,-1.000000,0.000000,0.000000,0.000000,0.000000,0.000000,0.000000,0.000000,0.000000,0.000000,0.000000,0.000000,0.000000,0.000000,819,819,819,819
7163,0,0.000000,0.000000,-0.062500,0.06,0.12,0.124695,-1.000000,0.000000,0.000000,0.000000,0.000000,0.000000,0.000000,0.000000,0.000000,0.000000,0.000000,0.000000,0.000000,0.000000,819,819,819,819
7173,0,0.000000,0.000000,-0.062500,0.06,0.00,0.065610,-1.000000,0.000000,0.000000,0.000000,0.000000,0.000000,0.000000,0.000000,0.000000,0.000000,0.000000,0.000000,0.000000,0.000000,819,819,819,819
7183,0,0.000000,0.000000,-0.062500,0.00,0.06,0.003280,-1.000000,0.000000,0.000000,0.000000,0.000000,0.000000,0.000000,0.000000,0.000000,0.000000,0.000000,0.000000,0.000000,0.000000,819,819,819,819
7194,0,0.000000,0.000000,-0.062500,-0.06,-0.06,0.059539,-1.000000,0.000000,0.000000,0.000000,0.000000,0.000000,0.000000,0.000000,0.000000,0.000000,0.000000,0.000000,0.000000,0.000000,819,819,819,819
7204,0,0.000000,0.000000,-0.062500,0.00,0.00,0.002977,-1.000000,0.000000,0.000000,0.000000,0.000000,0.000000,0.000000,0.000000,0.000000,0.000000,0.000000,0.000000,0.000000,0.000000,819,819,819,819
7213,0,0.000000,0.000000,-0.062500,-0.06,0.00,0.118899,-1.000000,0.000000,0.000000,0.000000,0.000000,0.000000,0.000000,0.000000,0.000000,0.000000,0.000000,0.000000,0.000000,0.000000,819,819,819,819
7224,0,0.000000,0.000000,-0.062500,0.18,0.06,0.184070,-1.000000,0.000000,0.000000,0.000000,0.000000,0.000000,0.000000,0.000000,0.000000,0.000000,0.000000,0.000000,0.000000,0.000000,819,819,819,819
7234,0,0.000000,0.000000,-0.062500,0.06,0.00,0.009204,-1.000000,0.000000,0.000000,0.000000,0.000000,0.000000,0.000000,0.000000,0.000000,0.000000,0.000000,0.000000,0.000000,0.000000,819,819,819,819
7244,0,0.000000,0.000000,-0.062500,0.06,0.06,0.059835,-1.000000,0.000000,0.000000,0.000000,0.000000,0.000000,0.000000,0.000000,0.000000,0.000000,0.000000,0.000000,0.000000,0.000000,819,819,819,819
7254,0,0.000000,0.000000,-0.062500,0.12,-0.06,0.002992,-1.000000,0.000000,0.000000,0.000000,0.000000,0.000000,0.000000,0.000000,0.000000,0.000000,0.000000,0.000000,0.000000,0.000000,819,819,819,819
7264,0,0.000000,0.000000,-0.062500,-0.06,-0.06,0.059525,-1.000000,0.000000,0.000000,0.000000,0.000000,0.000000,0.000000,0.000000,0.000000,0.000000,0.000000,0.000000,0.000000,0.000000,819,819,819,819
7274,0,0.000000,0.000000,-0.062500,-0.06,0.12,0.002976,-1.000000,0.000000,0.000000,0.000000,0.000000,0.000000,0.000000,0.000000,0.000000,0.000000,0.000000,0.000000,0.000000,0.000000,819,819,819,819
7283,0,0.000000,0.000000,-0.062500,-0.06,-0.12,0.000149,-1.000000,0.000000,0.000000,0.000000,0.000000,0.000000,0.000000,0.000000,0.000000,0.000000,0.000000,0.000000,0.000000,0.000000,819,819,819,819
7294,0,0.000000,0.000000,-0.062500,0.06,0.18,0.059382,-1.000000,0.000000,0.000000,0.000000,0.000000,0.000000,0.000000,0.000000,0.000000,0.000000,0.000000,0.000000,0.000000,0.000000,819,819,819,819
7304,0,0.000000,0.000000,-0.062500,-0.06,-0.12,0.062344,-1.000000,0.000000,0.000000,0.000000,0.000000,0.000000,0.000000,0.000000,0.000000,0.000000,0.000000,0.000000,0.000000,0.000000,819,819,819,819
7314,0,0.000000,0.000000,-0.062500,0.00,0.00,0.062492,-1.000000,0.000000,0.000000,0.000000,0.000000,0.000000,0.000000,0.000000,0.000000,0.000000,0.000000,0.000000,0.000000,0.000000,819,819,819,819
7324,0,0.000000,0.000000,-0.062500,-0.12,-0.12,0.003125,-1.000000,0.000000,0.000000,0.000000,0.000000,0.000000,0.000000,0.000000,0.000000,0.000000,0.000000,0.000000,0.000000,0.000000,819,819,819,819
7334,0,0.000000,0.000000,-0.062500,0.00,-0.30,0.000156,-1.000000,0.000000,0.000000,0.000000,0.000000,0.000000,0.000000,0.000000,0.000000,0.000000,0.000000,0.000000,0.000000,0.000000,819,819,819,819
7344,0,0.000000,0.000000,-0.062500,0.06,-0.06,-0.059367,-1.000000,0.000000,0.000000,0.000000,0.000000,0.000000,0.000000,0.000000,0.000000,0.000000,0.000000,0.000000,0.000000,0.000000,819,819,819,819
7354,0,0.000000,0.000000,-0.062500,-0.06,0.12,-0.121718,-1.000000,0.000000,0.000000,0.000000,0.000000,0.000000,0.000000,0.000000,0.000000,0.000000,0.000000,0.000000,0.000000,0.000000,819,819,819,819
7364,0,0.000000,0.000000,-0.062500,0.00,-0.77,0.231414,-1.000000,0.000000,0.000000,0.000000,0.000000,0.000000,0.000000,0.000000,0.000000,0.000000,0.000000,0.000000,0.000000,0.000000,819,819,819,819
7374,0,0.000000,0.000000,-0.062500,0.06,-0.06,0.249071,-1.000000,0.000000,0.000000,0.000000,0.000000,0.000000,0.000000,0.000000,0.000000,0.000000,0.000000,0.000000,0.000000,0.000000,819,819,819,819
7384,0,0.000000,0.000000,-0.062500,-0.06,0.12,0.131204,-1.000000,0.000000,0.000000,0.000000,0.000000,0.000000,0.000000,0.000000,0.000000,0.000000,0.000000,0.000000,0.000000,0.000000,819,819,819,819
7394,0,0.000000,0.000000,-0.062500,0.00,0.36,-0.468440,-1.000000,0.000000,0.000000,0.000000,0.000000,0.000000,0.000000,0.000000,0.000000,0.000000,0.000000,0.000000,0.000000,0.000000,819,819,819,819
7404,0,0.000000,0.000000,-0.062500,0.06,0.42,-0.142172,-1.000000,0.000000,0.000000,0.000000,0.000000,0.000000,0.000000,0.000000,0.000000,0.000000,0.000000,0.000000,0.000000,0.000000,819,819,819,819
7414,0,0.000000,0.000000,-0.062500,-0.12,-0.06,-0.185234,-1.000000,0.000000,0.000000,0.000000,0.000000,0.000000,0.000000,0.000000,0.000000,0.000000,0.000000,0.000000,0.000000,0.000000,819,819,819,819
7431,0,0.000000,0.000000,-0.062500,-0.06,0.24,-0.246762,-1.000000,0.000000,0.000000,0.000000,0.000000,0.000000,0.000000,0.000000,0.000000,0.000000,0.000000,0.000000,0.000000,0.000000,819,819,819,819
7444,0,0.000000,0.000000,-0.062500,0.12,0.47,0.106412,-1.000000,0.000000,0.000000,0.000000,0.000000,0.000000,0.000000,0.000000,0.000000,0.000000,0.000000,0.000000,0.000000,0.000000,819,819,819,819
7454,0,0.000000,0.000000,-0.062500,0.06,0.36,0.124071,-1.000000,0.000000,0.000000,0.000000,0.000000,0.000000,0.000000,0.000000,0.000000,0.000000,0.000000,0.000000,0.000000,0.000000,819,819,819,819
7464,0,0.000000,0.000000,-0.062500,0.06,-0.12,-0.171921,-1.000000,0.000000,0.000000,0.000000,0.000000,0.000000,0.000000,0.000000,0.000000,0.000000,0.000000,0.000000,0.000000,0.000000,819,819,819,819
7474,0,0.000000,0.000000,-0.062500,-0.12,-0.06,0.050779,-1.000000,0.000000,0.000000,0.000000,0.000000,0.000000,0.000000,0.000000,0.000000,0.000000,0.000000,0.000000,0.000000,0.000000,819,819,819,819
7484,0,0.000000,0.000000,-0.062500,0.00,-0.12,-0.056836,-1.000000,0.000000,0.000000,0.000000,0.000000,0.000000,0.000000,0.000000,0.000000,0.000000,0.000000,0.000000,0.000000,0.000000,819,819,819,819
7494,0,0.000000,0.000000,-0.062500,0.00,-0.36,0.294033,-1.000000,0.000000,0.000000,0.000000,0.000000,0.000000,0.000000,0.000000,0.000000,0.000000,0.000000,0.000000,0.000000,0.000000,819,819,819,819
7504,0,0.000000,0.000000,-0.062500,-0.12,-0.24,-0.163423,-1.000000,0.000000,0.000000,0.000000,0.000000,0.000000,0.000000,0.000000,0.000000,0.000000,0.000000,0.000000,0.000000,0.000000,819,819,819,819
7514,0,0.000000,0.000000,-0.062500,0.00,-0.83,0.110579,-1.000000,0.000000,0.000000,0.000000,0.000000,0.000000,0.000000,0.000000,0.000000,0.000000,0.000000,0.000000,0.000000,0.000000,819,819,819,819
7524,0,0.000000,0.000000,-0.062500,-0.12,-0.89,-0.172596,-1.000000,0.000000,0.000000,0.000000,0.000000,0.000000,0.000000,0.000000,0.000000,0.000000,0.000000,0.000000,0.000000,0.000000,819,819,819,819
7534,0,0.000000,0.000000,-0.062500,0.06,0.24,-0.186755,-1.000000,0.000000,0.000000,0.000000,0.000000,0.000000,0.000000,0.000000,0.000000,0.000000,0.000000,0.000000,0.000000,0.000000,819,819,819,819
7544,0,0.000000,0.000000,-0.062500,0.06,0.53,-0.484338,-1.000000,0.000000,0.000000,0.000000,0.000000,0.000000,0.000000,0.000000,0.000000,0.000000,0.000000,0.000000,0.000000,0.000000,819,819,819,819
7554,0,0.000000,0.000000,-0.062500,0.06,0.65,0.035158,-1.000000,0.000000,0.000000,0.000000,0.000000,0.000000,0.000000,0.000000,0.000000,0.000000,0.000000,0.000000,0.000000,0.000000,819,819,819,819
7564,0,0.000000,0.000000,-0.062500,0.00,0.53,-0.591992,-1.000000,0.000000,0.000000,0.000000,0.000000,0.000000,0.000000,0.000000,0.000000,0.000000,0.000000,0.000000,0.000000,0.000000,819,819,819,819
7574,0,0.000000,0.000000,-0.062500,0.00,0.42,-0.088975,-1.000000,0.000000,0.000000,0.000000,0.000000,0.000000,0.000000,0.000000,0.000000,0.000000,0.000000,0.000000,0.000000,0.000000,819,819,819,819
7584,0,0.000000,0.000000,-0.062500,0.00,-0.12,-0.123199,-1.000000,0.000000,0.000000,0.000000,0.000000,0.000000,0.000000,0.000000,0.000000,0.000000,0.000000,0.000000,0.000000,0.000000,819,819,819,819
7595,0,0.000000,0.000000,-0.062500,0.06,0.36,0.171965,-1.000000,0.000000,0.000000,0.000000,0.000000,0.000000,0.000000,0.000000,0.000000,0.000000,0.000000,0.000000,0.000000,0.000000,819,819,819,819
7604,0,0.000000,0.000000,-0.062500,0.06,-0.06,0.364848,-1.000000,0.000000,0.000000,0.000000,0.000000,0.000000,0.000000,0.000000,0.000000,0.000000,0.000000,0.000000,0.000000,0.000000,819,819,819,819
7614,0,0.000000,0.000000,-0.062500,0.00,0.00,0.018242,-1.000000,0.000000,0.000000,0.000000,0.000000,0.000000,0.000000,0.000000,0.000000,0.000000,0.000000,0.000000,0.000000,0.000000,819,819,819,819
7624,0,0.000000,0.000000,-0.062500,0.00,-0.24,0.238412,-1.000000,0.000000,0.000000,0.000000,0.000000,0.000000,0.000000,0.000000,0.000000,0.000000,0.000000,0.000000,0.000000,0.000000,819,819,819,819
7635,0,0.000000,0.000000,-0.062500,-0.06,-0.24,0.130671,-1.000000,0.000000,0.000000,0.000000,0.000000,0.000000,0.000000,0.000000,0.000000,0.000000,0.000000,0.000000,0.000000,0.000000,819,819,819,819
7645,0,0.000000,0.000000,-0.062500,0.00,-0.12,0.244034,-1.000000,0.000000,0.000000,0.000000,0.000000,0.000000,0.000000,0.000000,0.000000,0.000000,0.000000,0.000000,0.000000,0.000000,819,819,819,819
7655,0,0.000000,0.000000,-0.062500,-0.06,0.36,-0.344048,-1.000000,0.000000,0.000000,0.000000,0.000000,0.000000,0.000000,0.000000,0.000000,0.000000,0.000000,0.000000,0.000000,0.000000,819,819,819,819
7665,0,0.000000,0.000000,-0.062500,0.06,-0.36,0.220298,-1.000000,0.000000,0.000000,0.000000,0.000000,0.000000,0.000000,0.000000,0.000000,0.000000,0.000000,0.000000,0.000000,0.000000,819,819,819,819
7675,0,0.000000,0.000000,-0.062500,0.00,-0.53,-0.048360,-1.000000,0.000000,0.000000,0.000000,0.000000,0.000000,0.000000,0.000000,0.000000,0.000000,0.000000,0.000000,0.000000,0.000000,819,819,819,819
7685,0,0.000000,0.000000,-0.062500,-0.12,-0.42,0.472582,-1.000000,0.000000,0.000000,0.000000,0.000000,0.000000,0.000000,0.000000,0.000000,0.000000,0.000000,0.000000,0.000000,0.000000,819,819,819,819
7695,0,0.000000,0.000000,-0.062500,-0.06,-0.06,0.083004,-1.000000,0.000000,0.000000,0.000000,0.000000,0.000000,0.000000,0.000000,0.000000,0.000000,0.000000,0.000000,0.000000,0.000000,819,819,819,819
7705,0,0.000000,0.000000,-0.062500,0.12,-0.24,0.182275,-1.000000,0.000000,0.000000,0.000000,0.000000,0.000000,0.000000,0.000000,0.000000,0.000000,0.000000,0.000000,0.000000,0.000000,819,819,819,819
7714,0,0.000000,0.000000,-0.062500,-0.18,0.30,-0.347136,-1.000000,0.000000,0.000000,0.000000,0.000000,0.000000,0.000000,0.000000,0.000000,0.000000,0.000000,0.000000,0.000000,0.000000,819,819,819,819
7725,0,0.000000,0.000000,-0.062500,-0.06,0.36,-0.314232,-1.000000,0.000000,0.000000,0.000000,0.000000,0.000000,0.000000,0.000000,0.000000,0.000000,0.000000,0.000000,0.000000,0.000000,819,819,819,819
7735,0,0.000000,0.000000,-0.062500,-0.06,0.30,-0.193837,-1.000000,0.000000,0.000000,0.000000,0.000000,0.000000,0.000000,0.000000,0.000000,0.000000,0.000000,0.000000,0.000000,0.000000,819,819,819,819
7750,0,0.000000,0.000000,-0.062500,0.00,0.00,-0.544067,-1.000000,0.000000,0.000000,0.000000,0.000000,0.000000,0.000000,0.000000,0.000000,0.000000,0.000000,0.000000,0.000000,0.000000,819,819,819,819
7762,0,0.000000,0.000000,-0.062500,-0.06,0.24,-0.264703,-1.000000,0.000000,0.000000,0.000000,0.000000,0.000000,0.000000,0.000000,0.000000,0.000000,0.000000,0.000000,0.000000,0.000000,819,819,819,819
7774,0,0.000000,0.000000,-0.062500,0.00,0.24,-0.310110,-1.000000,0.000000,0.000000,0.000000,0.000000,0.000000,0.000000,0.000000,0.000000,0.000000,0.000000,0.000000,0.000000,0.000000,819,819,819,819
7784,0,0.000000,0.000000,-0.062500,-0.06,-0.12,0.340744,-1.000000,0.000000,0.000000,0.000000,0.000000,0.000000,0.000000,0.000000,0.000000,0.000000,0.000000,0.000000,0.000000,0.000000,819,819,819,819
7795,0,0.000000,0.000000,-0.062500,-0.06,-0.18,-0.101713,-1.000000,0.000000,0.000000,0.000000,0.000000,0.000000,0.000000,0.000000,0.000000,0.000000,0.000000,0.000000,0.000000,0.000000,819,819,819,819
7805,0,0.000000,0.000000,-0.062500,0.06,0.06,-0.064461,-1.000000,0.000000,0.000000,0.000000,0.000000,0.000000,0.000000,0.000000,0.000000,0.000000,0.000000,0.000000,0.000000,0.000000,819,819,819,819
7815,0,0.000000,0.000000,-0.062500,0.12,0.06,-0.121973,-1.000000,0.000000,0.000000,0.000000,0.000000,0.000000,0.000000,0.000000,0.000000,0.000000,0.000000,0.000000,0.000000,0.000000,819,819,819,819
7825,0,0.000000,0.000000,-0.062500,0.00,-0.53,-0.243599,-1.000000,0.000000,0.000000,0.000000,0.000000,0.000000,0.000000,0.000000,0.000000,0.000000,0.000000,0.000000,0.000000,0.000000,819,819,819,819
7835,0,0.000000,0.000000,-0.062500,-0.06,-0.24,-0.012180,-1.000000,0.000000,0.000000,0.000000,0.000000,0.000000,0.000000,0.000000,0.000000,0.000000,0.000000,0.000000,0.000000,0.000000,819,819,819,819
7845,0,0.000000,0.000000,-0.062500,-0.06,0.06,-0.000609,-1.000000,0.000000,0.000000,0.000000,0.000000,0.000000,0.000000,0.000000,0.000000,0.000000,0.000000,0.000000,0.000000,0.000000,819,819,819,819
7855,0,0.000000,0.000000,-0.062500,-0.12,0.00,-0.178155,-1.000000,0.000000,0.000000,0.000000,0.000000,0.000000,0.000000,0.000000,0.000000,0.000000,0.000000,0.000000,0.000000,0.000000,819,819,819,819
7865,0,0.000000,0.000000,-0.062500,0.06,0.00,-0.187033,-1.000000,0.000000,0.000000,0.000000,0.000000,0.000000,0.000000,0.000000,0.000000,0.000000,0.000000,0.000000,0.000000,0.000000,819,819,819,819
7875,0,0.000000,0.000000,-0.062500,0.06,-0.53,-0.009352,-1.000000,0.000000,0.000000,0.000000,0.000000,0.000000,0.000000,0.000000,0.000000,0.000000,0.000000,0.000000,0.000000,0.000000,819,819,819,819
7885,0,0.000000,0.000000,-0.062500,0.00,-0.24,0.118282,-1.000000,0.000000,0.000000,0.000000,0.000000,0.000000,0.000000,0.000000,0.000000,0.000000,0.000000,0.000000,0.000000,0.000000,819,819,819,819
7895,0,0.000000,0.000000,-0.062500,-0.06,0.00,0.124664,-1.000000,0.000000,0.000000,0.000000,0.000000,0.000000,0.000000,0.000000,0.000000,0.000000,0.000000,0.000000,0.000000,0.000000,819,819,819,819
7907,0,0.000000,0.000000,-0.062500,0.00,0.18,0.065608,-1.000000,0.000000,0.000000,0.000000,0.000000,0.000000,0.000000,0.000000,0.000000,0.000000,0.000000,0.000000,0.000000,0.000000,819,819,819,819
7917,0,0.000000,0.000000,-0.062500,-0.06,0.06,0.122030,-1.000000,0.000000,0.000000,0.000000,0.000000,0.000000,0.000000,0.000000,0.000000,0.000000,0.000000,0.000000,0.000000,0.000000,819,819,819,819
7926,0,0.000000,0.000000,-0.062500,0.06,0.06,0.006102,-1.000000,0.000000,0.000000,0.000000,0.000000,0.000000,0.000000,0.000000,0.000000,0.000000,0.000000,0.000000,0.000000,0.000000,819,819,819,819
7936,0,0.000000,0.000000,-0.062500,0.00,-0.06,0.059680,-1.000000,0.000000,0.000000,0.000000,0.000000,0.000000,0.000000,0.000000,0.000000,0.000000,0.000000,0.000000,0.000000,0.000000,819,819,819,819
7945,0,0.000000,0.000000,-0.062500,-0.18,-0.30,0.002984,-1.000000,0.000000,0.000000,0.000000,0.000000,0.000000,0.000000,0.000000,0.000000,0.000000,0.000000,0.000000,0.000000,0.000000,819,819,819,819
7955,0,0.000000,0.000000,-0.062500,0.06,0.00,-0.059226,-1.000000,0.000000,0.000000,0.000000,0.000000,0.000000,0.000000,0.000000,0.000000,0.000000,0.000000,0.000000,0.000000,0.000000,819,819,819,819
7965,0,0.000000,0.000000,-0.062500,-0.12,0.12,-0.121711,-1.000000,0.000000,0.000000,0.000000,0.000000,0.000000,0.000000,0.000000,0.000000,0.000000,0.000000,0.000000,0.000000,0.000000,819,819,819,819
7975,0,0.000000,0.000000,-0.062500,0.06,0.24,-0.065461,-1.000000,0.000000,0.000000,0.000000,0.000000,0.000000,0.000000,0.000000,0.000000,0.000000,0.000000,0.000000,0.000000,0.000000,819,819,819,819
7985,0,0.000000,0.000000,-0.062500,0.12,0.06,-0.003273,-1.000000,0.000000,0.000000,0.000000,0.000000,0.000000,0.000000,0.000000,0.000000,0.000000,0.000000,0.000000,0.000000,0.000000,819,819,819,819
7996,0,0.000000,0.000000,-0.062500,-0.06,-0.18,0.118586,-1.000000,0.000000,0.000000,0.000000,0.000000,0.000000,0.000000,0.000000,0.000000,0.000000,0.000000,0.000000,0.000000,0.000000,819,819,819,819
8005,0,0.000000,0.000000,-0.062500,0.12,0.06,0.124679,-1.000000,0.000000,0.000000,0.000000,0.000000,0.000000,0.000000,0.000000,0.000000,0.000000,0.000000,0.000000,0.000000,0.000000,819,819,819,819
8015,0,0.000000,0.000000,-0.062500,0.12,0.06,0.124984,-1.000000,0.000000,0.000000,0.000000,0.000000,0.000000,0.000000,0.000000,0.000000,0.000000,0.000000,0.000000,0.000000,0.000000,819,819,819,819
8025,0,0.000000,0.000000,-0.062500,0.06,-0.06,0.065624,-1.000000,0.000000,0.000000,0.000000,0.000000,0.000000,0.000000,0.000000,0.000000,0.000000,0.000000,0.000000,0.000000,0.000000,819,819,819,819
8035,0,0.000000,0.000000,-0.062500,0.00,0.06,0.062656,-1.000000,0.000000,0.000000,0.000000,0.000000,0.000000,0.000000,0.000000,0.000000,0.000000,0.000000,0.000000,0.000000,0.000000,819,819,819,819
8046,0,0.000000,0.000000,-0.062500,-0.12,0.00,0.003133,-1.000000,0.000000,0.000000,0.000000,0.000000,0.000000,0.000000,0.000000,0.000000,0.000000,0.000000,0.000000,0.000000,0.000000,819,819,819,819
8062,0,0.000000,0.000000,-0.062500,0.06,-0.18,-0.177968,-1.000000,0.000000,0.000000,0.000000,0.000000,0.000000,0.000000,0.000000,0.000000,0.000000,0.000000,0.000000,0.000000,0.000000,819,819,819,819
8075,0,0.000000,0.000000,-0.062500,0.00,0.06,0.050477,-1.000000,0.000000,0.000000,0.000000,0.000000,0.000000,0.000000,0.000000,0.000000,0.000000,0.000000,0.000000,0.000000,0.000000,819,819,819,819
8086,0,0.000000,0.000000,-0.062500,-0.12,-0.24,0.299399,-1.000000,0.000000,0.000000,0.000000,0.000000,0.000000,0.000000,0.000000,0.000000,0.000000,0.000000,0.000000,0.000000,0.000000,819,819,819,819
8096,0,0.000000,0.000000,-0.062500,0.06,-0.12,0.133720,-1.000000,0.000000,0.000000,0.000000,0.000000,0.000000,0.000000,0.000000,0.000000,0.000000,0.000000,0.000000,0.000000,0.000000,819,819,819,819
8106,0,0.000000,0.000000,-0.062500,0.00,0.00,0.006686,-1.000000,0.000000,0.000000,0.000000,0.000000,0.000000,0.000000,0.000000,0.000000,0.000000,0.000000,0.000000,0.000000,0.000000,819,819,819,819
8116,0,0.000000,0.000000,-0.062500,0.00,0.12,-0.059041,-1.000000,0.000000,0.000000,0.000000,0.000000,0.000000,0.000000,0.000000,0.000000,0.000000,0.000000,0.000000,0.000000,0.000000,819,819,819,819
8126,0,0.000000,0.000000,-0.062500,0.00,0.06,-0.002952,-1.000000,0.000000,0.000000,0.000000,0.000000,0.000000,0.000000,0.000000,0.000000,0.000000,0.000000,0.000000,0.000000,0.000000,819,819,819,819
8136,0,0.000000,0.000000,-0.062500,-0.12,-0.18,0.177977,-1.000000,0.000000,0.000000,0.000000,0.000000,0.000000,0.000000,0.000000,0.000000,0.000000,0.000000,0.000000,0.000000,0.000000,819,819,819,819
8146,0,0.000000,0.000000,-0.062500,-0.06,-0.30,-0.050476,-1.000000,0.000000,0.000000,0.000000,0.000000,0.000000,0.000000,0.000000,0.000000,0.000000,0.000000,0.000000,0.000000,0.000000,819,819,819,819
8156,0,0.000000,0.000000,-0.062500,-0.12,-0.06,-0.002524,-1.000000,0.000000,0.000000,0.000000,0.000000,0.000000,0.000000,0.000000,0.000000,0.000000,0.000000,0.000000,0.000000,0.000000,819,819,819,819
8166,0,0.000000,0.000000,-0.062500,0.06,-0.12,0.118624,-1.000000,0.000000,0.000000,0.000000,0.000000,0.000000,0.000000,0.000000,0.000000,0.000000,0.000000,0.000000,0.000000,0.000000,819,819,819,819
8176,0,0.000000,0.000000,-0.062500,0.06,0.06,0.005931,-1.000000,0.000000,0.000000,0.000000,0.000000,0.000000,0.000000,0.000000,0.000000,0.000000,0.000000,0.000000,0.000000,0.000000,819,819,819,819
8186,0,0.000000,0.000000,-0.062500,0.00,0.24,0.059672,-1.000000,0.000000,0.000000,0.000000,0.000000,0.000000,0.000000,0.000000,0.000000,0.000000,0.000000,0.000000,0.000000,0.000000,819,819,819,819
8196,0,0.000000,0.000000,-0.062500,0.00,0.00,0.121734,-1.000000,0.000000,0.000000,0.000000,0.000000,0.000000,0.000000,0.000000,0.000000,0.000000,0.000000,0.000000,0.000000,0.000000,819,819,819,819
8206,0,0.000000,0.000000,-0.062500,0.06,0.06,0.184212,-1.000000,0.000000,0.000000,0.000000,0.000000,0.000000,0.000000,0.000000,0.000000,0.000000,0.000000,0.000000,0.000000,0.000000,819,819,819,819
8216,0,0.000000,0.000000,-0.062500,0.00,0.12,0.127961,-1.000000,0.000000,0.000000,0.000000,0.000000,0.000000,0.000000,0.000000,0.000000,0.000000,0.000000,0.000000,0.000000,0.000000,819,819,819,819
8226,0,0.000000,0.000000,-0.062500,0.12,-0.06,-0.052977,-1.000000,0.000000,0.000000,0.000000,0.000000,0.000000,0.000000,0.000000,0.000000,0.000000,0.000000,0.000000,0.000000,0.000000,819,819,819,819
8236,0,0.000000,0.000000,-0.062500,0.06,-0.12,0.056726,-1.000000,0.000000,0.000000,0.000000,0.000000,0.000000,0.000000,0.000000,0.000000,0.000000,0.000000,0.000000,0.000000,0.000000,819,819,819,819
8246,0,0.000000,0.000000,-0.062500,-0.06,0.06,0.002836,-1.000000,0.000000,0.000000,0.000000,0.000000,0.000000,0.000000,0.000000,0.000000,0.000000,0.000000,0.000000,0.000000,0.000000,819,819,819,819
8256,0,0.000000,0.000000,-0.062500,-0.06,0.12,0.118892,-1.000000,0.000000,0.000000,0.000000,0.000000,0.000000,0.000000,0.000000,0.000000,0.000000,0.000000,0.000000,0.000000,0.000000,819,819,819,819
8266,0,0.000000,0.000000,-0.062500,0.06,-0.06,0.005945,-1.000000,0.000000,0.000000,0.000000,0.000000,0.000000,0.000000,0.000000,0.000000,0.000000,0.000000,0.000000,0.000000,0.000000,819,819,819,819
8276,0,0.000000,0.000000,-0.062500,0.00,-0.06,-0.059078,-1.000000,0.000000,0.000000,0.000000,0.000000,0.000000,0.000000,0.000000,0.000000,0.000000,0.000000,0.000000,0.000000,0.000000,819,819,819,819
8286,0,0.000000,0.000000,-0.062500,-0.06,-0.06,0.056421,-1.000000,0.000000,0.000000,0.000000,0.000000,0.000000,0.000000,0.000000,0.000000,0.000000,0.000000,0.000000,0.000000,0.000000,819,819,819,819
8296,0,0.000000,0.000000,-0.062500,0.00,-0.12,0.121571,-1.000000,0.000000,0.000000,0.000000,0.000000,0.000000,0.000000,0.000000,0.000000,0.000000,0.000000,0.000000,0.000000,0.000000,819,819,819,819
8306,0,0.000000,0.000000,-0.062500,0.00,0.12,0.124829,-1.000000,0.000000,0.000000,0.000000,0.000000,0.000000,0.000000,0.000000,0.000000,0.000000,0.000000,0.000000,0.000000,0.000000,819,819,819,819
8316,0,0.000000,0.000000,-0.062500,0.00,-0.12,0.065616,-1.000000,0.000000,0.000000,0.000000,0.000000,0.000000,0.000000,0.000000,0.000000,0.000000,0.000000,0.000000,0.000000,0.000000,819,819,819,819
8326,0,0.000000,0.000000,-0.062500,-0.06,-0.18,0.062656,-1.000000,0.000000,0.000000,0.000000,0.000000,0.000000,0.000000,0.000000,0.000000,0.000000,0.000000,0.000000,0.000000,0.000000,819,819,819,819
8336,0,0.000000,0.000000,-0.062500,0.00,-0.24,0.003133,-1.000000,0.000000,0.000000,0.000000,0.000000,0.000000,0.000000,0.000000,0.000000,0.000000,0.000000,0.000000,0.000000,0.000000,819,819,819,819
8346,0,0.000000,0.000000,-0.062500,0.12,0.00,0.059532,-1.000000,0.000000,0.000000,0.000000,0.000000,0.000000,0.000000,0.000000,0.000000,0.000000,0.000000,0.000000,0.000000,0.000000,819,819,819,819
8356,0,0.000000,0.000000,-0.062500,-0.18,0.00,0.002977,-1.000000,0.000000,0.000000,0.000000,0.000000,0.000000,0.000000,0.000000,0.000000,0.000000,0.000000,0.000000,0.000000,0.000000,819,819,819,819
8366,0,0.000000,0.000000,-0.062500,-0.06,-0.06,0.059524,-1.000000,0.000000,0.000000,0.000000,0.000000,0.000000,0.000000,0.000000,0.000000,0.000000,0.000000,0.000000,0.000000,0.000000,819,819,819,819
8384,0,0.000000,0.000000,-0.062500,-0.12,-0.06,0.062351,-1.000000,0.000000,0.000000,0.000000,0.000000,0.000000,0.000000,0.000000,0.000000,0.000000,0.000000,0.000000,0.000000,0.000000,819,819,819,819
8397,0,0.000000,0.000000,-0.062500,0.00,-0.24,0.062493,-1.000000,0.000000,0.000000,0.000000,0.000000,0.000000,0.000000,0.000000,0.000000,0.000000,0.000000,0.000000,0.000000,0.000000,819,819,819,819
8406,0,0.000000,0.000000,-0.062500,0.00,-0.06,0.062500,-1.000000,0.000000,0.000000,0.000000,0.000000,0.000000,0.000000,0.000000,0.000000,0.000000,0.000000,0.000000,0.000000,0.000000,819,819,819,819
8416,0,0.000000,0.000000,-0.062500,0.06,0.06,0.003125,-1.000000,0.000000,0.000000,0.000000,0.000000,0.000000,0.000000,0.000000,0.000000,0.000000,0.000000,0.000000,0.000000,0.000000,819,819,819,819
8427,0,0.000000,0.000000,-0.062500,-0.06,0.12,0.178281,-1.000000,0.000000,0.000000,0.000000,0.000000,0.000000,0.000000,0.000000,0.000000,0.000000,0.000000,0.000000,0.000000,0.000000,819,819,819,819
8437,0,0.000000,0.000000,-0.062500,-0.12,0.12,0.187039,-1.000000,0.000000,0.000000,0.000000,0.000000,0.000000,0.000000,0.000000,0.000000,0.000000,0.000000,0.000000,0.000000,0.000000,819,819,819,819
8447,0,0.000000,0.000000,-0.062500,0.00,-0.06,0.128102,-1.000000,0.000000,0.000000,0.000000,0.000000,0.000000,0.000000,0.000000,0.000000,0.000000,0.000000,0.000000,0.000000,0.000000,819,819,819,819
8457,0,0.000000,0.000000,-0.062500,0.12,-0.18,-0.052970,-1.000000,0.000000,0.000000,0.000000,0.000000,0.000000,0.000000,0.000000,0.000000,0.000000,0.000000,0.000000,0.000000,0.000000,819,819,819,819
8467,0,0.000000,0.000000,-0.062500,0.06,-0.18,-0.002648,-1.000000,0.000000,0.000000,0.000000,0.000000,0.000000,0.000000,0.000000,0.000000,0.000000,0.000000,0.000000,0.000000,0.000000,819,819,819,819
8477,0,0.000000,0.000000,-0.062500,-0.06,-0.12,-0.059507,-1.000000,0.000000,0.000000,0.000000,0.000000,0.000000,0.000000,0.000000,0.000000,0.000000,0.000000,0.000000,0.000000,0.000000,819,819,819,819
8487,0,0.000000,0.000000,-0.062500,-0.06,0.00,0.056400,-1.000000,0.000000,0.000000,0.000000,0.000000,0.000000,0.000000,0.000000,0.000000,0.000000,0.000000,0.000000,0.000000,0.000000,819,819,819,819
8497,0,0.000000,0.000000,-0.062500,-0.06,-0.06,0.121570,-1.000000,0.000000,0.000000,0.000000,0.000000,0.000000,0.000000,0.000000,0.000000,0.000000,0.000000,0.000000,0.000000,0.000000,819,819,819,819
8507,0,0.000000,0.000000,-0.062500,-0.12,0.06,-0.053297,-1.000000,0.000000,0.000000,0.000000,0.000000,0.000000,0.000000,0.000000,0.000000,0.000000,0.000000,0.000000,0.000000,0.000000,819,819,819,819
8517,0,0.000000,0.000000,-0.062500,-0.12,-0.06,0.056710,-1.000000,0.000000,0.000000,0.000000,0.000000,0.000000,0.000000,0.000000,0.000000,0.000000,0.000000,0.000000,0.000000,0.000000,819,819,819,819
8527,0,0.000000,0.000000,-0.062500,0.06,0.00,0.002836,-1.000000,0.000000,0.000000,0.000000,0.000000,0.000000,0.000000,0.000000,0.000000,0.000000,0.000000,0.000000,0.000000,0.000000,819,819,819,819
8537,0,0.000000,0.000000,-0.062500,0.00,-0.12,-0.118608,-1.000000,0.000000,0.000000,0.000000,0.000000,0.000000,0.000000,0.000000,0.000000,0.000000,0.000000,0.000000,0.000000,0.000000,819,819,819,819
8547,0,0.000000,0.000000,-0.062500,-0.06,0.06,0.112820,-1.000000,0.000000,0.000000,0.000000,0.000000,0.000000,0.000000,0.000000,0.000000,0.000000,0.000000,0.000000,0.000000,0.000000,819,819,819,819
8557,0,0.000000,0.000000,-0.062500,0.06,0.12,0.124391,-1.000000,0.000000,0.000000,0.000000,0.000000,0.000000,0.000000,0.000000,0.000000,0.000000,0.000000,0.000000,0.000000,0.000000,819,819,819,819
8567,0,0.000000,0.000000,-0.062500,0.06,0.12,0.006220,-1.000000,0.000000,0.000000,0.000000,0.000000,0.000000,0.000000,0.000000,0.000000,0.000000,0.000000,0.000000,0.000000,0.000000,819,819,819,819
8577,0,0.000000,0.000000,-0.062500,-0.06,0.06,0.059686,-1.000000,0.000000,0.000000,0.000000,0.000000,0.000000,0.000000,0.000000,0.000000,0.000000,0.000000,0.000000,0.000000,0.000000,819,819,819,819
8587,0,0.000000,0.000000,-0.062500,0.06,-0.06,0.002984,-1.000000,0.000000,0.000000,0.000000,0.000000,0.000000,0.000000,0.000000,0.000000,0.000000,0.000000,0.000000,0.000000,0.000000,819,819,819,819
8597,0,0.000000,0.000000,-0.062500,-0.12,-0.06,-0.059226,-1.000000,0.000000,0.000000,0.000000,0.000000,0.000000,0.000000,0.000000,0.000000,0.000000,0.000000,0.000000,0.000000,0.000000,819,819,819,819
8607,0,0.000000,0.000000,-0.062500,0.00,0.06,-0.121711,-1.000000,0.000000,0.000000,0.000000,0.000000,0.000000,0.000000,0.000000,0.000000,0.000000,0.000000,0.000000,0.000000,0.000000,819,819,819,819
8617,0,0.000000,0.000000,-0.062500,-0.12,0.06,-0.184211,-1.000000,0.000000,0.000000,0.000000,0.000000,0.000000,0.000000,0.000000,0.000000,0.000000,0.000000,0.000000,0.000000,0.000000,819,819,819,819
8627,0,0.000000,0.000000,-0.062500,0.06,0.30,-0.187336,-1.000000,0.000000,0.000000,0.000000,0.000000,0.000000,0.000000,0.000000,0.000000,0.000000,0.000000,0.000000,0.000000,0.000000,819,819,819,819
8637,0,0.000000,0.000000,-0.062500,0.00,-0.12,-0.128117,-1.000000,0.000000,0.000000,0.000000,0.000000,0.000000,0.000000,0.000000,0.000000,0.000000,0.000000,0.000000,0.000000,0.000000,819,819,819,819
8647,0,0.000000,0.000000,-0.062500,-0.06,-0.24,-0.065781,-1.000000,0.000000,0.000000,0.000000,0.000000,0.000000,0.000000,0.000000,0.000000,0.000000,0.000000,0.000000,0.000000,0.000000,819,819,819,819
8657,0,0.000000,0.000000,-0.062500,0.06,0.06,0.115461,-1.000000,0.000000,0.000000,0.000000,0.000000,0.000000,0.000000,0.000000,0.000000,0.000000,0.000000,0.000000,0.000000,0.000000,819,819,819,819
8667,0,0.000000,0.000000,-0.062500,0.06,0.24,0.065148,-1.000000,0.000000,0.000000,0.000000,0.000000,0.000000,0.000000,0.000000,0.000000,0.000000,0.000000,0.000000,0.000000,0.000000,819,819,819,819
8677,0,0.000000,0.000000,-0.062500,0.06,0.18,0.003257,-1.000000,0.000000,0.000000,0.000000,0.000000,0.000000,0.000000,0.000000,0.000000,0.000000,0.000000,0.000000,0.000000,0.000000,819,819,819,819
8687,0,0.000000,0.000000,-0.062500,0.06,-0.12,-0.059212,-1.000000,0.000000,0.000000,0.000000,0.000000,0.000000,0.000000,0.000000,0.000000,0.000000,0.000000,0.000000,0.000000,0.000000,819,819,819,819
8703,0,0.000000,0.000000,-0.062500,-0.06,-0.24,-0.062336,-1.000000,0.000000,0.000000,0.000000,0.000000,0.000000,0.000000,0.000000,0.000000,0.000000,0.000000,0.000000,0.000000,0.000000,819,819,819,819
8714,0,0.000000,0.000000,-0.062500,-0.12,-0.12,-0.121867,-1.000000,0.000000,0.000000,0.000000,0.000000,0.000000,0.000000,0.000000,0.000000,0.000000,0.000000,0.000000,0.000000,0.000000,819,819,819,819
8726,0,0.000000,0.000000,-0.062500,-0.12,-0.06,-0.362343,-1.000000,0.000000,0.000000,0.000000,0.000000,0.000000,0.000000,0.000000,0.000000,0.000000,0.000000,0.000000,0.000000,0.000000,819,819,819,819
8736,0,0.000000,0.000000,-0.062500,0.00,0.18,-0.196242,-1.000000,0.000000,0.000000,0.000000,0.000000,0.000000,0.000000,0.000000,0.000000,0.000000,0.000000,0.000000,0.000000,0.000000,819,819,819,819
8747,0,0.000000,0.000000,-0.062500,-0.06,-0.18,-0.069187,-1.000000,0.000000,0.000000,0.000000,0.000000,0.000000,0.000000,0.000000,0.000000,0.000000,0.000000,0.000000,0.000000,0.000000,819,819,819,819
8760,0,0.000000,0.000000,-0.062500,-0.12,-0.12,0.055916,-1.000000,0.000000,0.000000,0.000000,0.000000,0.000000,0.000000,0.000000,0.000000,0.000000,0.000000,0.000000,0.000000,0.000000,819,819,819,819
8770,0,0.000000,0.000000,-0.062500,-0.06,0.24,0.062171,-1.000000,0.000000,0.000000,0.000000,0.000000,0.000000,0.000000,0.000000,0.000000,0.000000,0.000000,0.000000,0.000000,0.000000,819,819,819,819
8779,0,0.000000,0.000000,-0.062500,-0.12,0.36,0.181234,-1.000000,0.000000,0.000000,0.000000,0.000000,0.000000,0.000000,0.000000,0.000000,0.000000,0.000000,0.000000,0.000000,0.000000,819,819,819,819
8788,0,0.000000,0.000000,-0.062500,0.06,0.00,0.127812,-1.000000,0.000000,0.000000,0.000000,0.000000,0.000000,0.000000,0.000000,0.000000,0.000000,0.000000,0.000000,0.000000,0.000000,819,819,819,819
8798,0,0.000000,0.000000,-0.062500,0.00,-0.06,0.006391,-1.000000,0.000000,0.000000,0.000000,0.000000,0.000000,0.000000,0.000000,0.000000,0.000000,0.000000,0.000000,0.000000,0.000000,819,819,819,819
8808,0,0.000000,0.000000,-0.062500,-0.12,-0.18,-0.059055,-1.000000,0.000000,0.000000,0.000000,0.000000,0.000000,0.000000,0.000000,0.000000,0.000000,0.000000,0.000000,0.000000,0.000000,819,819,819,819
8818,0,0.000000,0.000000,-0.062500,-0.06,0.06,-0.240453,-1.000000,0.000000,0.000000,0.000000,0.000000,0.000000,0.000000,0.000000,0.000000,0.000000,0.000000,0.000000,0.000000,0.000000,819,819,819,819
8828,0,0.000000,0.000000,-0.062500,0.06,0.12,-0.308898,-1.000000,0.000000,0.000000,0.000000,0.000000,0.000000,0.000000,0.000000,0.000000,0.000000,0.000000,0.000000,0.000000,0.000000,819,819,819,819
8837,0,0.000000,0.000000,-0.062500,0.06,0.06,-0.252945,-1.000000,0.000000,0.000000,0.000000,0.000000,0.000000,0.000000,0.000000,0.000000,0.000000,0.000000,0.000000,0.000000,0.000000,819,819,819,819
8848,0,0.000000,0.000000,-0.062500,0.00,0.12,0.046728,-1.000000,0.000000,0.000000,0.000000,0.000000,0.000000,0.000000,0.000000,0.000000,0.000000,0.000000,0.000000,0.000000,0.000000,819,819,819,819
8858,0,0.000000,0.000000,-0.062500,0.00,0.00,0.180461,-1.000000,0.000000,0.000000,0.000000,0.000000,0.000000,0.000000,0.000000,0.000000,0.000000,0.000000,0.000000,0.000000,0.000000,819,819,819,819
8868,0,0.000000,0.000000,-0.062500,0.00,0.24,0.246523,-1.000000,0.000000,0.000000,0.000000,0.000000,0.000000,0.000000,0.000000,0.000000,0.000000,0.000000,0.000000,0.000000,0.000000,819,819,819,819
8878,0,0.000000,0.000000,-0.062500,-0.06,0.24,0.249826,-1.000000,0.000000,0.000000,0.000000,0.000000,0.000000,0.000000,0.000000,0.000000,0.000000,0.000000,0.000000,0.000000,0.000000,819,819,819,819
8888,0,0.000000,0.000000,-0.062500,0.00,0.06,0.071866,-1.000000,0.000000,0.000000,0.000000,0.000000,0.000000,0.000000,0.000000,0.000000,0.000000,0.000000,0.000000,0.000000,0.000000,819,819,819,819
8898,0,0.000000,0.000000,-0.062500,0.06,-0.30,-0.115157,-1.000000,0.000000,0.000000,0.000000,0.000000,0.000000,0.000000,0.000000,0.000000,0.000000,0.000000,0.000000,0.000000,0.000000,819,819,819,819
8908,0,0.000000,0.000000,-0.062500,0.00,-0.36,-0.124508,-1.000000,0.000000,0.000000,0.000000,0.000000,0.000000,0.000000,0.000000,0.000000,0.000000,0.000000,0.000000,0.000000,0.000000,819,819,819,819
8918,0,0.000000,0.000000,-0.062500,0.06,0.00,-0.184350,-1.000000,0.000000,0.000000,0.000000,0.000000,0.000000,0.000000,0.000000,0.000000,0.000000,0.000000,0.000000,0.000000,0.000000,819,819,819,819
8928,0,0.000000,0.000000,-0.062500,0.00,0.24,-0.127968,-1.000000,0.000000,0.000000,0.000000,0.000000,0.000000,0.000000,0.000000,0.000000,0.000000,0.000000,0.000000,0.000000,0.000000,819,819,819,819
8938,0,0.000000,0.000000,-0.062500,-0.06,0.59,-0.125148,-1.000000,0.000000,0.000000,0.000000,0.000000,0.000000,0.000000,0.000000,0.000000,0.000000,0.000000,0.000000,0.000000,0.000000,819,819,819,819
8948,0,0.000000,0.000000,-0.062500,-0.06,0.24,0.053118,-1.000000,0.000000,0.000000,0.000000,0.000000,0.000000,0.000000,0.000000,0.000000,0.000000,0.000000,0.000000,0.000000,0.000000,819,819,819,819
8958,0,0.000000,0.000000,-0.062500,0.00,-0.36,-0.056719,-1.000000,0.000000,0.000000,0.000000,0.000000,0.000000,0.000000,0.000000,0.000000,0.000000,0.000000,0.000000,0.000000,0.000000,819,819,819,819
8968,0,0.000000,0.000000,-0.062500,-0.06,-0.24,0.175289,-1.000000,0.000000,0.000000,0.000000,0.000000,0.000000,0.000000,0.000000,0.000000,0.000000,0.000000,0.000000,0.000000,0.000000,819,819,819,819
8978,0,0.000000,0.000000,-0.062500,-0.06,-0.12,0.305639,-1.000000,0.000000,0.000000,0.000000,0.000000,0.000000,0.000000,0.000000,0.000000,0.000000,0.000000,0.000000,0.000000,0.000000,819,819,819,819
8988,0,0.000000,0.000000,-0.062500,0.06,0.12,0.371532,-1.000000,0.000000,0.000000,0.000000,0.000000,0.000000,0.000000,0.000000,0.000000,0.000000,0.000000,0.000000,0.000000,0.000000,819,819,819,819
8998,0,0.000000,0.000000,-0.062500,0.00,0.06,0.077952,-1.000000,0.000000,0.000000,0.000000,0.000000,0.000000,0.000000,0.000000,0.000000,0.000000,0.000000,0.000000,0.000000,0.000000,819,819,819,819
9015,0,0.000000,0.000000,-0.062500,0.06,0.36,-0.411727,-1.000000,0.000000,0.000000,0.000000,0.000000,0.000000,0.000000,0.000000,0.000000,0.000000,0.000000,0.000000,0.000000,0.000000,819,819,819,819
9027,0,0.000000,0.000000,-0.062500,-0.12,0.12,-0.614336,-1.000000,0.000000,0.000000,0.000000,0.000000,0.000000,0.000000,0.000000,0.000000,0.000000,0.000000,0.000000,0.000000,0.000000,819,819,819,819
9038,0,0.000000,0.000000,-0.062500,0.00,-0.42,-0.208842,-1.000000,0.000000,0.000000,0.000000,0.000000,0.000000,0.000000,0.000000,0.000000,0.000000,0.000000,0.000000,0.000000,0.000000,819,819,819,819
9048,0,0.000000,0.000000,-0.062500,0.06,-0.06,0.167683,-1.000000,0.000000,0.000000,0.000000,0.000000,0.000000,0.000000,0.000000,0.000000,0.000000,0.000000,0.000000,0.000000,0.000000,819,819,819,819
9058,0,0.000000,0.000000,-0.062500,0.12,0.12,0.245884,-1.000000,0.000000,0.000000,0.000000,0.000000,0.000000,0.000000,0.000000,0.000000,0.000000,0.000000,0.000000,0.000000,0.000000,819,819,819,819
9068,0,0.000000,0.000000,-0.062500,-0.12,0.12,0.427919,-1.000000,0.000000,0.000000,0.000000,0.000000,0.000000,0.000000,0.000000,0.000000,0.000000,0.000000,0.000000,0.000000,0.000000,819,819,819,819
9078,0,0.000000,0.000000,-0.062500,0.12,0.18,0.258896,-1.000000,0.000000,0.000000,0.000000,0.000000,0.000000,0.000000,0.000000,0.000000,0.000000,0.000000,0.000000,0.000000,0.000000,819,819,819,819
9088,0,0.000000,0.000000,-0.062500,-0.12,0.18,0.012945,-1.000000,0.000000,0.000000,0.000000,0.000000,0.000000,0.000000,0.000000,0.000000,0.000000,0.000000,0.000000,0.000000,0.000000,819,819,819,819
9098,0,0.000000,0.000000,-0.062500,-0.06,0.12,-0.236853,-1.000000,0.000000,0.000000,0.000000,0.000000,0.000000,0.000000,0.000000,0.000000,0.000000,0.000000,0.000000,0.000000,0.000000,819,819,819,819
9108,0,0.000000,0.000000,-0.062500,0.06,-0.12,-0.308718,-1.000000,0.000000,0.000000,0.000000,0.000000,0.000000,0.000000,0.000000,0.000000,0.000000,0.000000,0.000000,0.000000,0.000000,819,819,819,819
9118,0,0.000000,0.000000,-0.062500,-0.12,-0.42,-0.134186,-1.000000,0.000000,0.000000,0.000000,0.000000,0.000000,0.000000,0.000000,0.000000,0.000000,0.000000,0.000000,0.000000,0.000000,819,819,819,819
9128,0,0.000000,0.000000,-0.062500,0.12,-0.30,-0.006709,-1.000000,0.000000,0.000000,0.000000,0.000000,0.000000,0.000000,0.000000,0.000000,0.000000,0.000000,0.000000,0.000000,0.000000,819,819,819,819
9138,0,0.000000,0.000000,-0.062500,0.06,0.12,-0.000335,-1.000000,0.000000,0.000000,0.000000,0.000000,0.000000,0.000000,0.000000,0.000000,0.000000,0.000000,0.000000,0.000000,0.000000,819,819,819,819
9149,0,0.000000,0.000000,-0.062500,-0.06,0.30,0.178108,-1.000000,0.000000,0.000000,0.000000,0.000000,0.000000,0.000000,0.000000,0.000000,0.000000,0.000000,0.000000,0.000000,0.000000,819,819,819,819
9158,0,0.000000,0.000000,-0.062500,0.12,0.24,0.305780,-1.000000,0.000000,0.000000,0.000000,0.000000,0.000000,0.000000,0.000000,0.000000,0.000000,0.000000,0.000000,0.000000,0.000000,819,819,819,819
9168,0,0.000000,0.000000,-0.062500,0.12,-0.24,0.193414,-1.000000,0.000000,0.000000,0.000000,0.000000,0.000000,0.000000,0.000000,0.000000,0.000000,0.000000,0.000000,0.000000,0.000000,819,819,819,819
9178,0,0.000000,0.000000,-0.062500,-0.06,-0.12,0.009671,-1.000000,0.000000,0.000000,0.000000,0.000000,0.000000,0.000000,0.000000,0.000000,0.000000,0.000000,0.000000,0.000000,0.000000,819,819,819,819
9188,0,0.000000,0.000000,-0.062500,0.06,0.12,-0.355766,-1.000000,0.000000,0.000000,0.000000,0.000000,0.000000,0.000000,0.000000,0.000000,0.000000,0.000000,0.000000,0.000000,0.000000,819,819,819,819
9198,0,0.000000,0.000000,-0.062500,-0.18,-0.12,-0.374038,-1.000000,0.000000,0.000000,0.000000,0.000000,0.000000,0.000000,0.000000,0.000000,0.000000,0.000000,0.000000,0.000000,0.000000,819,819,819,819
9208,0,0.000000,0.000000,-0.062500,0.00,-0.12,-0.137452,-1.000000,0.000000,0.000000,0.000000,0.000000,0.000000,0.000000,0.000000,0.000000,0.000000,0.000000,0.000000,0.000000,0.000000,819,819,819,819
9218,0,0.000000,0.000000,-0.062500,0.00,0.12,0.230627,-1.000000,0.000000,0.000000,0.000000,0.000000,0.000000,0.000000,0.000000,0.000000,0.000000,0.000000,0.000000,0.000000,0.000000,819,819,819,819
9229,0,0.000000,0.000000,-0.062500,0.06,-0.12,0.605281,-1.000000,0.000000,0.000000,0.000000,0.000000,0.000000,0.000000,0.000000,0.000000,0.000000,0.000000,0.000000,0.000000,0.000000,819,819,819,819
9239,0,0.000000,0.000000,-0.062500,-0.12,-0.18,0.445889,-1.000000,0.000000,0.000000,0.000000,0.000000,0.000000,0.000000,0.000000,0.000000,0.000000,0.000000,0.000000,0.000000,0.000000,819,819,819,819
9249,0,0.000000,0.000000,-0.062500,-0.06,0.00,-0.215206,-1.000000,0.000000,0.000000,0.000000,0.000000,0.000000,0.000000,0.000000,0.000000,0.000000,0.000000,0.000000,0.000000,0.000000,819,819,819,819
9259,0,0.000000,0.000000,-0.062500,-0.06,0.18,-0.545135,-1.000000,0.000000,0.000000,0.000000,0.000000,0.000000,0.000000,0.000000,0.000000,0.000000,0.000000,0.000000,0.000000,0.000000,819,819,819,819
9269,0,0.000000,0.000000,-0.062500,-0.06,0.06,-0.561632,-1.000000,0.000000,0.000000,0.000000,0.000000,0.000000,0.000000,0.000000,0.000000,0.000000,0.000000,0.000000,0.000000,0.000000,819,819,819,819
9279,0,0.000000,0.000000,-0.062500,0.12,-0.30,-0.206207,-1.000000,0.000000,0.000000,0.000000,0.000000,0.000000,0.000000,0.000000,0.000000,0.000000,0.000000,0.000000,0.000000,0.000000,819,819,819,819
9289,0,0.000000,0.000000,-0.062500,0.00,-0.12,0.345940,-1.000000,0.000000,0.000000,0.000000,0.000000,0.000000,0.000000,0.000000,0.000000,0.000000,0.000000,0.000000,0.000000,0.000000,819,819,819,819
9299,0,0.000000,0.000000,-0.062500,-0.12,-0.06,0.789172,-1.000000,0.000000,0.000000,0.000000,0.000000,0.000000,0.000000,0.000000,0.000000,0.000000,0.000000,0.000000,0.000000,0.000000,819,819,819,819
9309,0,0.000000,0.000000,-0.062500,0.06,0.12,0.751959,-1.000000,0.000000,0.000000,0.000000,0.000000,0.000000,0.000000,0.000000,0.000000,0.000000,0.000000,0.000000,0.000000,0.000000,819,819,819,819
9319,0,0.000000,0.000000,-0.062500,-0.06,0.18,0.215723,-1.000000,0.000000,0.000000,0.000000,0.000000,0.000000,0.000000,0.000000,0.000000,0.000000,0.000000,0.000000,0.000000,0.000000,819,819,819,819
9336,0,0.000000,0.000000,-0.062500,0.00,0.06,-0.167339,-1.000000,0.000000,0.000000,0.000000,0.000000,0.000000,0.000000,0.000000,0.000000,0.000000,0.000000,0.000000,0.000000,0.000000,819,819,819,819
9348,0,0.000000,0.000000,-0.062500,-0.06,0.00,-0.423992,-1.000000,0.000000,0.000000,0.000000,0.000000,0.000000,0.000000,0.000000,0.000000,0.000000,0.000000,0.000000,0.000000,0.000000,819,819,819,819
9358,0,0.000000,0.000000,-0.062500,-0.12,0.00,0.216300,-1.000000,0.000000,0.000000,0.000000,0.000000,0.000000,0.000000,0.000000,0.000000,0.000000,0.000000,0.000000,0.000000,0.000000,819,819,819,819
9368,0,0.000000,0.000000,-0.062500,-0.06,0.06,0.545190,-1.000000,0.000000,0.000000,0.000000,0.000000,0.000000,0.000000,0.000000,0.000000,0.000000,0.000000,0.000000,0.000000,0.000000,819,819,819,819
9379,0,0.000000,0.000000,-0.062500,0.00,-0.42,0.442884,-1.000000,0.000000,0.000000,0.000000,0.000000,0.000000,0.000000,0.000000,0.000000,0.000000,0.000000,0.000000,0.000000,0.000000,819,819,819,819
9389,0,0.000000,0.000000,-0.062500,0.18,-0.42,0.022144,-1.000000,0.000000,0.000000,0.000000,0.000000,0.000000,0.000000,0.000000,0.000000,0.000000,0.000000,0.000000,0.000000,0.000000,819,819,819,819
9399,0,0.000000,0.000000,-0.062500,0.06,0.42,-0.414518,-1.000000,0.000000,0.000000,0.000000,0.000000,0.000000,0.000000,0.000000,0.000000,0.000000,0.000000,0.000000,0.000000,0.000000,819,819,819,819
9409,0,0.000000,0.000000,-0.062500,0.12,0.83,-0.614476,-1.000000,0.000000,0.000000,0.000000,0.000000,0.000000,0.000000,0.000000,0.000000,0.000000,0.000000,0.000000,0.000000,0.000000,819,819,819,819
9419,0,0.000000,0.000000,-0.062500,-0.12,0.59,-0.268224,-1.000000,0.000000,0.000000,0.000000,0.000000,0.000000,0.000000,0.000000,0.000000,0.000000,0.000000,0.000000,0.000000,0.000000,819,819,819,819
9429,0,0.000000,0.000000,-0.062500,-0.12,-0.12,0.402214,-1.000000,0.000000,0.000000,0.000000,0.000000,0.000000,0.000000,0.000000,0.000000,0.000000,0.000000,0.000000,0.000000,0.000000,819,819,819,819
9439,0,0.000000,0.000000,-0.062500,0.00,-0.59,0.495111,-1.000000,0.000000,0.000000,0.000000,0.000000,0.000000,0.000000,0.000000,0.000000,0.000000,0.000000,0.000000,0.000000,0.000000,819,819,819,819
9449,0,0.000000,0.000000,-0.062500,0.00,-0.47,0.499756,-1.000000,0.000000,0.000000,0.000000,0.000000,0.000000,0.000000,0.000000,0.000000,0.000000,0.000000,0.000000,0.000000,0.000000,819,819,819,819
9459,0,0.000000,0.000000,-0.062500,0.00,-0.18,0.321863,-1.000000,0.000000,0.000000,0.000000,0.000000,0.000000,0.000000,0.000000,0.000000,0.000000,0.000000,0.000000,0.000000,0.000000,819,819,819,819
9469,0,0.000000,0.000000,-0.062500,0.00,0.36,-0.162032,-1.000000,0.000000,0.000000,0.000000,0.000000,0.000000,0.000000,0.000000,0.000000,0.000000,0.000000,0.000000,0.000000,0.000000,819,819,819,819
9479,0,0.000000,0.000000,-0.062500,0.00,0.36,-0.304977,-1.000000,0.000000,0.000000,0.000000,0.000000,0.000000,0.000000,0.000000,0.000000,0.000000,0.000000,0.000000,0.000000,0.000000,819,819,819,819
9489,0,0.000000,0.000000,-0.062500,-0.06,0.47,-0.430874,-1.000000,0.000000,0.000000,0.000000,0.000000,0.000000,0.000000,0.000000,0.000000,0.000000,0.000000,0.000000,0.000000,0.000000,819,819,819,819
9499,0,0.000000,0.000000,-0.062500,-0.06,0.12,-0.318419,-1.000000,0.000000,0.000000,0.000000,0.000000,0.000000,0.000000,0.000000,0.000000,0.000000,0.000000,0.000000,0.000000,0.000000,819,819,819,819
9509,0,0.000000,0.000000,-0.062500,0.00,-0.30,-0.194046,-1.000000,0.000000,0.000000,0.000000,0.000000,0.000000,0.000000,0.000000,0.000000,0.000000,0.000000,0.000000,0.000000,0.000000,819,819,819,819
9519,0,0.000000,0.000000,-0.062500,-0.06,-0.06,0.049673,-1.000000,0.000000,0.000000,0.000000,0.000000,0.000000,0.000000,0.000000,0.000000,0.000000,0.000000,0.000000,0.000000,0.000000,819,819,819,819
9529,0,0.000000,0.000000,-0.062500,-0.06,0.06,0.180609,-1.000000,0.000000,0.000000,0.000000,0.000000,0.000000,0.000000,0.000000,0.000000,0.000000,0.000000,0.000000,0.000000,0.000000,819,819,819,819
9539,0,0.000000,0.000000,-0.062500,-0.06,0.42,0.305905,-1.000000,0.000000,0.000000,0.000000,0.000000,0.000000,0.000000,0.000000,0.000000,0.000000,0.000000,0.000000,0.000000,0.000000,819,819,819,819
9549,0,0.000000,0.000000,-0.062500,-0.12,0.06,0.430920,-1.000000,0.000000,0.000000,0.000000,0.000000,0.000000,0.000000,0.000000,0.000000,0.000000,0.000000,0.000000,0.000000,0.000000,819,819,819,819
9559,0,0.000000,0.000000,-0.062500,-0.12,-0.12,0.377796,-1.000000,0.000000,0.000000,0.000000,0.000000,0.000000,0.000000,0.000000,0.000000,0.000000,0.000000,0.000000,0.000000,0.000000,819,819,819,819
9569,0,0.000000,0.000000,-0.062500,-0.06,0.12,0.256390,-1.000000,0.000000,0.000000,0.000000,0.000000,0.000000,0.000000,0.000000,0.000000,0.000000,0.000000,0.000000,0.000000,0.000000,819,819,819,819
9579,0,0.000000,0.000000,-0.062500,0.00,0.06,-0.165305,-1.000000,0.000000,0.000000,0.000000,0.000000,0.000000,0.000000,0.000000,0.000000,0.000000,0.000000,0.000000,0.000000,0.000000,819,819,819,819
9589,0,0.000000,0.000000,-0.062500,0.24,0.24,-0.483265,-1.000000,0.000000,0.000000,0.000000,0.000000,0.000000,0.000000,0.000000,0.000000,0.000000,0.000000,0.000000,0.000000,0.000000,819,819,819,819
9602,0,0.000000,0.000000,-0.062500,0.00,0.18,-0.380413,-1.000000,0.000000,0.000000,0.000000,0.000000,0.000000,0.000000,0.000000,0.000000,0.000000,0.000000,0.000000,0.000000,0.000000,819,819,819,819
9611,0,0.000000,0.000000,-0.062500,-0.12,0.18,-0.197146,-1.000000,0.000000,0.000000,0.000000,0.000000,0.000000,0.000000,0.000000,0.000000,0.000000,0.000000,0.000000,0.000000,0.000000,819,819,819,819
9620,0,0.000000,0.000000,-0.062500,0.00,0.12,0.227643,-1.000000,0.000000,0.000000,0.000000,0.000000,0.000000,0.000000,0.000000,0.000000,0.000000,0.000000,0.000000,0.000000,0.000000,819,819,819,819
9630,0,0.000000,0.000000,-0.062500,-0.18,0.00,0.545757,-1.000000,0.000000,0.000000,0.000000,0.000000,0.000000,0.000000,0.000000,0.000000,0.000000,0.000000,0.000000,0.000000,0.000000,819,819,819,819
9647,0,0.000000,0.000000,-0.062500,-0.06,0.06,0.561663,-1.000000,0.000000,0.000000,0.000000,0.000000,0.000000,0.000000,0.000000,0.000000,0.000000,0.000000,0.000000,0.000000,0.000000,819,819,819,819
9658,0,0.000000,0.000000,-0.062500,-0.12,0.00,0.206208,-1.000000,0.000000,0.000000,0.000000,0.000000,0.000000,0.000000,0.000000,0.000000,0.000000,0.000000,0.000000,0.000000,0.000000,819,819,819,819
9669,0,0.000000,0.000000,-0.062500,-0.12,0.36,-0.167815,0.046000,0.000000,0.000000,0.000000,0.000000,0.000000,0.000000,0.000000,0.000000,0.000000,0.000000,0.000000,0.000000,0.000000,819,819,819,819
9679,0,0.000000,0.000000,-0.062500,0.00,0.24,-0.186516,0.046000,0.000000,0.000000,0.000000,0.000000,0.000000,0.000000,0.000000,0.000000,0.000000,0.000000,0.000000,0.000000,0.000000,819,819,819,819
9690,0,0.000000,0.000000,-0.062500,-0.12,-0.12,-0.068701,0.046000,0.000000,0.000000,0.000000,0.000000,0.000000,0.000000,0.000000,0.000000,0.000000,0.000000,0.000000,0.000000,0.000000,819,819,819,819
9700,0,0.000000,0.000000,-0.062500,0.00,-0.12,-0.003435,0.046000,0.000000,0.000000,0.000000,0.000000,0.000000,0.000000,0.000000,0.000000,0.000000,0.000000,0.000000,0.000000,0.000000,819,819,819,819
9710,0,0.000000,0.000000,-0.062500,0.06,-0.18,-0.000172,0.046000,0.000000,0.000000,0.000000,0.000000,0.000000,0.000000,0.000000,0.000000,0.000000,0.000000,0.000000,0.000000,0.000000,819,819,819,819
9720,0,0.000000,0.000000,-0.062500,0.06,0.24,0.059366,0.046000,0.000000,0.000000,0.000000,0.000000,0.000000,0.000000,0.000000,0.000000,0.000000,0.000000,0.000000,0.000000,0.000000,819,819,819,819
9730,0,0.000000,0.000000,-0.062500,0.00,0.30,0.002968,0.045000,0.000000,0.000000,0.000000,0.000000,0.000000,0.000000,0.000000,0.000000,0.000000,0.000000,0.000000,0.000000,0.000000,819,819,819,819
9740,0,0.000000,0.000000,-0.062500,-0.06,0.06,0.059523,0.045000,0.000000,0.000000,0.000000,0.000000,0.000000,0.000000,0.000000,0.000000,0.000000,0.000000,0.000000,0.000000,0.000000,819,819,819,819
9750,0,0.000000,0.000000,-0.062500,0.00,-0.24,0.181101,0.045000,0.000000,0.000000,0.000000,0.000000,0.000000,0.000000,0.000000,0.000000,0.000000,0.000000,0.000000,0.000000,0.000000,819,819,819,819
9760,0,0.000000,0.000000,-0.062500,0.06,-0.24,0.246555,0.046000,0.000000,0.000000,0.000000,0.000000,0.000000,0.000000,0.000000,0.000000,0.000000,0.000000,0.000000,0.000000,0.000000,819,819,819,819
9770,0,0.000000,0.000000,-0.062500,0.06,0.06,-0.106422,0.046000,0.000000,0.000000,0.000000,0.000000,0.000000,0.000000,0.000000,0.000000,0.000000,0.000000,0.000000,0.000000,0.000000,819,819,819,819
9780,0,0.000000,0.000000,-0.062500,0.00,0.18,-0.124071,0.046000,0.000000,0.000000,0.000000,0.000000,0.000000,0.000000,0.000000,0.000000,0.000000,0.000000,0.000000,0.000000,0.000000,819,819,819,819
9790,0,0.000000,0.000000,-0.062500,0.00,0.18,-0.065579,0.046000,0.000000,0.000000,0.000000,0.000000,0.000000,0.000000,0.000000,0.000000,0.000000,0.000000,0.000000,0.000000,0.000000,819,819,819,819
9800,0,0.000000,0.000000,-0.062500,-0.06,0.30,-0.003279,0.046000,0.000000,0.000000,0.000000,0.000000,0.000000,0.000000,0.000000,0.000000,0.000000,0.000000,0.000000,0.000000,0.000000,819,819,819,819
9810,0,0.000000,0.000000,-0.062500,0.00,-0.12,-0.178289,0.046000,0.000000,0.000000,0.000000,0.000000,0.000000,0.000000,0.000000,0.000000,0.000000,0.000000,0.000000,0.000000,0.000000,819,819,819,819
9820,0,0.000000,0.000000,-0.062500,0.06,-0.18,0.050461,0.046000,0.000000,0.000000,0.000000,0.000000,0.000000,0.000000,0.000000,0.000000,0.000000,0.000000,0.000000,0.000000,0.000000,819,819,819,819
9830,0,0.000000,0.000000,-0.062500,0.00,-0.06,0.002523,0.046000,0.000000,0.000000,0.000000,0.000000,0.000000,0.000000,0.000000,0.000000,0.000000,0.000000,0.000000,0.000000,0.000000,819,819,819,819
9840,0,0.000000,0.000000,-0.062500,-0.06,0.00,0.000126,0.046000,0.000000,0.000000,0.000000,0.000000,0.000000,0.000000,0.000000,0.000000,0.000000,0.000000,0.000000,0.000000,0.000000,819,819,819,819
9850,0,0.000000,0.000000,-0.062500,-0.12,0.12,-0.059369,0.046000,0.000000,0.000000,0.000000,0.000000,0.000000,0.000000,0.000000,0.000000,0.000000,0.000000,0.000000,0.000000,0.000000,819,819,819,819
9860,0,0.000000,0.000000,-0.062500,0.00,0.06,-0.062343,0.046000,0.000000,0.000000,0.000000,0.000000,0.000000,0.000000,0.000000,0.000000,0.000000,0.000000,0.000000,0.000000,0.000000,819,819,819,819
9870,0,0.000000,0.000000,-0.062500,0.06,-0.06,0.175008,0.046000,0.000000,0.000000,0.000000,0.000000,0.000000,0.000000,0.000000,0.000000,0.000000,0.000000,0.000000,0.000000,0.000000,819,819,819,819
9880,0,0.000000,0.000000,-0.062500,0.00,0.00,0.008750,0.045000,0.000000,0.000000,0.000000,0.000000,0.000000,0.000000,0.000000,0.000000,0.000000,0.000000,0.000000,0.000000,0.000000,819,819,819,819
9890,0,0.000000,0.000000,-0.062500,-0.06,0.00,0.237938,0.046000,0.000000,0.000000,0.000000,0.000000,0.000000,0.000000,0.000000,0.000000,0.000000,0.000000,0.000000,0.000000,0.000000,819,819,819,819
9900,0,0.000000,0.000000,-0.062500,0.06,-0.18,0.130647,0.046000,0.000000,0.000000,0.000000,0.000000,0.000000,0.000000,0.000000,0.000000,0.000000,0.000000,0.000000,0.000000,0.000000,819,819,819,819
9910,0,0.000000,0.000000,-0.062500,0.06,0.06,-0.052843,0.046000,0.000000,0.000000,0.000000,0.000000,0.000000,0.000000,0.000000,0.000000,0.000000,0.000000,0.000000,0.000000,0.000000,819,819,819,819
9920,0,0.000000,0.000000,-0.062500,-0.12,0.06,-0.002642,0.046000,0.000000,0.000000,0.000000,0.000000,0.000000,0.000000,0.000000,0.000000,0.000000,0.000000,0.000000,0.000000,0.000000,819,819,819,819
9930,0,0.000000,0.000000,-0.062500,0.12,0.18,-0.059507,0.046000,0.000000,0.000000,0.000000,0.000000,0.000000,0.000000,0.000000,0.000000,0.000000,0.000000,0.000000,0.000000,0.000000,819,819,819,819
9940,0,0.000000,0.000000,-0.062500,-0.06,-0.06,-0.002975,0.046000,0.000000,0.000000,0.000000,0.000000,0.000000,0.000000,0.000000,0.000000,0.000000,0.000000,0.000000,0.000000,0.000000,819,819,819,819
9950,0,0.000000,0.000000,-0.062500,0.06,-0.06,0.059226,0.046000,0.000000,0.000000,0.000000,0.000000,0.000000,0.000000,0.000000,0.000000,0.000000,0.000000,0.000000,0.000000,0.000000,819,819,819,819
9968,0,0.000000,0.000000,-0.062500,-0.06,0.00,0.299836,0.046000,0.000000,0.000000,0.000000,0.000000,0.000000,0.000000,0.000000,0.000000,0.000000,0.000000,0.000000,0.000000,0.000000,819,819,819,819
9979,0,0.000000,0.000000,-0.062500,-0.06,0.18,0.074367,0.046000,0.000000,0.000000,0.000000,0.000000,0.000000,0.000000,0.000000,0.000000,0.000000,0.000000,0.000000,0.000000,0.000000,819,819,819,819
9990,0,0.000000,0.000000,-0.062500,-0.12,0.00,0.181843,0.046000,0.000000,0.000000,0.000000,0.000000,0.000000,0.000000,0.000000,0.000000,0.000000,0.000000,0.000000,0.000000,0.000000,819,819,819,819
10000,0,0.000000,0.000000,-0.062500,0.06,0.24,0.068467,0.045000,0.000000,0.000000,0.000000,0.000000,0.000000,0.000000,0.000000,0.000000,0.000000,0.000000,0.000000,0.000000,0.000000,819,819,819,819
10044,0,0.000000,0.000000,-0.062500,-0.06,0.00,-0.115327,0.045000,0.000000,0.000000,0.000000,0.000000,0.000000,0.000000,0.000000,0.000000,0.000000,0.000000,0.000000,0.000000,0.000000,819,819,819,819
10054,0,0.000000,0.000000,-0.062500,0.00,0.18,-0.183891,0.045000,0.000000,0.000000,0.000000,0.000000,0.000000,0.000000,0.000000,0.000000,0.000000,0.000000,0.000000,0.000000,0.000000,819,819,819,819
10064,0,0.000000,0.000000,-0.062500,0.12,0.06,-0.127945,0.046000,0.000000,0.000000,0.000000,0.000000,0.000000,0.000000,0.000000,0.000000,0.000000,0.000000,0.000000,0.000000,0.000000,819,819,819,819
10076,0,0.000000,0.000000,-0.062500,-0.06,0.06,-0.006397,0.046000,0.000000,0.000000,0.000000,0.000000,0.000000,0.000000,0.000000,0.000000,0.000000,0.000000,0.000000,0.000000,0.000000,819,819,819,819
10087,0,0.000000,0.000000,-0.062500,-0.12,0.12,0.237180,0.046000,0.000000,0.000000,0.000000,0.000000,0.000000,0.000000,0.000000,0.000000,0.000000,0.000000,0.000000,0.000000,0.000000,819,819,819,819
10099,0,0.000000,0.000000,-0.062500,0.00,0.30,0.189984,0.046000,0.000000,0.000000,0.000000,0.000000,0.000000,0.000000,0.000000,0.000000,0.000000,0.000000,0.000000,0.000000,0.000000,819,819,819,819
10110,0,0.000000,0.000000,-0.062500,-0.06,0.24,0.068874,0.046000,0.000000,0.000000,0.000000,0.000000,0.000000,0.000000,0.000000,0.000000,0.000000,0.000000,0.000000,0.000000,0.000000,819,819,819,819
10120,0,0.000000,0.000000,-0.062500,-0.06,-0.24,0.062819,0.046000,0.000000,0.000000,0.000000,0.000000,0.000000,0.000000,0.000000,0.000000,0.000000,0.000000,0.000000,0.000000,0.000000,819,819,819,819
10130,0,0.000000,0.000000,-0.062500,0.00,-0.12,-0.056234,0.046000,0.000000,0.000000,0.000000,0.000000,0.000000,0.000000,0.000000,0.000000,0.000000,0.000000,0.000000,0.000000,0.000000,819,819,819,819
10140,0,0.000000,0.000000,-0.062500,0.00,0.00,-0.121562,0.046000,0.000000,0.000000,0.000000,0.000000,0.000000,0.000000,0.000000,0.000000,0.000000,0.000000,0.000000,0.000000,0.000000,819,819,819,819
10151,0,0.000000,0.000000,-0.062500,0.00,0.12,-0.184203,0.046000,0.000000,0.000000,0.000000,0.000000,0.000000,0.000000,0.000000,0.000000,0.000000,0.000000,0.000000,0.000000,0.000000,819,819,819,819
10161,0,0.000000,0.000000,-0.062500,-0.06,0.12,0.050165,0.045000,0.000000,0.000000,0.000000,0.000000,0.000000,0.000000,0.000000,0.000000,0.000000,0.000000,0.000000,0.000000,0.000000,819,819,819,819
10171,0,0.000000,0.000000,-0.062500,-0.18,-0.06,-0.056867,0.045000,0.000000,0.000000,0.000000,0.000000,0.000000,0.000000,0.000000,0.000000,0.000000,0.000000,0.000000,0.000000,0.000000,819,819,819,819
10181,0,0.000000,0.000000,-0.062500,-0.06,-0.24,-0.121593,0.045000,0.000000,0.000000,0.000000,0.000000,0.000000,0.000000,0.000000,0.000000,0.000000,0.000000,0.000000,0.000000,0.000000,819,819,819,819
10191,0,0.000000,0.000000,-0.062500,-0.06,-0.18,0.112670,0.045000,0.000000,0.000000,0.000000,0.000000,0.000000,0.000000,0.000000,0.000000,0.000000,0.000000,0.000000,0.000000,0.000000,819,819,819,819
