t,is_crashed,roll,pitch,yaw,p,q,r,throttle,p_cmd,q_cmd,r_cmd,roll_cmd,pitch_cmd,yaw_cmd,roll_pid_out,pitch_pid_out,yaw_pid_out,motor_fl,motor_bl,motor_fr,motor_br,pwm_fl,pwm_bl,pwm_fr,pwm_br
6985,0,0.550000,0.325000,0.000000,0.00,0.00,-0.000104,0.005000,0.000000,0.000000,0.000000,0.000000,0.000000,0.000000,0.000000,-0.000004,0.000001,0.000000,0.000000,0.000000,0.000000,0,0,0,0
6998,0,0.880000,0.520000,0.000000,0.13,0.08,-0.000197,0.005000,0.000000,0.000000,0.000000,0.000000,0.000000,0.000000,0.001188,-0.000862,0.000002,0.000000,0.000000,0.000000,0.000000,819,819,819,819
7010,0,1.144000,0.676000,0.000000,0.22,0.13,-0.000386,0.005000,0.000000,0.000000,0.000000,0.000000,0.000000,0.000000,0.002277,-0.001627,0.000005,0.000000,0.000000,0.000000,0.000000,819,819,819,819
7021,0,1.355200,0.800800,0.000000,0.30,0.18,-0.000453,0.005000,0.000000,0.000000,0.000000,0.000000,0.000000,0.000000,0.003282,-0.002309,0.000006,0.000000,0.000000,0.000000,0.000000,819,819,819,819
7032,0,1.524160,0.900640,0.000000,0.34,0.20,-0.000513,0.005000,0.000000,0.000000,0.000000,0.000000,0.000000,0.000000,0.004140,-0.002871,0.000007,0.000000,0.000000,0.000000,0.000000,819,819,819,819
7043,0,1.659328,0.980512,0.000000,0.37,0.22,-0.000672,0.005000,0.000000,0.000000,0.000000,0.000000,0.000000,0.000000,0.004878,-0.003340,0.000010,0.000000,0.000000,0.000000,0.000000,819,819,819,819
7053,0,1.767463,1.044410,0.000000,0.39,0.23,-0.000815,0.005000,0.000000,0.000000,0.000000,0.000000,0.000000,0.000000,0.005560,-0.003766,0.000013,0.000000,0.000000,0.000000,0.000000,819,819,819,819
7063,0,1.853970,1.095528,0.000000,0.39,0.23,-0.000634,0.005000,0.000000,0.000000,0.000000,0.000000,0.000000,0.000000,0.006149,-0.004117,0.000012,0.000000,0.000000,0.000000,0.000000,819,819,819,819
7073,0,1.923176,1.136422,0.000000,0.39,0.23,-0.000263,0.005000,0.000000,0.000000,0.000000,0.000000,0.000000,0.000000,0.006662,-0.004417,0.000008,0.000000,0.000000,0.000000,0.000000,819,819,819,819
7083,0,1.978541,1.169138,0.000000,0.38,0.22,-0.000135,0.005000,0.000000,0.000000,0.000000,0.000000,0.000000,0.000000,0.007106,-0.004672,0.000007,0.000000,0.000000,0.000000,0.000000,819,819,819,819
7093,0,2.022833,1.195310,0.000000,0.36,0.21,-0.000122,0.005000,0.000000,0.000000,0.000000,0.000000,0.000000,0.000000,0.007496,-0.004884,0.000007,0.000000,0.000000,0.000000,0.000000,819,819,819,819
7103,0,2.058266,1.216248,0.000000,0.34,0.20,-0.000317,0.005000,0.000000,0.000000,0.000000,0.000000,0.000000,0.000000,0.007836,-0.005066,0.000010,0.000000,0.000000,0.000000,0.000000,819,819,819,819
7113,0,2.086613,1.232999,0.000000,0.32,0.19,-0.000391,0.005000,0.000000,0.000000,0.000000,0.000000,0.000000,0.000000,0.008135,-0.005218,0.000011,0.000000,0.000000,0.000000,0.000000,819,819,819,819
7123,0,2.109291,1.246399,0.000000,0.30,0.18,-0.000457,0.005000,0.000000,0.000000,0.000000,0.000000,0.000000,0.000000,0.008399,-0.005346,0.000012,0.000000,0.000000,0.000000,0.000000,819,819,819,819
7133,0,2.127433,1.257119,0.000000,0.28,0.17,-0.000518,0.005000,0.000000,0.000000,0.000000,0.000000,0.000000,0.000000,0.008632,-0.005456,0.000014,0.000000,0.000000,0.000000,0.000000,819,819,819,819
7143,0,2.141946,1.265695,0.000000,0.26,0.15,-0.000468,0.005000,0.000000,0.000000,0.000000,0.000000,0.000000,0.000000,0.008836,-0.005555,0.000014,0.000000,0.000000,0.000000,0.000000,819,819,819,819
7153,0,2.153557,1.272556,0.000000,0.24,0.14,-0.000528,0.005000,0.000000,0.000000,0.000000,0.000000,0.000000,0.000000,0.009018,-0.005644,0.000015,0.000000,0.000000,0.000000,0.000000,819,819,819,819
7163,0,2.162845,1.278045,0.000000,0.22,0.13,-0.000477,0.005000,0.000000,0.000000,0.000000,0.000000,0.000000,0.000000,0.009179,-0.005721,0.000015,0.000000,0.000000,0.000000,0.000000,819,819,819,819
7173,0,2.170276,1.282436,0.000000,0.20,0.12,-0.000328,0.005000,0.000000,0.000000,0.000000,0.000000,0.000000,0.000000,0.009324,-0.005788,0.000014,0.000000,0.000000,0.000000,0.000000,819,819,819,819
7183,0,2.176221,1.285949,0.000000,0.18,0.11,-0.000090,0.005000,0.000000,0.000000,0.000000,0.000000,0.000000,0.000000,0.009451,-0.005842,0.000012,0.000000,0.000000,0.000000,0.000000,819,819,819,819
7193,0,2.180977,1.288759,0.000000,0.17,0.10,-0.000081,0.005000,0.000000,0.000000,0.000000,0.000000,0.000000,0.000000,0.009565,-0.005887,0.000012,0.000000,0.000000,0.000000,0.000000,819,819,819,819
7203,0,2.184782,1.291007,0.000000,0.15,0.09,0.000030,0.005000,0.000000,0.000000,0.000000,0.000000,0.000000,0.000000,0.009666,-0.005930,0.000011,0.000000,0.000000,0.000000,0.000000,819,819,819,819
7217,0,2.187825,1.292806,0.000000,0.14,0.08,-0.000077,0.005000,0.000000,0.000000,0.000000,0.000000,0.000000,0.000000,0.009752,-0.005967,0.000012,0.000000,0.000000,0.000000,0.000000,819,819,819,819
7231,0,2.190260,1.294245,0.000000,0.13,0.08,-0.000173,0.005000,0.000000,0.000000,0.000000,0.000000,0.000000,0.000000,0.009832,-0.006005,0.000013,0.000000,0.000000,0.000000,0.000000,819,819,819,819
7242,0,2.192208,1.295396,0.000000,0.11,0.07,-0.000260,0.005000,0.000000,0.000000,0.000000,0.000000,0.000000,0.000000,0.009906,-0.006035,0.000015,0.000000,0.000000,0.000000,0.000000,819,819,819,819
7253,0,2.193766,1.296317,0.000000,0.10,0.06,-0.000443,0.005000,0.000000,0.000000,0.000000,0.000000,0.000000,0.000000,0.009971,-0.006061,0.000017,0.000000,0.000000,0.000000,0.000000,819,819,819,819
7263,0,2.195013,1.297053,0.000000,0.09,0.06,-0.000504,0.005000,0.000000,0.000000,0.000000,0.000000,0.000000,0.000000,0.010028,-0.006081,0.000018,0.000000,0.000000,0.000000,0.000000,819,819,819,819
7273,0,2.196010,1.297643,0.000000,0.09,0.05,-0.000353,0.005000,0.000000,0.000000,0.000000,0.000000,0.000000,0.000000,0.010080,-0.006099,0.000017,0.000000,0.000000,0.000000,0.000000,819,819,819,819
7284,0,2.196808,1.298114,0.000000,0.08,0.05,-0.000423,0.005000,0.000000,0.000000,0.000000,0.000000,0.000000,0.000000,0.010127,-0.006114,0.000019,0.000000,0.000000,0.000000,0.000000,819,819,819,819
7294,0,2.197447,1.298491,0.000000,0.07,0.04,-0.000694,0.005000,0.000000,0.000000,0.000000,0.000000,0.000000,0.000000,0.010170,-0.006133,0.000022,0.000000,0.000000,0.000000,0.000000,819,819,819,819
7303,0,2.197957,1.298793,0.000000,0.06,0.04,-0.000628,0.005000,0.000000,0.000000,0.000000,0.000000,0.000000,0.000000,0.010210,-0.006155,0.000023,0.000000,0.000000,0.000000,0.000000,819,819,819,819
7313,0,2.198366,1.299034,0.000000,0.06,0.03,-0.000361,0.005000,0.000000,0.000000,0.000000,0.000000,0.000000,0.000000,0.010244,-0.006168,0.000021,0.000000,0.000000,0.000000,0.000000,819,819,819,819
7324,0,2.198693,1.299228,0.000000,0.05,0.03,-0.000016,0.005000,0.000000,0.000000,0.000000,0.000000,0.000000,0.000000,0.010274,-0.006175,0.000017,0.000000,0.000000,0.000000,0.000000,819,819,819,819
7334,0,2.198954,1.299382,0.000000,0.05,0.03,0.000193,0.005000,0.000000,0.000000,0.000000,0.000000,0.000000,0.000000,0.010301,-0.006183,0.000015,0.000000,0.000000,0.000000,0.000000,819,819,819,819
7344,0,2.199163,1.299506,0.000000,0.04,0.03,0.000175,0.005000,0.000000,0.000000,0.000000,0.000000,0.000000,0.000000,0.010324,-0.006195,0.000015,0.000000,0.000000,0.000000,0.000000,819,819,819,819
7354,0,2.199331,1.299605,0.000000,0.04,0.02,-0.000049,0.005000,0.000000,0.000000,0.000000,0.000000,0.000000,0.000000,0.010345,-0.006205,0.000017,0.000000,0.000000,0.000000,0.000000,819,819,819,819
7364,0,2.199465,1.299684,0.000000,0.03,0.02,-0.000148,0.005000,0.000000,0.000000,0.000000,0.000000,0.000000,0.000000,0.010365,-0.006212,0.000018,0.000000,0.000000,0.000000,0.000000,819,819,819,819
7374,0,2.199572,1.299747,0.000000,0.03,0.02,-0.000341,0.005000,0.000000,0.000000,0.000000,0.000000,0.000000,0.000000,0.010383,-0.006219,0.000021,0.000000,0.000000,0.000000,0.000000,819,819,819,819
7384,0,2.199657,1.299798,0.000000,0.03,0.02,-0.000309,0.005000,0.000000,0.000000,0.000000,0.000000,0.000000,0.000000,0.010399,-0.006225,0.000021,0.000000,0.000000,0.000000,0.000000,819,819,819,819
7394,0,2.199726,1.299838,0.000000,0.02,0.01,-0.000487,0.005000,0.000000,0.000000,0.000000,0.000000,0.000000,0.000000,0.010414,-0.006231,0.000023,0.000000,0.000000,0.000000,0.000000,819,819,819,819
7404,0,2.199781,1.299871,0.000000,0.02,0.01,-0.000751,0.005000,0.000000,0.000000,0.000000,0.000000,0.000000,0.000000,0.010428,-0.006237,0.000027,0.000000,0.000000,0.000000,0.000000,819,819,819,819
7414,0,2.199825,1.299896,0.000000,0.02,0.01,-0.000784,0.005000,0.000000,0.000000,0.000000,0.000000,0.000000,0.000000,0.010441,-0.006241,0.000029,0.000000,0.000000,0.000000,0.000000,819,819,819,819
7424,0,2.199860,1.299917,0.000000,0.02,0.01,-0.000813,0.005000,0.000000,0.000000,0.000000,0.000000,0.000000,0.000000,0.010451,-0.006244,0.000030,0.000000,0.000000,0.000000,0.000000,819,819,819,819
7434,0,2.199888,1.299934,0.000000,0.02,0.01,-0.000528,0.005000,0.000000,0.000000,0.000000,0.000000,0.000000,0.000000,0.010458,-0.006248,0.000028,0.000000,0.000000,0.000000,0.000000,819,819,819,819
7444,0,2.199910,1.299947,0.000000,0.01,0.00,-0.000167,0.005000,0.000000,0.000000,0.000000,0.000000,0.000000,0.000000,0.010466,-0.006248,0.000025,0.000000,0.000000,0.000000,0.000000,819,819,819,819
7454,0,2.199928,1.299958,0.000000,0.01,0.00,-0.000359,0.005000,0.000000,0.000000,0.000000,0.000000,0.000000,0.000000,0.010475,-0.006250,0.000027,0.000000,0.000000,0.000000,0.000000,819,819,819,819
7464,0,2.199942,1.299966,0.000000,0.01,0.00,-0.000221,0.005000,0.000000,0.000000,0.000000,0.000000,0.000000,0.000000,0.010480,-0.006249,0.000026,0.000000,0.000000,0.000000,0.000000,819,819,819,819
7474,0,2.199954,1.299973,0.000000,0.01,0.00,-0.000304,0.005000,0.000000,0.000000,0.000000,0.000000,0.000000,0.000000,0.010486,-0.006251,0.000027,0.000000,0.000000,0.000000,0.000000,819,819,819,819
7484,0,2.199963,1.299978,0.000000,0.00,0.00,-0.000378,0.005000,0.000000,0.000000,0.000000,0.000000,0.000000,0.000000,0.010490,-0.006247,0.000029,0.000000,0.000000,0.000000,0.000000,819,819,819,819
7494,0,2.199970,1.299983,0.000000,0.00,0.00,-0.000446,0.005000,0.000000,0.000000,0.000000,0.000000,0.000000,0.000000,0.010494,-0.006245,0.000030,0.000000,0.000000,0.000000,0.000000,819,819,819,819
7504,0,2.199976,1.299986,0.000000,0.00,0.00,-0.000196,0.005000,0.000000,0.000000,0.000000,0.000000,0.000000,0.000000,0.010499,-0.006247,0.000028,0.000000,0.000000,0.000000,0.000000,819,819,819,819
7514,0,2.199981,1.299989,0.000000,0.00,0.00,-0.000281,0.005000,0.000000,0.000000,0.000000,0.000000,0.000000,0.000000,0.010503,-0.006248,0.000029,0.000000,0.000000,0.000000,0.000000,819,819,819,819
7524,0,2.199985,1.299991,0.000000,0.00,0.00,-0.000358,0.005000,0.000000,0.000000,0.000000,0.000000,0.000000,0.000000,0.010507,-0.006250,0.000030,0.000000,0.000000,0.000000,0.000000,819,819,819,819
7536,0,2.199988,1.299993,0.000000,0.00,0.00,-0.000221,0.005000,0.000000,0.000000,0.000000,0.000000,0.000000,0.000000,0.010509,-0.006248,0.000029,0.000000,0.000000,0.000000,0.000000,819,819,819,819
7546,0,2.199991,1.299994,0.000000,0.00,0.00,0.000215,0.005000,0.000000,0.000000,0.000000,0.000000,0.000000,0.000000,0.010511,-0.006247,0.000025,0.000000,0.000000,0.000000,0.000000,819,819,819,819
7555,0,2.199992,1.299996,0.000000,0.00,0.00,0.000298,0.005000,0.000000,0.000000,0.000000,0.000000,0.000000,0.000000,0.010513,-0.006251,0.000023,0.000000,0.000000,0.000000,0.000000,819,819,819,819
7565,0,2.199994,1.299996,0.000000,0.00,0.00,0.000166,0.005000,0.000000,0.000000,0.000000,0.000000,0.000000,0.000000,0.010515,-0.006250,0.000024,0.000000,0.000000,0.000000,0.000000,819,819,819,819
7575,0,2.199995,1.299997,0.000000,0.00,0.00,0.000150,0.005000,0.000000,0.000000,0.000000,0.000000,0.000000,0.000000,0.010516,-0.006254,0.000024,0.000000,0.000000,0.000000,0.000000,819,819,819,819
7584,0,2.199996,1.299998,0.000000,0.00,0.00,0.000447,0.005000,0.000000,0.000000,0.000000,0.000000,0.000000,0.000000,0.010519,-0.006256,0.000021,0.000000,0.000000,0.000000,0.000000,819,819,819,819
7594,0,2.199997,1.299998,0.000000,0.00,0.00,0.000715,0.005000,0.000000,0.000000,0.000000,0.000000,0.000000,0.000000,0.010521,-0.006251,0.000017,0.000000,0.000000,0.000000,0.000000,819,819,819,819
7604,0,2.199997,1.299999,0.000000,0.00,0.00,0.000647,0.005000,0.000000,0.000000,0.000000,0.000000,0.000000,0.000000,0.010522,-0.006244,0.000017,0.000000,0.000000,0.000000,0.000000,819,819,819,819
7614,0,2.199998,1.299999,0.000000,0.00,0.00,-0.000139,0.005000,0.000000,0.000000,0.000000,0.000000,0.000000,0.000000,0.010525,-0.006248,0.000025,0.000000,0.000000,0.000000,0.000000,819,819,819,819
7624,0,2.199998,1.299999,0.000000,0.00,0.00,-0.000852,0.005000,0.000000,0.000000,0.000000,0.000000,0.000000,0.000000,0.010525,-0.006256,0.000033,0.000000,0.000000,0.000000,0.000000,819,819,819,819
7634,0,2.199999,1.299999,0.000000,0.00,0.00,-0.001185,0.005000,0.000000,0.000000,0.000000,0.000000,0.000000,0.000000,0.010525,-0.006267,0.000038,0.000000,0.000000,0.000000,0.000000,819,819,819,819
7644,0,2.199999,1.299999,0.000000,0.00,0.00,-0.001280,0.005000,0.000000,0.000000,0.000000,0.000000,0.000000,0.000000,0.010525,-0.006273,0.000041,0.000000,0.000000,0.000000,0.000000,819,819,819,819
7654,0,2.199999,1.300000,0.000000,0.00,0.00,-0.001055,0.005000,0.000000,0.000000,0.000000,0.000000,0.000000,0.000000,0.010524,-0.006265,0.000041,0.000000,0.000000,0.000000,0.000000,819,819,819,819
7664,0,2.199999,1.312500,0.000000,0.00,0.00,-0.000436,0.005000,0.000000,0.000000,0.000000,0.000000,0.000000,0.000000,0.010525,-0.006319,0.000035,0.000000,0.000000,0.000000,0.000000,819,819,819,819
7674,0,2.200000,1.322500,0.000000,0.00,0.01,0.000020,0.005000,0.000000,0.000000,0.000000,0.000000,0.000000,0.000000,0.010524,-0.006372,0.000030,0.000000,0.000000,0.000000,0.000000,819,819,819,819
7685,0,2.200000,1.330500,0.000000,0.00,0.01,0.000432,0.005000,0.000000,0.000000,0.000000,0.000000,0.000000,0.000000,0.010524,-0.006423,0.000026,0.000000,0.000000,0.000000,0.000000,819,819,819,819
7694,0,2.200000,1.324400,0.000000,0.00,0.00,-0.000023,0.005000,0.000000,0.000000,0.000000,0.000000,0.000000,0.000000,0.010525,-0.006400,0.000030,0.000000,0.000000,0.000000,0.000000,819,819,819,819
7704,0,2.200000,1.319520,0.000000,0.00,0.00,-0.000228,0.005000,0.000000,0.000000,0.000000,0.000000,0.000000,0.000000,0.010524,-0.006383,0.000033,0.000000,0.000000,0.000000,0.000000,819,819,819,819
7714,0,2.200000,1.315616,0.000000,0.00,0.00,-0.000621,0.005000,0.000000,0.000000,0.000000,0.000000,0.000000,0.000000,0.010526,-0.006360,0.000037,0.000000,0.000000,0.000000,0.000000,819,819,819,819
7724,0,2.200000,1.312493,0.000000,0.00,0.00,-0.000666,0.005000,0.000000,0.000000,0.000000,0.000000,0.000000,0.000000,0.010524,-0.006335,0.000039,0.000000,0.000000,0.000000,0.000000,819,819,819,819
7734,0,2.200000,1.309994,0.000000,0.00,-0.00,-0.000913,0.005000,0.000000,0.000000,0.000000,0.000000,0.000000,0.000000,0.010523,-0.006313,0.000043,0.000000,0.000000,0.000000,0.000000,819,819,819,819
7744,0,2.200000,1.307995,0.000000,0.00,-0.00,-0.001241,0.005000,0.000000,0.000000,0.000000,0.000000,0.000000,0.000000,0.010524,-0.006297,0.000048,0.000000,0.000000,0.000000,0.000000,819,819,819,819
7754,0,2.200000,1.306396,0.000000,-0.00,-0.00,-0.001331,0.005000,0.000000,0.000000,0.000000,0.000000,0.000000,0.000000,0.010522,-0.006292,0.000051,0.000000,0.000000,0.000000,0.000000,819,819,819,819
7764,0,2.200000,1.305117,0.000000,-0.00,-0.00,-0.001100,0.005000,0.000000,0.000000,0.000000,0.000000,0.000000,0.000000,0.010522,-0.006287,0.000050,0.000000,0.000000,0.000000,0.000000,819,819,819,819
7775,0,2.200000,1.304094,0.000000,-0.00,-0.00,-0.000685,0.005000,0.000000,0.000000,0.000000,0.000000,0.000000,0.000000,0.010521,-0.006280,0.000047,0.000000,0.000000,0.000000,0.000000,819,819,819,819
7785,0,2.200000,1.303275,0.000000,-0.00,-0.00,-0.000516,0.005000,0.000000,0.000000,0.000000,0.000000,0.000000,0.000000,0.010521,-0.006272,0.000046,0.000000,0.000000,0.000000,0.000000,819,819,819,819
7795,0,2.200000,1.302620,0.000000,-0.00,-0.00,-0.000467,0.005000,0.000000,0.000000,0.000000,0.000000,0.000000,0.000000,0.010518,-0.006266,0.000047,0.000000,0.000000,0.000000,0.000000,819,819,819,819
7805,0,2.200000,1.302096,0.000000,-0.00,-0.00,-0.000527,0.005000,0.000000,0.000000,0.000000,0.000000,0.000000,0.000000,0.010518,-0.006260,0.000048,0.000000,0.000000,0.000000,0.000000,819,819,819,819
7814,0,2.200000,1.301677,0.000000,-0.00,-0.00,-0.000684,0.005000,0.000000,0.000000,0.000000,0.000000,0.000000,0.000000,0.010518,-0.006259,0.000051,0.000000,0.000000,0.000000,0.000000,819,819,819,819
7826,0,2.200000,1.301342,0.000000,-0.00,-0.00,-0.000930,0.005000,0.000000,0.000000,0.000000,0.000000,0.000000,0.000000,0.010517,-0.006260,0.000055,0.000000,0.000000,0.000000,0.000000,819,819,819,819
7840,0,2.200000,1.301073,0.000000,-0.00,-0.00,-0.001256,0.005000,0.000000,0.000000,0.000000,0.000000,0.000000,0.000000,0.010517,-0.006257,0.000060,0.000000,0.000000,0.000000,0.000000,819,819,819,819
7853,0,2.200000,1.300859,0.000000,-0.00,-0.00,-0.001447,0.005000,0.000000,0.000000,0.000000,0.000000,0.000000,0.000000,0.010516,-0.006255,0.000064,0.000000,0.000000,0.000000,0.000000,819,819,819,819
7865,0,2.200000,1.300687,0.000000,-0.00,-0.00,-0.000999,0.005000,0.000000,0.000000,0.000000,0.000000,0.000000,0.000000,0.010516,-0.006254,0.000061,0.000000,0.000000,0.000000,0.000000,819,819,819,819
7875,0,2.200000,1.300550,0.000000,-0.00,-0.00,-0.000386,0.005000,0.000000,0.000000,0.000000,0.000000,0.000000,0.000000,0.010518,-0.006252,0.000056,0.000000,0.000000,0.000000,0.000000,819,819,819,819
7885,0,2.200000,1.300440,0.000000,-0.00,-0.00,0.000065,0.005000,0.000000,0.000000,0.000000,0.000000,0.000000,0.000000,0.010518,-0.006248,0.000051,0.000000,0.000000,0.000000,0.000000,819,819,819,819
7895,0,2.200000,1.300352,0.000000,-0.00,-0.00,0.000266,0.005000,0.000000,0.000000,0.000000,0.000000,0.000000,0.000000,0.010517,-0.006246,0.000049,0.000000,0.000000,0.000000,0.000000,819,819,819,819
7905,0,2.200000,1.300281,0.000000,-0.00,-0.00,0.000137,0.005000,0.000000,0.000000,0.000000,0.000000,0.000000,0.000000,0.010517,-0.006246,0.000050,0.000000,0.000000,0.000000,0.000000,819,819,819,819
7915,0,2.200000,1.300225,0.000000,0.00,-0.00,-0.000394,0.005000,0.000000,0.000000,0.000000,0.000000,0.000000,0.000000,0.010519,-0.006248,0.000056,0.000000,0.000000,0.000000,0.000000,819,819,819,819
7925,0,2.200000,1.300180,0.000000,0.00,-0.00,-0.000771,0.005000,0.000000,0.000000,0.000000,0.000000,0.000000,0.000000,0.010518,-0.006251,0.000061,0.000000,0.000000,0.000000,0.000000,819,819,819,819
7967,0,2.200000,1.300144,0.000000,-0.00,-0.00,-0.000594,0.005000,0.000000,0.000000,0.000000,0.000000,0.000000,0.000000,0.010517,-0.006251,0.000060,0.000000,0.000000,0.000000,0.000000,819,819,819,819
7980,0,2.200000,1.300115,0.000000,-0.00,-0.00,-0.000227,0.005000,0.000000,0.000000,0.000000,0.000000,0.000000,0.000000,0.010516,-0.006248,0.000056,0.000000,0.000000,0.000000,0.000000,819,819,819,819
7989,0,2.200000,1.300092,0.000000,-0.00,-0.00,-0.000102,0.005000,0.000000,0.000000,0.000000,0.000000,0.000000,0.000000,0.010517,-0.006246,0.000055,0.000000,0.000000,0.000000,0.000000,819,819,819,819
8001,0,2.200000,1.300074,0.000000,-0.00,-0.00,0.000115,0.005000,0.000000,0.000000,0.000000,0.000000,0.000000,0.000000,0.010516,-0.006247,0.000053,0.000000,0.000000,0.000000,0.000000,819,819,819,819
8012,0,2.200000,1.300059,0.000000,-0.00,-0.00,0.000208,0.005000,0.000000,0.000000,0.000000,0.000000,0.000000,0.000000,0.010517,-0.006254,0.000052,0.000000,0.000000,0.000000,0.000000,819,819,819,819
8025,0,2.200000,1.300047,0.000000,0.00,-0.00,-0.000019,0.005000,0.000000,0.000000,0.000000,0.000000,0.000000,0.000000,0.010518,-0.006254,0.000054,0.000000,0.000000,0.000000,0.000000,819,819,819,819
8035,0,2.200000,1.300038,0.000000,0.00,-0.00,-0.000328,0.005000,0.000000,0.000000,0.000000,0.000000,0.000000,0.000000,0.010518,-0.006251,0.000058,0.000000,0.000000,0.000000,0.000000,819,819,819,819
8045,0,2.200000,1.300030,0.000000,-0.00,-0.00,-0.000711,0.005000,0.000000,0.000000,0.000000,0.000000,0.000000,0.000000,0.010517,-0.006250,0.000063,0.000000,0.000000,0.000000,0.000000,819,819,819,819
8055,0,2.200000,1.300024,0.000000,0.00,-0.00,-0.001058,0.005000,0.000000,0.000000,0.000000,0.000000,0.000000,0.000000,0.010518,-0.006250,0.000068,0.000000,0.000000,0.000000,0.000000,819,819,819,819
8065,0,2.200000,1.300019,0.000000,0.00,-0.00,-0.001061,0.005000,0.000000,0.000000,0.000000,0.000000,0.000000,0.000000,0.010518,-0.006249,0.000070,0.000000,0.000000,0.000000,0.000000,819,819,819,819
8075,0,2.200000,1.300016,0.000000,0.00,-0.00,-0.000546,0.005000,0.000000,0.000000,0.000000,0.000000,0.000000,0.000000,0.010520,-0.006250,0.000065,0.000000,0.000000,0.000000,0.000000,819,819,819,819
8085,0,2.200000,1.300012,0.000000,0.00,-0.00,0.000024,0.005000,0.000000,0.000000,0.000000,0.000000,0.000000,0.000000,0.010520,-0.006244,0.000060,0.000000,0.000000,0.000000,0.000000,819,819,819,819
8095,0,2.200000,1.300010,0.000000,0.00,-0.00,0.000333,0.005000,0.000000,0.000000,0.000000,0.000000,0.000000,0.000000,0.010520,-0.006244,0.000056,0.000000,0.000000,0.000000,0.000000,819,819,819,819
8105,0,2.200000,1.300008,0.000000,0.00,-0.00,-0.000114,0.005000,0.000000,0.000000,0.000000,0.000000,0.000000,0.000000,0.010520,-0.006238,0.000061,0.000000,0.000000,0.000000,0.000000,819,819,819,819
8115,0,2.200000,1.300006,0.000000,-0.00,-0.00,-0.000621,0.005000,0.000000,0.000000,0.000000,0.000000,0.000000,0.000000,0.010518,-0.006235,0.000067,0.000000,0.000000,0.000000,0.000000,819,819,819,819
8125,0,2.200000,1.300005,0.000000,-0.00,-0.00,-0.000873,0.005000,0.000000,0.000000,0.000000,0.000000,0.000000,0.000000,0.010516,-0.006234,0.000071,0.000000,0.000000,0.000000,0.000000,819,819,819,819
8135,0,2.200000,1.300004,0.000000,-0.00,-0.00,-0.000997,0.005000,0.000000,0.000000,0.000000,0.000000,0.000000,0.000000,0.010516,-0.006235,0.000073,0.000000,0.000000,0.000000,0.000000,819,819,819,819
8145,0,2.200000,1.300003,0.000000,-0.00,-0.00,-0.001006,0.005000,0.000000,0.000000,0.000000,0.000000,0.000000,0.000000,0.010514,-0.006232,0.000075,0.000000,0.000000,0.000000,0.000000,819,819,819,819
8155,0,2.200000,1.300003,0.000000,-0.00,-0.00,-0.000600,0.005000,0.000000,0.000000,0.000000,0.000000,0.000000,0.000000,0.010513,-0.006228,0.000072,0.000000,0.000000,0.000000,0.000000,819,819,819,819
8165,0,2.200000,1.300002,0.000000,-0.00,-0.00,-0.000232,0.005000,0.000000,0.000000,0.000000,0.000000,0.000000,0.000000,0.010510,-0.006223,0.000069,0.000000,0.000000,0.000000,0.000000,819,819,819,819
8175,0,2.200000,1.300002,0.000000,-0.00,-0.00,-0.000002,0.005000,0.000000,0.000000,0.000000,0.000000,0.000000,0.000000,0.010509,-0.006218,0.000066,0.000000,0.000000,0.000000,0.000000,819,819,819,819
8185,0,2.200000,1.300001,0.000000,-0.00,-0.00,-0.000002,0.005000,0.000000,0.000000,0.000000,0.000000,0.000000,0.000000,0.010508,-0.006221,0.000066,0.000000,0.000000,0.000000,0.000000,819,819,819,819
8195,0,2.200000,1.300001,0.000000,-0.00,-0.00,0.000102,0.005000,0.000000,0.000000,0.000000,0.000000,0.000000,0.000000,0.010506,-0.006222,0.000065,0.000000,0.000000,0.000000,0.000000,819,819,819,819
8205,0,2.200000,1.300001,0.000000,-0.00,-0.00,0.000299,0.005000,0.000000,0.000000,0.000000,0.000000,0.000000,0.000000,0.010506,-0.006225,0.000063,0.000000,0.000000,0.000000,0.000000,819,819,819,819
8215,0,2.200000,1.300001,0.000000,-0.00,-0.00,0.000374,0.005000,0.000000,0.000000,0.000000,0.000000,0.000000,0.000000,0.010505,-0.006225,0.000061,0.000000,0.000000,0.000000,0.000000,819,819,819,819
8225,0,2.200000,1.300001,0.000000,-0.00,-0.00,0.000028,0.005000,0.000000,0.000000,0.000000,0.000000,0.000000,0.000000,0.010507,-0.006223,0.000065,0.000000,0.000000,0.000000,0.000000,819,819,819,819
8236,0,2.200000,1.300001,0.000000,-0.00,-0.00,-0.000493,0.005000,0.000000,0.000000,0.000000,0.000000,0.000000,0.000000,0.010505,-0.006220,0.000071,0.000000,0.000000,0.000000,0.000000,819,819,819,819
8246,0,2.200000,1.300000,0.000000,-0.00,-0.00,-0.000861,0.005000,0.000000,0.000000,0.000000,0.000000,0.000000,0.000000,0.010505,-0.006219,0.000076,0.000000,0.000000,0.000000,0.000000,819,819,819,819
8256,0,2.200000,1.300000,0.000000,-0.00,-0.00,-0.000986,0.005000,0.000000,0.000000,0.000000,0.000000,0.000000,0.000000,0.010505,-0.006226,0.000079,0.000000,0.000000,0.000000,0.000000,819,819,819,819
8265,0,2.200000,1.300000,0.000000,-0.00,0.00,-0.000996,0.005000,0.000000,0.000000,0.000000,0.000000,0.000000,0.000000,0.010506,-0.006232,0.000081,0.000000,0.000000,0.000000,0.000000,819,819,819,819
8275,0,2.200000,1.300000,0.000000,-0.00,0.00,-0.001109,0.005000,0.000000,0.000000,0.000000,0.000000,0.000000,0.000000,0.010505,-0.006232,0.000084,0.000000,0.000000,0.000000,0.000000,819,819,819,819
8289,0,2.200000,1.300000,0.000000,-0.00,-0.00,-0.000900,0.005000,0.000000,0.000000,0.000000,0.000000,0.000000,0.000000,0.010504,-0.006228,0.000083,0.000000,0.000000,0.000000,0.000000,819,819,819,819
8302,0,2.200000,1.300000,0.000000,-0.00,-0.00,-0.000400,0.005000,0.000000,0.000000,0.000000,0.000000,0.000000,0.000000,0.010502,-0.006219,0.000079,0.000000,0.000000,0.000000,0.000000,819,819,819,819
8315,0,2.200000,1.300000,0.000000,-0.00,-0.00,-0.000465,0.005000,0.000000,0.000000,0.000000,0.000000,0.000000,0.000000,0.010502,-0.006219,0.000080,0.000000,0.000000,0.000000,0.000000,819,819,819,819
8325,0,2.200000,1.300000,0.000000,-0.00,-0.00,-0.000525,0.005000,0.000000,0.000000,0.000000,0.000000,0.000000,0.000000,0.010501,-0.006222,0.000082,0.000000,0.000000,0.000000,0.000000,819,819,819,819
8336,0,2.200000,1.300000,0.000000,-0.00,-0.00,-0.000371,0.005000,0.000000,0.000000,0.000000,0.000000,0.000000,0.000000,0.010500,-0.006221,0.000081,0.000000,0.000000,0.000000,0.000000,819,819,819,819
8346,0,2.200000,1.300000,0.000000,-0.00,-0.00,-0.000336,0.005000,0.000000,0.000000,0.000000,0.000000,0.000000,0.000000,0.010500,-0.006219,0.000081,0.000000,0.000000,0.000000,0.000000,819,819,819,819
8356,0,2.200000,1.300000,0.000000,-0.00,-0.00,-0.000304,0.005000,0.000000,0.000000,0.000000,0.000000,0.000000,0.000000,0.010498,-0.006211,0.000081,0.000000,0.000000,0.000000,0.000000,819,819,819,819
8366,0,2.200000,1.300000,0.000000,-0.00,-0.00,-0.000482,0.005000,0.000000,0.000000,0.000000,0.000000,0.000000,0.000000,0.010496,-0.006207,0.000084,0.000000,0.000000,0.000000,0.000000,819,819,819,819
8376,0,2.200000,1.300000,0.000000,-0.00,-0.00,-0.000851,0.005000,0.000000,0.000000,0.000000,0.000000,0.000000,0.000000,0.010495,-0.006207,0.000089,0.000000,0.000000,0.000000,0.000000,819,819,819,819
8386,0,2.200000,1.300000,0.000000,-0.00,-0.00,-0.000978,0.005000,0.000000,0.000000,0.000000,0.000000,0.000000,0.000000,0.010496,-0.006214,0.000092,0.000000,0.000000,0.000000,0.000000,819,819,819,819
8396,0,2.200000,1.300000,0.000000,-0.00,-0.00,-0.000781,0.005000,0.000000,0.000000,0.000000,0.000000,0.000000,0.000000,0.010494,-0.006212,0.000091,0.000000,0.000000,0.000000,0.000000,819,819,819,819
8406,0,2.200000,1.300000,0.000000,-0.00,-0.00,-0.000189,0.005000,0.000000,0.000000,0.000000,0.000000,0.000000,0.000000,0.010495,-0.006211,0.000085,0.000000,0.000000,0.000000,0.000000,819,819,819,819
8416,0,2.200000,1.300000,0.000000,-0.00,-0.00,0.000244,0.005000,0.000000,0.000000,0.000000,0.000000,0.000000,0.000000,0.010496,-0.006206,0.000081,0.000000,0.000000,0.000000,0.000000,819,819,819,819
8426,0,2.200000,1.300000,0.000000,-0.00,-0.00,0.000428,0.005000,0.000000,0.000000,0.000000,0.000000,0.000000,0.000000,0.010495,-0.006201,0.000078,0.000000,0.000000,0.000000,0.000000,819,819,819,819
8436,0,2.200000,1.300000,0.000000,-0.00,-0.00,0.000491,0.005000,0.000000,0.000000,0.000000,0.000000,0.000000,0.000000,0.010496,-0.006199,0.000077,0.000000,0.000000,0.000000,0.000000,819,819,819,819
8446,0,2.200000,1.300000,0.000000,-0.00,-0.00,0.000341,0.005000,0.000000,0.000000,0.000000,0.000000,0.000000,0.000000,0.010495,-0.006196,0.000078,0.000000,0.000000,0.000000,0.000000,819,819,819,819
8456,0,2.200000,1.300000,0.000000,0.00,-0.00,-0.000210,0.005000,0.000000,0.000000,0.000000,0.000000,0.000000,0.000000,0.010497,-0.006200,0.000083,0.000000,0.000000,0.000000,0.000000,819,819,819,819
8466,0,2.200000,1.300000,0.000000,-0.00,-0.00,-0.000294,0.005000,0.000000,0.000000,0.000000,0.000000,0.000000,0.000000,0.010496,-0.006203,0.000085,0.000000,0.000000,0.000000,0.000000,819,819,819,819
8476,0,2.200000,1.300000,0.000000,0.00,-0.00,-0.000369,0.005000,0.000000,0.000000,0.000000,0.000000,0.000000,0.000000,0.010499,-0.006204,0.000086,0.000000,0.000000,0.000000,0.000000,819,819,819,819
8486,0,2.200000,1.300000,0.000000,0.00,-0.00,-0.000542,0.005000,0.000000,0.000000,0.000000,0.000000,0.000000,0.000000,0.010499,-0.006203,0.000089,0.000000,0.000000,0.000000,0.000000,819,819,819,819
8496,0,2.200000,1.300000,0.000000,0.00,-0.00,-0.000697,0.005000,0.000000,0.000000,0.000000,0.000000,0.000000,0.000000,0.010497,-0.006202,0.000092,0.000000,0.000000,0.000000,0.000000,819,819,819,819
8506,0,2.200000,1.300000,0.000000,-0.00,-0.00,-0.000838,0.005000,0.000000,0.000000,0.000000,0.000000,0.000000,0.000000,0.010495,-0.006200,0.000094,0.000000,0.000000,0.000000,0.000000,819,819,819,819
8516,0,2.200000,1.300000,0.000000,-0.00,-0.00,-0.000759,0.005000,0.000000,0.000000,0.000000,0.000000,0.000000,0.000000,0.010495,-0.006201,0.000095,0.000000,0.000000,0.000000,0.000000,819,819,819,819
8526,0,2.200000,1.300000,0.000000,-0.00,0.00,-0.000479,0.005000,0.000000,0.000000,0.000000,0.000000,0.000000,0.000000,0.010496,-0.006207,0.000093,0.000000,0.000000,0.000000,0.000000,819,819,819,819
8536,0,2.200000,1.300000,0.000000,-0.00,0.00,-0.000123,0.005000,0.000000,0.000000,0.000000,0.000000,0.000000,0.000000,0.010494,-0.006211,0.000090,0.000000,0.000000,0.000000,0.000000,819,819,819,819
8546,0,2.200000,1.300000,0.000000,-0.00,0.00,-0.000422,0.005000,0.000000,0.000000,0.000000,0.000000,0.000000,0.000000,0.010495,-0.006211,0.000093,0.000000,0.000000,0.000000,0.000000,819,819,819,819
8556,0,2.200000,1.300000,0.000000,-0.00,0.00,-0.001004,0.005000,0.000000,0.000000,0.000000,0.000000,0.000000,0.000000,0.010496,-0.006210,0.000101,0.000000,0.000000,0.000000,0.000000,819,819,819,819
8566,0,2.200000,1.300000,0.000000,0.00,0.00,-0.001427,0.005000,0.000000,0.000000,0.000000,0.000000,0.000000,0.000000,0.010497,-0.006212,0.000107,0.000000,0.000000,0.000000,0.000000,819,819,819,819
8576,0,2.200000,1.300000,0.000000,0.00,0.00,-0.001809,0.005000,0.000000,0.000000,0.000000,0.000000,0.000000,0.000000,0.010498,-0.006213,0.000114,0.000000,0.000000,0.000000,0.000000,819,819,819,819
8586,0,2.200000,1.300000,0.000000,0.00,0.00,-0.001326,0.005000,0.000000,0.000000,0.000000,0.000000,0.000000,0.000000,0.010498,-0.006211,0.000112,0.000000,0.000000,0.000000,0.000000,819,819,819,819
8596,0,2.200000,1.300000,0.000000,0.00,-0.00,-0.000786,0.005000,0.000000,0.000000,0.000000,0.000000,0.000000,0.000000,0.010497,-0.006209,0.000108,0.000000,0.000000,0.000000,0.000000,819,819,819,819
8612,0,2.200000,1.300000,0.000000,-0.00,-0.00,-0.000297,0.005000,0.000000,0.000000,0.000000,0.000000,0.000000,0.000000,0.010496,-0.006206,0.000103,0.000000,0.000000,0.000000,0.000000,819,819,819,819
8626,0,2.200000,1.300000,0.000000,-0.00,-0.00,-0.000372,0.005000,0.000000,0.000000,0.000000,0.000000,0.000000,0.000000,0.010495,-0.006205,0.000105,0.000000,0.000000,0.000000,0.000000,819,819,819,819
8636,0,2.200000,1.300000,0.000000,-0.00,0.00,-0.000751,0.005000,0.000000,0.000000,0.000000,0.000000,0.000000,0.000000,0.010496,-0.006210,0.000110,0.000000,0.000000,0.000000,0.000000,819,819,819,819
8646,0,2.200000,1.300000,0.000000,0.00,0.00,-0.000887,0.005000,0.000000,0.000000,0.000000,0.000000,0.000000,0.000000,0.010497,-0.006215,0.000113,0.000000,0.000000,0.000000,0.000000,819,819,819,819
8656,0,2.200000,1.300000,0.000000,0.00,0.00,-0.001114,0.005000,0.000000,0.000000,0.000000,0.000000,0.000000,0.000000,0.010497,-0.006219,0.000117,0.000000,0.000000,0.000000,0.000000,819,819,819,819
8666,0,2.200000,1.300000,0.000000,0.00,0.00,-0.001112,0.005000,0.000000,0.000000,0.000000,0.000000,0.000000,0.000000,0.010497,-0.006221,0.000119,0.000000,0.000000,0.000000,0.000000,819,819,819,819
8676,0,2.200000,1.300000,0.000000,0.00,0.00,-0.000902,0.005000,0.000000,0.000000,0.000000,0.000000,0.000000,0.000000,0.010499,-0.006222,0.000118,0.000000,0.000000,0.000000,0.000000,819,819,819,819
8686,0,2.200000,1.300000,0.000000,0.00,0.00,-0.000506,0.005000,0.000000,0.000000,0.000000,0.000000,0.000000,0.000000,0.010497,-0.006221,0.000115,0.000000,0.000000,0.000000,0.000000,819,819,819,819
8696,0,2.200000,1.300000,0.000000,-0.00,0.00,-0.000354,0.005000,0.000000,0.000000,0.000000,0.000000,0.000000,0.000000,0.010496,-0.006222,0.000114,0.000000,0.000000,0.000000,0.000000,819,819,819,819
8706,0,2.200000,1.300000,0.000000,-0.00,0.00,-0.000113,0.005000,0.000000,0.000000,0.000000,0.000000,0.000000,0.000000,0.010496,-0.006223,0.000112,0.000000,0.000000,0.000000,0.000000,819,819,819,819
8725,0,2.200000,1.300000,0.000000,-0.00,0.00,0.000105,0.005000,0.000000,0.000000,0.000000,0.000000,0.000000,0.000000,0.010496,-0.006226,0.000110,0.000000,0.000000,0.000000,0.000000,819,819,819,819
8736,0,2.200000,1.300000,0.000000,-0.00,0.00,0.000095,0.005000,0.000000,0.000000,0.000000,0.000000,0.000000,0.000000,0.010495,-0.006224,0.000110,0.000000,0.000000,0.000000,0.000000,819,819,819,819
8746,0,2.200000,1.300000,0.000000,-0.00,0.00,-0.000329,0.005000,0.000000,0.000000,0.000000,0.000000,0.000000,0.000000,0.010494,-0.006224,0.000115,0.000000,0.000000,0.000000,0.000000,819,819,819,819
8756,0,2.200000,1.300000,0.000000,-0.00,0.00,-0.000816,0.005000,0.000000,0.000000,0.000000,0.000000,0.000000,0.000000,0.010494,-0.006223,0.000121,0.000000,0.000000,0.000000,0.000000,819,819,819,819
8766,0,2.200000,1.300000,0.000000,-0.00,0.00,-0.001049,0.005000,0.000000,0.000000,0.000000,0.000000,0.000000,0.000000,0.010493,-0.006229,0.000125,0.000000,0.000000,0.000000,0.000000,819,819,819,819
8777,0,2.200000,1.300000,0.000000,-0.00,0.00,-0.001053,0.005000,0.000000,0.000000,0.000000,0.000000,0.000000,0.000000,0.010494,-0.006232,0.000127,0.000000,0.000000,0.000000,0.000000,819,819,819,819
8787,0,2.200000,1.300000,0.000000,-0.00,0.00,-0.000849,0.005000,0.000000,0.000000,0.000000,0.000000,0.000000,0.000000,0.010493,-0.006233,0.000126,0.000000,0.000000,0.000000,0.000000,819,819,819,819
8797,0,2.200000,1.300000,0.000000,-0.00,0.00,-0.000561,0.005000,0.000000,0.000000,0.000000,0.000000,0.000000,0.000000,0.010491,-0.006233,0.000124,0.000000,0.000000,0.000000,0.000000,819,819,819,819
8807,0,2.200000,1.300000,0.000000,-0.00,0.00,-0.000301,0.005000,0.000000,0.000000,0.000000,0.000000,0.000000,0.000000,0.010491,-0.006235,0.000122,0.000000,0.000000,0.000000,0.000000,819,819,819,819
8817,0,2.200000,1.300000,0.000000,-0.00,0.00,-0.000065,0.005000,0.000000,0.000000,0.000000,0.000000,0.000000,0.000000,0.010490,-0.006238,0.000120,0.000000,0.000000,0.000000,0.000000,819,819,819,819
8827,0,2.200000,1.300000,0.000000,-0.00,0.00,-0.000059,0.005000,0.000000,0.000000,0.000000,0.000000,0.000000,0.000000,0.010491,-0.006243,0.000120,0.000000,0.000000,0.000000,0.000000,819,819,819,819
8837,0,2.200000,1.300000,0.000000,-0.00,0.00,-0.000157,0.005000,0.000000,0.000000,0.000000,0.000000,0.000000,0.000000,0.010490,-0.006247,0.000121,0.000000,0.000000,0.000000,0.000000,819,819,819,819
8847,0,2.200000,1.300000,0.000000,-0.00,0.00,-0.000246,0.005000,0.000000,0.000000,0.000000,0.000000,0.000000,0.000000,0.010490,-0.006247,0.000123,0.000000,0.000000,0.000000,0.000000,819,819,819,819
8857,0,2.200000,1.300000,0.000000,-0.00,0.00,-0.000429,0.006000,0.000000,0.000000,0.000000,0.000000,0.000000,0.000000,0.010490,-0.006249,0.000125,0.000000,0.000000,0.000000,0.000000,819,819,819,819
8867,0,2.200000,1.300000,0.000000,-0.00,0.00,-0.000907,0.006000,0.000000,0.000000,0.000000,0.000000,0.000000,0.000000,0.010490,-0.006247,0.000132,0.000000,0.000000,0.000000,0.000000,819,819,819,819
8877,0,2.200000,1.300000,0.000000,-0.00,0.00,-0.001235,0.006000,0.000000,0.000000,0.000000,0.000000,0.000000,0.000000,0.010490,-0.006248,0.000137,0.000000,0.000000,0.000000,0.000000,819,819,819,819
8887,0,2.200000,1.300000,0.000000,-0.00,0.00,-0.001221,0.006000,0.000000,0.000000,0.000000,0.000000,0.000000,0.000000,0.010490,-0.006250,0.000139,0.000000,0.000000,0.000000,0.000000,819,819,819,819
8897,0,2.200000,1.300000,0.000000,-0.00,0.00,-0.000898,0.006000,0.000000,0.000000,0.000000,0.000000,0.000000,0.000000,0.010489,-0.006254,0.000138,0.000000,0.000000,0.000000,0.000000,819,819,819,819
8907,0,2.200000,1.300000,0.000000,-0.00,0.00,-0.000502,0.006000,0.000000,0.000000,0.000000,0.000000,0.000000,0.000000,0.010489,-0.006259,0.000135,0.000000,0.000000,0.000000,0.000000,819,819,819,819
8922,0,2.200000,1.300000,0.000000,-0.00,0.00,-0.000040,0.006000,0.000000,0.000000,0.000000,0.000000,0.000000,0.000000,0.010490,-0.006260,0.000130,0.000000,0.000000,0.000000,0.000000,819,819,819,819
8935,0,2.200000,1.300000,0.000000,-0.00,0.00,0.000482,0.006000,0.000000,0.000000,0.000000,0.000000,0.000000,0.000000,0.010490,-0.006261,0.000124,0.000000,0.000000,0.000000,0.000000,819,819,819,819
8946,0,2.200000,1.300000,0.000000,-0.00,0.00,0.000229,0.006000,0.000000,0.000000,0.000000,0.000000,0.000000,0.000000,0.010487,-0.006263,0.000126,0.000000,0.000000,0.000000,0.000000,819,819,819,819
8958,0,2.200000,1.300000,0.000000,-0.00,0.00,-0.000311,0.006000,0.000000,0.000000,0.000000,0.000000,0.000000,0.000000,0.010486,-0.006263,0.000132,0.000000,0.000000,0.000000,0.000000,819,819,819,819
8967,0,2.200000,1.300000,0.000000,-0.00,0.00,-0.000696,0.006000,0.000000,0.000000,0.000000,0.000000,0.000000,0.000000,0.010486,-0.006264,0.000137,0.000000,0.000000,0.000000,0.000000,819,819,819,819
8977,0,2.200000,1.300000,0.000000,-0.00,0.00,-0.001251,0.006000,0.000000,0.000000,0.000000,0.000000,0.000000,0.000000,0.010482,-0.006261,0.000145,0.000000,0.000000,0.000000,0.000000,819,819,819,819
8987,0,2.200000,1.300000,0.000000,-0.00,0.00,-0.001340,0.006000,0.000000,0.000000,0.000000,0.000000,0.000000,0.000000,0.010483,-0.006259,0.000148,0.000000,0.000000,0.000000,0.000000,819,819,819,819
8997,0,2.200000,1.300000,0.000000,-0.00,0.00,-0.001005,0.006000,0.000000,0.000000,0.000000,0.000000,0.000000,0.000000,0.010481,-0.006259,0.000147,0.000000,0.000000,0.000000,0.000000,819,819,819,819
9007,0,2.200000,1.300000,0.000000,-0.00,-0.00,-0.000703,0.006000,0.000000,0.000000,0.000000,0.000000,0.000000,0.000000,0.010481,-0.006256,0.000145,0.000000,0.000000,0.000000,0.000000,819,819,819,819
9017,0,2.200000,1.300000,0.000000,-0.00,0.00,-0.000014,0.006000,0.000000,0.000000,0.000000,0.000000,0.000000,0.000000,0.010481,-0.006259,0.000138,0.000000,0.000000,0.000000,0.000000,819,819,819,819
9027,0,2.200000,1.300000,0.000000,-0.00,0.00,0.000298,0.007000,0.000000,0.000000,0.000000,0.000000,0.000000,0.000000,0.010480,-0.006260,0.000134,0.000000,0.000000,0.000000,0.000000,819,819,819,819
9037,0,2.200000,1.300000,0.000000,-0.00,0.00,0.000477,0.007000,0.000000,0.000000,0.000000,0.000000,0.000000,0.000000,0.010480,-0.006260,0.000132,0.000000,0.000000,0.000000,0.000000,819,819,819,819
9047,0,2.200000,1.300000,0.000000,-0.00,0.00,0.000225,0.007000,0.000000,0.000000,0.000000,0.000000,0.000000,0.000000,0.010478,-0.006259,0.000134,0.000000,0.000000,0.000000,0.000000,819,819,819,819
9057,0,2.200000,1.300000,0.000000,-0.00,-0.00,-0.000315,0.007000,0.000000,0.000000,0.000000,0.000000,0.000000,0.000000,0.010477,-0.006258,0.000140,0.000000,0.000000,0.000000,0.000000,819,819,819,819
9067,0,2.200000,1.300000,0.000000,-0.00,-0.00,-0.001010,0.008000,0.000000,0.000000,0.000000,0.000000,0.000000,0.000000,0.010475,-0.006258,0.000149,0.000000,0.000000,0.000000,0.000000,819,819,819,819
9077,0,2.200000,1.300000,0.000000,-0.00,-0.00,-0.001640,0.008000,0.000000,0.000000,0.000000,0.000000,0.000000,0.000000,0.010475,-0.006258,0.000158,0.000000,0.000000,0.000000,0.000000,819,819,819,819
9087,0,2.200000,1.300000,0.000000,-0.00,-0.00,-0.001795,0.008000,0.000000,0.000000,0.000000,0.000000,0.000000,0.000000,0.010475,-0.006257,0.000163,0.000000,0.000000,0.000000,0.000000,819,819,819,819
9097,0,2.200000,1.300000,0.000000,-0.00,-0.00,-0.001521,0.024000,0.000000,0.000000,0.000000,0.000000,0.000000,0.000000,0.010475,-0.006256,0.000163,0.007433,0.019618,0.028056,0.040893,1000,1000,1000,1000
9107,0,2.200000,1.300000,0.000000,-0.00,-0.00,-0.000962,0.024000,0.000000,0.000000,0.000000,0.000000,0.000000,0.000000,0.010476,-0.006252,0.000159,0.007431,0.019617,0.028066,0.040887,1000,1000,1000,1000
9117,0,2.200000,1.300000,0.000000,-0.00,-0.00,-0.000663,0.024000,0.000000,0.000000,0.000000,0.000000,0.000000,0.000000,0.010477,-0.006249,0.000157,0.007431,0.019615,0.028071,0.040883,1000,1000,1000,1000
9127,0,2.200000,1.300000,0.000000,-0.00,-0.00,-0.000393,0.036000,0.000000,0.000000,0.000000,0.000000,0.000000,0.000000,0.010476,-0.006247,0.000155,0.019432,0.031616,0.040074,0.052879,1000,1000,1000,1000
9137,0,2.200000,1.300000,0.000000,-0.00,-0.00,-0.000148,0.036000,0.000000,0.000000,0.000000,0.000000,0.000000,0.000000,0.010474,-0.006248,0.000153,0.019431,0.031621,0.040073,0.052875,1000,1000,1000,1000
9147,0,2.200000,1.300000,0.000000,-0.00,-0.00,-0.000341,0.036000,0.000000,0.000000,0.000000,0.000000,0.000000,0.000000,0.010469,-0.006248,0.000155,0.019439,0.031624,0.040065,0.052872,1000,1000,1000,1000
9157,0,2.200000,1.300000,0.000000,-0.00,0.00,0.000934,0.048000,0.000000,0.000000,0.000000,0.000000,0.000000,0.000000,0.010454,-0.006255,0.000141,0.031432,0.043660,0.052058,0.064850,1000,1000,1000,1000
9167,0,2.200000,1.300000,0.012500,-0.00,0.00,0.003955,0.051000,0.000000,0.000000,0.000000,0.000000,0.000000,0.000000,0.010418,-0.006272,0.000103,0.034413,0.046750,0.055043,0.067794,1000,1000,1000,1000
9177,0,2.200000,1.300000,0.022500,-0.00,0.00,0.004719,0.051000,0.000000,0.000000,0.000000,0.000000,0.000000,0.000000,0.010377,-0.006265,0.000087,0.034445,0.046800,0.055025,0.067729,1000,1000,1000,1000
9188,0,2.200000,1.312500,0.030500,-0.01,0.00,0.002716,0.051000,0.000000,0.000000,0.000000,0.000000,0.000000,0.000000,0.010350,-0.006307,0.000102,0.034445,0.046854,0.054942,0.067759,1000,1000,1000,1000
9198,0,2.187500,1.322500,0.036900,-0.02,0.00,0.001836,0.054000,0.000000,0.000000,0.000000,0.000000,0.000000,0.000000,0.010267,-0.006363,0.000108,0.037478,0.049989,0.057796,0.070738,1000,1000,1000,1000
9208,0,2.177500,1.330500,0.042020,-0.02,0.01,0.001869,0.054000,0.000000,0.000000,0.000000,0.000000,0.000000,0.000000,0.010209,-0.006418,0.000104,0.037477,0.050105,0.057688,0.070731,1000,1000,1000,1000
9218,0,2.169500,1.336900,0.046116,-0.02,0.01,0.001588,0.054000,0.000000,0.000000,0.000000,0.000000,0.000000,0.000000,0.010162,-0.006468,0.000104,0.037474,0.050203,0.057589,0.070734,1000,1000,1000,1000
9228,0,2.163100,1.342020,0.049393,-0.02,0.02,0.000712,0.057000,0.000000,0.000000,0.000000,0.000000,0.000000,0.000000,0.010106,-0.006513,0.000111,0.040492,0.053295,0.060482,0.073730,1000,1000,1000,1000
9243,0,2.157980,1.346116,0.052014,-0.02,0.02,-0.000289,0.057000,0.000000,0.000000,0.000000,0.000000,0.000000,0.000000,0.010060,-0.006548,0.000122,0.040514,0.053366,0.060390,0.073730,1000,1000,1000,1000
9255,0,2.153884,1.349393,0.054111,-0.02,0.02,-0.000158,0.059000,0.000000,0.000000,0.000000,0.000000,0.000000,0.000000,0.010013,-0.006582,0.000121,0.042525,0.055448,0.062310,0.075717,1000,1000,1000,1000
9267,0,2.150607,1.352015,0.068289,-0.02,0.02,0.002966,0.059000,0.000000,0.000000,0.000000,0.000000,0.000000,0.000000,0.009960,-0.006605,0.000084,0.042518,0.055561,0.062271,0.075650,1000,1000,1000,1000
9278,0,2.135486,1.354112,0.079631,-0.03,0.02,0.006519,0.059000,0.000000,0.000000,0.000000,0.000000,0.000000,0.000000,0.009848,-0.006627,0.000036,0.042561,0.055742,0.062185,0.075512,1000,1000,1000,1000
9288,0,2.123389,1.355790,0.088705,-0.04,0.01,0.009008,0.062000,0.000000,0.000000,0.000000,0.000000,0.000000,0.000000,0.009731,-0.006641,-0.000005,0.045622,0.058915,0.065096,0.078367,1000,1000,1000,1000
9298,0,2.113711,1.357132,0.108464,-0.04,0.01,0.010329,0.063000,0.000000,0.000000,0.000000,0.000000,0.000000,0.000000,0.009618,-0.006631,-0.000038,0.046712,0.060051,0.066025,0.079212,1000,1000,1000,1000
9308,0,2.105969,1.358205,0.124271,-0.05,0.00,0.009037,0.063000,0.000000,0.000000,0.000000,0.000000,0.000000,0.000000,0.009486,-0.006613,-0.000042,0.046859,0.060169,0.065914,0.079057,1000,1000,1000,1000
9318,0,2.112275,1.359064,0.149417,-0.04,0.00,-0.002288,0.063000,0.000000,0.000000,0.000000,0.000000,0.000000,0.000000,0.009427,-0.006606,0.000076,0.047043,0.060103,0.065745,0.079110,1000,1000,1000,1000
9328,0,2.129820,1.359752,0.169534,-0.03,0.00,-0.018962,0.064000,0.000000,0.000000,0.000000,0.000000,0.000000,0.000000,0.009464,-0.006630,0.000279,0.048185,0.060888,0.066555,0.080372,1000,1000,1000,1000
9338,0,2.143856,1.360301,0.185627,-0.02,0.01,-0.028353,0.064000,0.000000,0.000000,0.000000,0.000000,0.000000,0.000000,0.009521,-0.006704,0.000426,0.048201,0.060758,0.066391,0.080650,1000,1000,1000,1000
9348,0,2.167585,1.360741,0.186001,-0.00,0.02,-0.028561,0.064000,0.000000,0.000000,0.000000,0.000000,0.000000,0.000000,0.009640,-0.006771,0.000481,0.048070,0.060650,0.066388,0.080892,1000,1000,1000,1000
9358,0,2.199068,1.348593,0.186301,0.01,0.00,-0.021806,0.064000,0.000000,0.000000,0.000000,0.000000,0.000000,0.000000,0.009804,-0.006706,0.000454,0.047944,0.060448,0.066644,0.080965,1000,1000,1000,1000
9368,0,2.211755,1.351374,0.186541,0.02,0.00,-0.011859,0.064000,0.000000,0.000000,0.000000,0.000000,0.000000,0.000000,0.009864,-0.006692,0.000377,0.047820,0.060451,0.066795,0.080933,1000,1000,1000,1000
9378,0,2.209404,1.353600,0.186733,0.01,0.00,-0.004618,0.064000,0.000000,0.000000,0.000000,0.000000,0.000000,0.000000,0.009854,-0.006645,0.000313,0.047814,0.060479,0.066895,0.080812,1000,1000,1000,1000
9388,0,2.207523,1.355380,0.186886,0.01,-0.00,-0.003558,0.064000,0.000000,0.000000,0.000000,0.000000,0.000000,0.000000,0.009850,-0.006617,0.000309,0.047842,0.060458,0.066925,0.080776,1000,1000,1000,1000
9398,0,2.206018,1.356804,0.187009,0.00,0.00,0.001547,0.064000,0.000000,0.000000,0.000000,0.000000,0.000000,0.000000,0.009858,-0.006636,0.000255,0.047761,0.060524,0.066967,0.080749,1000,1000,1000,1000
9408,0,2.192315,1.357943,0.187107,0.00,0.00,0.005545,0.064000,0.000000,0.000000,0.000000,0.000000,0.000000,0.000000,0.009797,-0.006709,0.000204,0.047699,0.060707,0.066884,0.080710,1000,1000,1000,1000
9418,0,2.168852,1.346354,0.187186,-0.01,0.00,0.016314,0.064000,0.000000,0.000000,0.000000,0.000000,0.000000,0.000000,0.009678,-0.006703,0.000066,0.047685,0.060960,0.066909,0.080447,1000,1000,1000,1000
9428,0,2.137582,1.337084,0.187249,-0.03,0.00,0.023573,0.064000,0.000000,0.000000,0.000000,0.000000,0.000000,0.000000,0.009506,-0.006656,-0.000052,0.047786,0.061201,0.066902,0.080111,1000,1000,1000,1000
9438,0,2.112565,1.329667,0.199799,-0.04,-0.00,0.027240,0.063000,0.000000,0.000000,0.000000,0.000000,0.000000,0.000000,0.009345,-0.006580,-0.000140,0.046936,0.060375,0.065904,0.078785,1000,1000,1000,1000
9448,0,2.092552,1.323733,0.209839,-0.04,-0.01,0.023409,0.063000,0.000000,0.000000,0.000000,0.000000,0.000000,0.000000,0.009206,-0.006478,-0.000146,0.047170,0.060419,0.065873,0.078538,1000,1000,1000,1000
9458,0,2.076542,1.331487,0.217871,-0.05,-0.01,0.016314,0.064000,0.000000,0.000000,0.000000,0.000000,0.000000,0.000000,0.009095,-0.006493,-0.000105,0.048307,0.061503,0.066708,0.079483,1000,1000,1000,1000
9468,0,2.076233,1.337690,0.224297,-0.04,-0.00,0.005749,0.064000,0.000000,0.000000,0.000000,0.000000,0.000000,0.000000,0.009060,-0.006540,-0.000010,0.048390,0.061490,0.066531,0.079589,1000,1000,1000,1000
9478,0,2.088487,1.342652,0.229438,-0.03,0.00,0.000332,0.064000,0.000000,0.000000,0.000000,0.000000,0.000000,0.000000,0.009085,-0.006621,0.000043,0.048337,0.061493,0.066420,0.079749,1000,1000,1000,1000
9488,0,2.098290,1.346621,0.233550,-0.02,0.00,-0.003326,0.063000,0.000000,0.000000,0.000000,0.000000,0.000000,0.000000,0.009088,-0.006651,0.000086,0.047348,0.060476,0.065351,0.078825,1000,1000,1000,1000
9498,0,2.106132,1.349797,0.236840,-0.02,0.00,-0.006016,0.063000,0.000000,0.000000,0.000000,0.000000,0.000000,0.000000,0.009090,-0.006673,0.000125,0.047362,0.060458,0.065292,0.078887,1000,1000,1000,1000
9508,0,2.124905,1.352338,0.239472,-0.00,0.00,-0.013216,0.063000,0.000000,0.000000,0.000000,0.000000,0.000000,0.000000,0.009158,-0.006675,0.000222,0.047389,0.060295,0.065261,0.079055,1000,1000,1000,1000
9518,0,2.139924,1.354370,0.241578,-0.00,0.00,-0.014241,0.063000,0.000000,0.000000,0.000000,0.000000,0.000000,0.000000,0.009229,-0.006693,0.000259,0.047337,0.060205,0.065277,0.079182,1000,1000,1000,1000
9528,0,2.164439,1.355996,0.243262,0.01,0.00,-0.018276,0.064000,0.000000,0.000000,0.000000,0.000000,0.000000,0.000000,0.009359,-0.006719,0.000335,0.048256,0.061026,0.066305,0.080413,1000,1000,1000,1000
9538,0,2.184052,1.357297,0.244610,0.02,0.00,-0.014157,0.064000,0.000000,0.000000,0.000000,0.000000,0.000000,0.000000,0.009472,-0.006742,0.000320,0.048106,0.060950,0.066410,0.080535,1000,1000,1000,1000
9548,0,2.199741,1.358338,0.245688,0.03,0.00,-0.006180,0.064000,0.000000,0.000000,0.000000,0.000000,0.000000,0.000000,0.009568,-0.006753,0.000252,0.047932,0.060933,0.066563,0.080573,1000,1000,1000,1000
9566,0,2.187293,1.359170,0.246550,0.02,0.00,0.005081,0.064000,0.000000,0.000000,0.000000,0.000000,0.000000,0.000000,0.009552,-0.006758,0.000130,0.047820,0.061077,0.066664,0.080440,1000,1000,1000,1000
9584,0,2.177335,1.359836,0.247240,0.02,0.00,0.002733,0.064000,0.000000,0.000000,0.000000,0.000000,0.000000,0.000000,0.009557,-0.006758,0.000148,0.047833,0.061054,0.066651,0.080463,1000,1000,1000,1000
9596,0,2.169368,1.360369,0.247792,0.01,0.00,0.000815,0.064000,0.000000,0.000000,0.000000,0.000000,0.000000,0.000000,0.009549,-0.006762,0.000166,0.047854,0.061048,0.066621,0.080477,1000,1000,1000,1000
9608,0,2.162995,1.360795,0.248234,0.00,0.00,0.002603,0.065000,0.000000,0.000000,0.000000,0.000000,0.000000,0.000000,0.009526,-0.006788,0.000143,0.048828,0.062119,0.067596,0.081457,1000,1000,1000,1000
9619,0,2.145396,1.361136,0.248587,-0.00,0.00,0.003807,0.065000,0.000000,0.000000,0.000000,0.000000,0.000000,0.000000,0.009447,-0.006787,0.000123,0.048889,0.062216,0.067537,0.081358,1000,1000,1000,1000
9629,0,2.143817,1.361409,0.248870,-0.00,0.00,0.002202,0.079000,0.000000,0.000000,0.000000,0.000000,0.000000,0.000000,0.009449,-0.006779,0.000135,0.062908,0.076195,0.081534,0.095363,1000,1000,1000,1000
9640,0,2.130054,1.361627,0.249096,-0.00,0.00,0.004169,0.079000,0.000000,0.000000,0.000000,0.000000,0.000000,0.000000,0.009386,-0.006769,0.000107,0.062952,0.076276,0.081509,0.095262,1000,1000,1000,1000
9650,0,2.119043,1.361802,0.249277,-0.01,0.00,0.003773,0.091000,0.000000,0.000000,0.000000,0.000000,0.000000,0.000000,0.009319,-0.006777,0.000104,0.075008,0.088354,0.093438,0.107200,1000,1000,1000,1000
9661,0,2.110234,1.361942,0.249421,-0.02,0.00,0.003518,0.094000,0.000000,0.000000,0.000000,0.000000,0.000000,0.000000,0.009266,-0.006795,0.000100,0.078040,0.091429,0.096371,0.110160,1000,1000,1000,1000
9673,0,2.115688,1.362053,0.249537,-0.01,0.00,0.000697,0.094000,0.000000,0.000000,0.000000,0.000000,0.000000,0.000000,0.009281,-0.006821,0.000127,0.078025,0.091414,0.096333,0.110229,1000,1000,1000,1000
9685,0,2.120050,1.349643,0.249630,-0.00,0.00,-0.005380,0.105000,0.000000,0.000000,0.000000,0.000000,0.000000,0.000000,0.009305,-0.006783,0.000198,0.089110,0.102281,0.107323,0.121286,1000,1000,1000,1000
9695,0,2.123540,1.339714,0.249704,-0.00,-0.00,-0.007667,0.105000,0.000000,0.000000,0.000000,0.000000,0.000000,0.000000,0.009316,-0.006741,0.000236,0.089179,0.102189,0.107339,0.121292,1000,1000,1000,1000
9706,0,2.126332,1.331771,0.249763,-0.00,-0.00,-0.004555,0.105000,0.000000,0.000000,0.000000,0.000000,0.000000,0.000000,0.009307,-0.006675,0.000213,0.089232,0.102154,0.107419,0.121195,1000,1000,1000,1000
9718,0,2.128566,1.325417,0.249810,-0.00,-0.01,-0.002464,0.105000,0.000000,0.000000,0.000000,0.000000,0.000000,0.000000,0.009316,-0.006618,0.000197,0.089264,0.102105,0.107501,0.121130,1000,1000,1000,1000
9728,0,2.117853,1.332834,0.249848,-0.00,-0.00,-0.002645,0.124000,0.000000,0.000000,0.000000,0.000000,0.000000,0.000000,0.009271,-0.006634,0.000204,0.108299,0.121158,0.126433,0.140109,1000,1000,1000,1000
9739,0,2.121783,1.338767,0.249879,-0.00,-0.00,-0.006435,0.124000,0.000000,0.000000,0.000000,0.000000,0.000000,0.000000,0.009298,-0.006656,0.000255,0.108300,0.121103,0.126387,0.140209,1000,1000,1000,1000
9749,0,2.124926,1.343514,0.249903,-0.00,0.00,-0.004373,0.124000,0.000000,0.000000,0.000000,0.000000,0.000000,0.000000,0.009311,-0.006710,0.000243,0.108222,0.121156,0.126358,0.140263,1000,1000,1000,1000
9760,0,2.114941,1.334811,0.249922,-0.00,-0.00,0.000084,0.126000,0.000000,0.000000,0.000000,0.000000,0.000000,0.000000,0.009251,-0.006694,0.000198,0.110253,0.123244,0.128360,0.142143,1000,1000,1000,1000
9770,0,2.106953,1.327849,0.249938,-0.01,-0.00,0.000698,0.126000,0.000000,0.000000,0.000000,0.000000,0.000000,0.000000,0.009195,-0.006630,0.000190,0.110365,0.123245,0.128375,0.142016,1000,1000,1000,1000
9780,0,2.100562,1.334779,0.249950,-0.01,-0.00,0.000113,0.126000,0.000000,0.000000,0.000000,0.000000,0.000000,0.000000,0.009156,-0.006635,0.000196,0.110405,0.123283,0.128325,0.141987,1000,1000,1000,1000
9790,0,2.107950,1.340323,0.249960,-0.00,-0.00,-0.005182,0.126000,0.000000,0.000000,0.000000,0.000000,0.000000,0.000000,0.009184,-0.006648,0.000259,0.110427,0.123205,0.128276,0.142091,1000,1000,1000,1000
9801,0,2.113860,1.344759,0.249968,-0.00,0.00,-0.008835,0.126000,0.000000,0.000000,0.000000,0.000000,0.000000,0.000000,0.009214,-0.006711,0.000313,0.110387,0.123184,0.128190,0.142239,1000,1000,1000,1000
9811,0,2.118588,1.348307,0.249975,-0.00,0.00,-0.006649,0.126000,0.000000,0.000000,0.000000,0.000000,0.000000,0.000000,0.009230,-0.006743,0.000304,0.110331,0.123209,0.128183,0.142278,1000,1000,1000,1000
9822,0,2.109870,1.351146,0.249980,-0.00,0.00,-0.000939,0.126000,0.000000,0.000000,0.000000,0.000000,0.000000,0.000000,0.009174,-0.006752,0.000249,0.110323,0.123328,0.128174,0.142175,1000,1000,1000,1000
9835,0,2.102896,1.353417,0.249984,-0.00,0.00,0.002466,0.126000,0.000000,0.000000,0.000000,0.000000,0.000000,0.000000,0.009139,-0.006758,0.000210,0.110313,0.123410,0.128170,0.142107,1000,1000,1000,1000
9845,0,2.097317,1.355233,0.249987,-0.01,0.00,0.003164,0.125000,0.000000,0.000000,0.000000,0.000000,0.000000,0.000000,0.009108,-0.006760,0.000197,0.109328,0.122456,0.127151,0.141065,1000,1000,1000,1000
9856,0,2.105354,1.356687,0.249990,-0.00,0.00,-0.001074,0.125000,0.000000,0.000000,0.000000,0.000000,0.000000,0.000000,0.009148,-0.006779,0.000241,0.109314,0.122390,0.127128,0.141168,1000,1000,1000,1000
9868,0,2.111783,1.357849,0.249992,-0.00,0.00,-0.002526,0.125000,0.000000,0.000000,0.000000,0.000000,0.000000,0.000000,0.009164,-0.006802,0.000261,0.109294,0.122377,0.127101,0.141227,1000,1000,1000,1000
9879,0,2.116927,1.358780,0.249993,-0.00,0.00,-0.000628,0.125000,0.000000,0.000000,0.000000,0.000000,0.000000,0.000000,0.009172,-0.006825,0.000243,0.109247,0.122410,0.127104,0.141239,1000,1000,1000,1000
9889,0,2.121042,1.347024,0.249995,0.00,-0.00,-0.005025,0.126000,0.000000,0.000000,0.000000,0.000000,0.000000,0.000000,0.009192,-0.006753,0.000297,0.110352,0.123264,0.128142,0.142242,1000,1000,1000,1000
9905,0,2.136833,1.337619,0.249996,0.00,-0.00,-0.013563,0.125000,0.000000,0.000000,0.000000,0.000000,0.000000,0.000000,0.009269,-0.006738,0.000409,0.109402,0.122059,0.127122,0.141416,1000,1000,1000,1000
9918,0,2.149467,1.330095,0.249997,0.01,-0.00,-0.018596,0.125000,0.000000,0.000000,0.000000,0.000000,0.000000,0.000000,0.009334,-0.006721,0.000497,0.109442,0.121890,0.127117,0.141551,1000,1000,1000,1000
9929,0,2.159573,1.324076,0.249997,0.02,-0.00,-0.009161,0.125000,0.000000,0.000000,0.000000,0.000000,0.000000,0.000000,0.009377,-0.006684,0.000420,0.109359,0.121887,0.127272,0.141482,1000,1000,1000,1000
9939,0,2.155159,1.319261,0.249998,0.01,-0.00,-0.006425,0.125000,0.000000,0.000000,0.000000,0.000000,0.000000,0.000000,0.009370,-0.006629,0.000406,0.109407,0.121853,0.127335,0.141405,1000,1000,1000,1000
9950,0,2.151627,1.315409,0.249998,0.01,-0.01,-0.004157,0.125000,0.000000,0.000000,0.000000,0.000000,0.000000,0.000000,0.009385,-0.006599,0.000391,0.109408,0.121823,0.127394,0.141375,1000,1000,1000,1000
9960,0,2.148802,1.312327,0.249999,0.00,-0.01,-0.004280,0.126000,0.000000,0.000000,0.000000,0.000000,0.000000,0.000000,0.009393,-0.006577,0.000401,0.110432,0.122783,0.128415,0.142370,1000,1000,1000,1000
9970,0,2.134042,1.309862,0.249999,0.00,-0.00,0.002862,0.126000,0.000000,0.000000,0.000000,0.000000,0.000000,0.000000,0.009324,-0.006571,0.000324,0.110428,0.122923,0.128430,0.142219,1000,1000,1000,1000
9981,0,2.122233,1.307889,0.249999,-0.00,-0.00,0.008808,0.126000,0.000000,0.000000,0.000000,0.000000,0.000000,0.000000,0.009254,-0.006548,0.000247,0.110444,0.123048,0.128459,0.142049,1000,1000,1000,1000
9991,0,2.100287,1.306311,0.249999,-0.02,-0.01,0.012531,0.126000,0.000000,0.000000,0.000000,0.000000,0.000000,0.000000,0.009122,-0.006526,0.000184,0.110535,0.123220,0.128412,0.141833,1000,1000,1000,1000
10002,0,2.095229,1.317549,0.249999,-0.02,-0.00,0.008335,0.126000,0.000000,0.000000,0.000000,0.000000,0.000000,0.000000,0.009088,-0.006554,0.000210,0.110567,0.123256,0.128325,0.141852,1000,1000,1000,1000
10013,0,2.091184,1.326539,0.250000,-0.02,-0.00,0.001637,0.126000,0.000000,0.000000,0.000000,0.000000,0.000000,0.000000,0.009059,-0.006589,0.000273,0.110626,0.123256,0.128197,0.141921,1000,1000,1000,1000
10026,0,2.087947,1.333732,0.250000,-0.02,0.00,-0.000384,0.126000,0.000000,0.000000,0.000000,0.000000,0.000000,0.000000,0.009033,-0.006625,0.000294,0.110636,0.123298,0.128113,0.141953,1000,1000,1000,1000
10039,0,2.085358,1.339485,0.250000,-0.02,0.00,-0.000244,0.126000,0.000000,0.000000,0.000000,0.000000,0.000000,0.000000,0.008997,-0.006662,0.000294,0.110635,0.123371,0.128042,0.141953,1000,1000,1000,1000
10049,0,2.083286,1.331588,0.250000,-0.02,0.00,-0.005091,0.126000,0.000000,0.000000,0.000000,0.000000,0.000000,0.000000,0.008969,-0.006628,0.000352,0.110756,0.123306,0.127989,0.141949,1000,1000,1000,1000
10059,0,2.081629,1.325271,0.250000,-0.01,-0.00,-0.010722,0.127000,0.000000,0.000000,0.000000,0.000000,0.000000,0.000000,0.008950,-0.006599,0.000430,0.111881,0.124218,0.128921,0.142980,1000,1000,1000,1000
10070,0,2.092803,1.320217,0.250000,-0.00,-0.00,-0.015921,0.129000,0.000000,0.000000,0.000000,0.000000,0.000000,0.000000,0.008995,-0.006591,0.000515,0.113928,0.126081,0.130890,0.145101,1000,1000,1000,1000
10080,0,2.101743,1.316173,0.250000,-0.00,-0.00,-0.016585,0.129000,0.000000,0.000000,0.000000,0.000000,0.000000,0.000000,0.009027,-0.006575,0.000555,0.113952,0.125993,0.130898,0.145157,1000,1000,1000,1000
10091,0,2.108894,1.312939,0.250000,0.00,-0.00,-0.013040,0.135000,0.000000,0.000000,0.000000,0.000000,0.000000,0.000000,0.009051,-0.006540,0.000545,0.119955,0.131943,0.136966,0.151136,1000,1000,1000,1000
10101,0,2.102116,1.310351,0.250000,-0.00,-0.00,-0.009522,0.135000,0.000000,0.000000,0.000000,0.000000,0.000000,0.000000,0.009009,-0.006520,0.000529,0.120001,0.131981,0.136960,0.151058,1000,1000,1000,1000
10112,0,2.109193,1.308281,0.250000,0.00,-0.00,-0.010379,0.139000,0.000000,0.000000,0.000000,0.000000,0.000000,0.000000,0.009059,-0.006506,0.000559,0.123994,0.135888,0.140994,0.155124,1000,1000,1000,1000
10123,0,2.102354,1.306625,0.250000,-0.00,-0.00,-0.007216,0.139000,0.000000,0.000000,0.000000,0.000000,0.000000,0.000000,0.009040,-0.006495,0.000542,0.124007,0.135913,0.141003,0.155077,1000,1000,1000,1000
10135,0,2.096883,1.305300,0.250000,-0.00,-0.00,-0.000313,0.139000,0.000000,0.000000,0.000000,0.000000,0.000000,0.000000,0.009012,-0.006478,0.000473,0.123983,0.135994,0.141060,0.154963,1000,1000,1000,1000
10146,0,2.080007,1.304240,0.250000,-0.01,-0.00,0.011323,0.140000,0.000000,0.000000,0.000000,0.000000,0.000000,0.000000,0.008915,-0.006444,0.000334,0.124975,0.137195,0.142138,0.155692,1000,1000,1000,1000
