t,is_crashed,roll,pitch,yaw,p,q,r,throttle,p_cmd,q_cmd,r_cmd,roll_cmd,pitch_cmd,yaw_cmd,roll_pid_out,pitch_pid_out,yaw_pid_out,motor_fl,motor_bl,motor_fr,motor_br,pwm_fl,pwm_bl,pwm_fr,pwm_br
7075,0,2.312500,0.000000,-0.062500,0.06,-0.47,-0.534375,-1.000000,0.000000,0.000000,0.000000,0.000000,0.000000,0.000000,0.000060,0.000000,0.000000,0.000000,0.000000,0.000000,0.000000,0,0,0,0
7087,0,0.000000,0.000000,-0.062500,-9.58,-0.47,-0.739219,-1.000000,0.000000,0.000000,0.000000,0.000000,0.000000,0.000000,-0.029528,0.000000,0.000000,0.000000,0.000000,0.000000,0.000000,819,819,819,819
7097,0,0.000000,0.000000,-0.062500,0.06,-0.47,-1.343211,-1.000000,0.000000,0.000000,0.000000,0.000000,0.000000,0.000000,0.000206,0.000000,0.000000,0.000000,0.000000,0.000000,0.000000,819,819,819,819
7108,0,0.000000,0.000000,-0.062500,-0.06,-0.18,-1.254661,-1.000000,0.000000,0.000000,0.000000,0.000000,0.000000,0.000000,-0.000198,0.000000,0.000000,0.000000,0.000000,0.000000,0.000000,819,819,819,819
7119,0,0.062500,0.000000,-0.062500,0.34,0.24,-0.834608,-1.000000,0.000000,0.000000,0.000000,0.000000,0.000000,0.000000,0.001128,0.000000,0.000000,0.000000,0.000000,0.000000,0.000000,819,819,819,819
7131,0,0.062500,0.000000,-0.062500,0.00,0.59,-0.219855,-1.000000,0.000000,0.000000,0.000000,0.000000,0.000000,0.000000,-0.000000,0.000000,0.000000,0.000000,0.000000,0.000000,0.000000,819,819,819,819
7142,0,0.000000,0.000000,-0.062500,-0.28,0.59,0.701507,-1.000000,0.000000,0.000000,0.000000,0.000000,0.000000,0.000000,-0.000969,0.000000,0.000000,0.000000,0.000000,0.000000,0.000000,819,819,819,819
7152,0,0.000000,0.000000,-0.062500,0.00,0.18,1.519450,-1.000000,0.000000,0.000000,0.000000,0.000000,0.000000,0.000000,-0.000000,0.000000,0.000000,0.000000,0.000000,0.000000,0.000000,819,819,819,819
7164,0,0.000000,0.000000,-0.062500,-0.06,-0.12,1.797847,-1.000000,0.000000,0.000000,0.000000,0.000000,0.000000,0.000000,-0.000183,0.000000,0.000000,0.000000,0.000000,0.000000,0.000000,819,819,819,819
7178,0,0.000000,0.000000,-0.062500,0.00,-0.42,1.099267,-1.000000,0.000000,0.000000,0.000000,0.000000,0.000000,0.000000,-0.000000,0.000000,0.000000,0.000000,0.000000,0.000000,0.000000,819,819,819,819
7189,0,0.000000,0.000000,-0.062500,-0.18,0.12,0.589338,-1.000000,0.000000,0.000000,0.000000,0.000000,0.000000,0.000000,-0.000556,0.000000,0.000000,0.000000,0.000000,0.000000,0.000000,819,819,819,819
7202,0,0.000000,0.000000,-0.062500,0.00,0.53,-0.208033,-1.000000,0.000000,0.000000,0.000000,0.000000,0.000000,0.000000,-0.000000,0.000000,0.000000,0.000000,0.000000,0.000000,0.000000,819,819,819,819
7214,0,0.000000,0.000000,-0.062500,0.00,0.71,-0.663527,-1.000000,0.000000,0.000000,0.000000,0.000000,0.000000,0.000000,-0.000000,0.000000,0.000000,0.000000,0.000000,0.000000,0.000000,819,819,819,819
7225,0,0.000000,0.000000,-0.062500,0.00,-0.47,-0.448801,-1.000000,0.000000,0.000000,0.000000,0.000000,0.000000,0.000000,-0.000000,0.000000,0.000000,0.000000,0.000000,0.000000,0.000000,819,819,819,819
7235,0,0.000000,0.000000,-0.062500,-0.06,-0.83,0.096310,-1.000000,0.000000,0.000000,0.000000,0.000000,0.000000,0.000000,-0.000202,0.000000,0.000000,0.000000,0.000000,0.000000,0.000000,819,819,819,819
7246,0,0.000000,0.000000,-0.062500,-0.06,-0.59,0.479815,-1.000000,0.000000,0.000000,0.000000,0.000000,0.000000,0.000000,-0.000199,0.000000,0.000000,0.000000,0.000000,0.000000,0.000000,819,819,819,819
7256,0,0.000000,0.000000,-0.062500,0.00,-0.06,0.677116,-1.000000,0.000000,0.000000,0.000000,0.000000,0.000000,0.000000,-0.000000,0.000000,0.000000,0.000000,0.000000,0.000000,0.000000,819,819,819,819
7266,0,0.000000,0.000000,-0.062500,-0.06,0.00,0.746356,-1.000000,0.000000,0.000000,0.000000,0.000000,0.000000,0.000000,-0.000204,0.000000,0.000000,0.000000,0.000000,0.000000,0.000000,819,819,819,819
7276,0,0.000000,0.000000,-0.062500,0.06,-0.06,0.571693,-1.000000,0.000000,0.000000,0.000000,0.000000,0.000000,0.000000,0.000212,0.000000,0.000000,0.000000,0.000000,0.000000,0.000000,819,819,819,819
7286,0,0.000000,0.000000,-0.062500,-0.06,-0.12,0.325460,-1.000000,0.000000,0.000000,0.000000,0.000000,0.000000,0.000000,-0.000206,0.000000,0.000000,0.000000,0.000000,0.000000,0.000000,819,819,819,819
7297,0,0.000000,0.000000,-0.062500,0.00,0.00,-0.102477,-1.000000,0.000000,0.000000,0.000000,0.000000,0.000000,0.000000,-0.000000,0.000000,0.000000,0.000000,0.000000,0.000000,0.000000,819,819,819,819
7306,0,0.000000,0.000000,-0.062500,0.06,0.18,-0.658249,-1.000000,0.000000,0.000000,0.000000,0.000000,0.000000,0.000000,0.000215,0.000000,0.000000,0.000000,0.000000,0.000000,0.000000,819,819,819,819
7316,0,0.000000,0.000000,-0.062500,-0.18,0.30,-1.161037,-1.000000,0.000000,0.000000,0.000000,0.000000,0.000000,0.000000,-0.000629,0.000000,0.000000,0.000000,0.000000,0.000000,0.000000,819,819,819,819
7326,0,0.000000,0.000000,-0.062500,0.06,0.18,-1.542427,-1.000000,0.000000,0.000000,0.000000,0.000000,0.000000,0.000000,0.000209,0.000000,0.000000,0.000000,0.000000,0.000000,0.000000,819,819,819,819
7336,0,0.000000,0.000000,-0.062500,0.06,-0.24,-1.323996,-1.000000,0.000000,0.000000,0.000000,0.000000,0.000000,0.000000,0.000207,0.000000,0.000000,0.000000,0.000000,0.000000,0.000000,819,819,819,819
7346,0,0.000000,0.000000,-0.062500,-0.06,-0.53,-0.422450,-1.000000,0.000000,0.000000,0.000000,0.000000,0.000000,0.000000,-0.000207,0.000000,0.000000,0.000000,0.000000,0.000000,0.000000,819,819,819,819
7356,0,0.000000,0.000000,-0.062500,-0.06,-0.42,0.572627,-1.000000,0.000000,0.000000,0.000000,0.000000,0.000000,0.000000,-0.000207,0.000000,0.000000,0.000000,0.000000,0.000000,0.000000,819,819,819,819
7366,0,0.000000,0.000000,-0.062500,0.00,-0.06,1.156756,-1.000000,0.000000,0.000000,0.000000,0.000000,0.000000,0.000000,-0.000000,0.000000,0.000000,0.000000,0.000000,0.000000,0.000000,819,819,819,819
7376,0,0.000000,0.000000,-0.062500,-0.06,0.06,0.889088,-1.000000,0.000000,0.000000,0.000000,0.000000,0.000000,0.000000,-0.000208,0.000000,0.000000,0.000000,0.000000,0.000000,0.000000,819,819,819,819
7387,0,0.000000,0.000000,-0.062500,-0.06,0.59,0.697579,-1.000000,0.000000,0.000000,0.000000,0.000000,0.000000,0.000000,-0.000207,0.000000,0.000000,0.000000,0.000000,0.000000,0.000000,819,819,819,819
7396,0,0.000000,0.000000,-0.062500,0.06,0.47,0.569254,-1.000000,0.000000,0.000000,0.000000,0.000000,0.000000,0.000000,0.000209,0.000000,0.000000,0.000000,0.000000,0.000000,0.000000,819,819,819,819
7407,0,0.000000,0.000000,-0.062500,0.00,0.53,0.147213,-1.000000,0.000000,0.000000,0.000000,0.000000,0.000000,0.000000,-0.000000,0.000000,0.000000,0.000000,0.000000,0.000000,0.000000,819,819,819,819
7417,0,0.000000,0.000000,-0.062500,0.00,1.01,-0.289514,-1.000000,0.000000,0.000000,0.000000,0.000000,0.000000,0.000000,-0.000000,0.000000,0.000000,0.000000,0.000000,0.000000,0.000000,819,819,819,819
7427,0,0.000000,0.000000,-0.062500,-0.06,0.42,-0.608226,-1.000000,0.000000,0.000000,0.000000,0.000000,0.000000,0.000000,-0.000208,0.000000,0.000000,0.000000,0.000000,0.000000,0.000000,819,819,819,819
7437,0,0.000000,0.000000,-0.062500,-0.06,0.00,0.563339,-1.000000,0.000000,0.000000,0.000000,0.000000,0.000000,0.000000,-0.000206,0.000000,0.000000,0.000000,0.000000,0.000000,0.000000,819,819,819,819
7447,0,0.000000,0.000000,-0.062500,-0.06,-0.12,1.215667,-1.000000,0.000000,0.000000,0.000000,0.000000,0.000000,0.000000,-0.000207,0.000000,0.000000,0.000000,0.000000,0.000000,0.000000,819,819,819,819
7457,0,-0.062500,0.000000,-0.062500,-0.31,0.47,1.545158,-1.000000,0.000000,0.000000,0.000000,0.000000,0.000000,0.000000,-0.001088,0.000000,0.000000,0.000000,0.000000,0.000000,0.000000,819,819,819,819
7467,0,-0.062500,0.000000,-0.062500,-0.06,0.18,1.442883,-1.000000,0.000000,0.000000,0.000000,0.000000,0.000000,0.000000,-0.000207,0.000000,0.000000,0.000000,0.000000,0.000000,0.000000,819,819,819,819
7477,0,-0.062500,0.000000,-0.062500,0.12,0.18,0.547144,-1.000000,0.000000,0.000000,0.000000,0.000000,0.000000,0.000000,0.000425,0.000000,0.000000,0.000000,0.000000,0.000000,0.000000,819,819,819,819
7487,0,-0.062500,0.000000,-0.062500,0.00,0.12,0.027357,-1.000000,0.000000,0.000000,0.000000,0.000000,0.000000,0.000000,-0.000000,0.000000,0.000000,0.000000,0.000000,0.000000,0.000000,819,819,819,819
7499,0,-0.062500,0.000000,-0.062500,0.00,-0.12,-1.364257,-1.000000,0.000000,0.000000,0.000000,0.000000,0.000000,0.000000,-0.000000,0.000000,0.000000,0.000000,0.000000,0.000000,0.000000,819,819,819,819
7508,0,0.000000,0.000000,-0.062500,0.35,-0.12,-1.433838,-1.000000,0.000000,0.000000,0.000000,0.000000,0.000000,0.000000,0.001271,0.000000,0.000000,0.000000,0.000000,0.000000,0.000000,819,819,819,819
7518,0,0.000000,0.000000,-0.062500,-0.06,-0.36,-2.031067,-1.000000,0.000000,0.000000,0.000000,0.000000,0.000000,0.000000,-0.000210,0.000000,0.000000,0.000000,0.000000,0.000000,0.000000,819,819,819,819
7528,0,0.000000,0.000000,-0.062500,0.00,0.18,-1.110928,-1.000000,0.000000,0.000000,0.000000,0.000000,0.000000,0.000000,-0.000000,0.000000,0.000000,0.000000,0.000000,0.000000,0.000000,819,819,819,819
7538,0,0.000000,0.000000,-0.062500,-0.18,0.65,1.131954,-1.000000,0.000000,0.000000,0.000000,0.000000,0.000000,0.000000,-0.000624,0.000000,0.000000,0.000000,0.000000,0.000000,0.000000,819,819,819,819
7548,0,-0.062500,0.000000,-0.062500,-0.31,1.01,1.956598,-1.000000,0.000000,0.000000,0.000000,0.000000,0.000000,0.000000,-0.001090,0.000000,0.000000,0.000000,0.000000,0.000000,0.000000,819,819,819,819
7560,0,-0.062500,-0.062500,-0.062500,0.00,0.75,1.997830,-1.000000,0.000000,0.000000,0.000000,0.000000,0.000000,0.000000,-0.000000,0.000000,0.000000,0.000000,0.000000,0.000000,0.000000,819,819,819,819
7571,0,-0.062500,-0.062500,-0.062500,0.00,-0.24,-0.196983,-1.000000,0.000000,0.000000,0.000000,0.000000,0.000000,0.000000,-0.000000,0.000000,0.000000,0.000000,0.000000,0.000000,0.000000,819,819,819,819
7583,0,-0.062500,-0.062500,-0.062500,0.06,0.00,-0.662974,-1.000000,0.000000,0.000000,0.000000,0.000000,0.000000,0.000000,0.000182,0.000000,0.000000,0.000000,0.000000,0.000000,0.000000,819,819,819,819
7595,0,-0.062500,-0.062500,-0.062500,0.00,0.00,-0.745649,-1.000000,0.000000,0.000000,0.000000,0.000000,0.000000,0.000000,-0.000000,0.000000,0.000000,0.000000,0.000000,0.000000,0.000000,819,819,819,819
7606,0,0.000000,-0.062500,-0.062500,0.28,0.71,-0.156032,-1.000000,0.000000,0.000000,0.000000,0.000000,0.000000,0.000000,0.000947,0.000000,0.000000,0.000000,0.000000,0.000000,0.000000,819,819,819,819
7616,0,-0.062500,-0.062500,-0.062500,-0.31,0.18,0.645323,-1.000000,0.000000,0.000000,0.000000,0.000000,0.000000,0.000000,-0.001052,0.000000,0.000000,0.000000,0.000000,0.000000,0.000000,819,819,819,819
7626,0,-0.062500,-0.062500,-0.062500,0.00,0.00,0.447891,-1.000000,0.000000,0.000000,0.000000,0.000000,0.000000,0.000000,-0.000000,0.000000,0.000000,0.000000,0.000000,0.000000,0.000000,819,819,819,819
7636,0,-0.062500,-0.062500,-0.062500,0.00,-0.06,0.675519,-1.000000,0.000000,0.000000,0.000000,0.000000,0.000000,0.000000,-0.000000,0.000000,0.000000,0.000000,0.000000,0.000000,0.000000,819,819,819,819
7646,0,-0.062500,-0.062500,-0.062500,0.00,-0.77,-0.263099,-1.000000,0.000000,0.000000,0.000000,0.000000,0.000000,0.000000,-0.000000,0.000000,0.000000,0.000000,0.000000,0.000000,0.000000,819,819,819,819
7657,0,-0.062500,-0.062500,-0.062500,0.06,-0.42,-0.606905,-1.000000,0.000000,0.000000,0.000000,0.000000,0.000000,0.000000,0.000206,0.000000,0.000000,0.000000,0.000000,0.000000,0.000000,819,819,819,819
7667,0,0.000000,-0.062500,-0.062500,0.31,-0.06,-1.039720,-1.000000,0.000000,0.000000,0.000000,0.000000,0.000000,0.000000,0.001053,0.000000,0.000000,0.000000,0.000000,0.000000,0.000000,819,819,819,819
7677,0,0.000000,-0.000000,-0.062500,-0.12,-0.52,-1.298861,-1.000000,0.000000,0.000000,0.000000,0.000000,0.000000,0.000000,-0.000414,0.000000,0.000000,0.000000,0.000000,0.000000,0.000000,819,819,819,819
7687,0,0.000000,-0.000000,-0.062500,-0.06,0.30,-0.539943,-1.000000,0.000000,0.000000,0.000000,0.000000,0.000000,0.000000,-0.000215,0.000000,0.000000,0.000000,0.000000,0.000000,0.000000,819,819,819,819
7697,0,0.000000,-0.000000,-0.062500,-0.06,0.24,-0.145747,-1.000000,0.000000,0.000000,0.000000,0.000000,0.000000,0.000000,-0.000207,0.000000,0.000000,0.000000,0.000000,0.000000,0.000000,819,819,819,819
7706,0,0.000000,-0.000000,-0.062500,-0.06,0.18,0.170838,-1.000000,0.000000,0.000000,0.000000,0.000000,0.000000,0.000000,-0.000213,0.000000,0.000000,0.000000,0.000000,0.000000,0.000000,819,819,819,819
7717,0,0.000000,-0.000000,-0.062500,0.00,0.47,0.602292,-1.000000,0.000000,0.000000,0.000000,0.000000,0.000000,0.000000,-0.000000,0.000000,0.000000,0.000000,0.000000,0.000000,0.000000,819,819,819,819
7727,0,0.000000,-0.000000,-0.062500,0.00,-0.18,0.980115,-1.000000,0.000000,0.000000,0.000000,0.000000,0.000000,0.000000,-0.000000,0.000000,0.000000,0.000000,0.000000,0.000000,0.000000,819,819,819,819
7737,0,0.000000,-0.000000,-0.062500,0.06,0.18,0.583381,-1.000000,0.000000,0.000000,0.000000,0.000000,0.000000,0.000000,0.000211,0.000000,0.000000,0.000000,0.000000,0.000000,0.000000,819,819,819,819
7747,0,0.000000,-0.000000,-0.062500,0.06,0.30,-0.445831,-1.000000,0.000000,0.000000,0.000000,0.000000,0.000000,0.000000,0.000207,0.000000,0.000000,0.000000,0.000000,0.000000,0.000000,819,819,819,819
7757,0,0.000000,-0.000000,-0.062500,0.12,-0.18,-0.259792,-1.000000,0.000000,0.000000,0.000000,0.000000,0.000000,0.000000,0.000414,0.000000,0.000000,0.000000,0.000000,0.000000,0.000000,819,819,819,819
7767,0,0.000000,-0.000000,-0.062500,-0.12,-0.42,-0.844240,-1.000000,0.000000,0.000000,0.000000,0.000000,0.000000,0.000000,-0.000410,0.000000,0.000000,0.000000,0.000000,0.000000,0.000000,819,819,819,819
7777,0,0.000000,-0.000000,-0.062500,0.06,-0.12,-0.398462,-1.000000,0.000000,0.000000,0.000000,0.000000,0.000000,0.000000,0.000206,0.000000,0.000000,0.000000,0.000000,0.000000,0.000000,819,819,819,819
7787,0,0.000000,-0.000000,-0.062500,-0.06,0.00,-0.019923,-1.000000,0.000000,0.000000,0.000000,0.000000,0.000000,0.000000,-0.000207,0.000000,0.000000,0.000000,0.000000,0.000000,0.000000,819,819,819,819
7797,0,0.000000,-0.000000,-0.062500,0.06,0.12,0.711504,-1.000000,0.000000,0.000000,0.000000,0.000000,0.000000,0.000000,0.000210,0.000000,0.000000,0.000000,0.000000,0.000000,0.000000,819,819,819,819
7807,0,-0.062500,-0.000000,-0.062500,-0.25,0.36,0.926200,-1.000000,0.000000,0.000000,0.000000,0.000000,0.000000,0.000000,-0.000877,0.000000,0.000000,0.000000,0.000000,0.000000,0.000000,819,819,819,819
7823,0,-0.062500,-0.000000,-0.062500,-0.06,-0.65,1.174435,-1.000000,0.000000,0.000000,0.000000,0.000000,0.000000,0.000000,-0.000152,0.000000,0.000000,0.000000,0.000000,0.000000,0.000000,819,819,819,819
7837,0,-0.062500,-0.000000,-0.062500,-0.06,-0.47,-0.594403,-1.000000,0.000000,0.000000,0.000000,0.000000,0.000000,0.000000,-0.000167,0.000000,0.000000,0.000000,0.000000,0.000000,0.000000,819,819,819,819
7847,0,0.000000,-0.000000,-0.062500,0.37,-0.06,-1.157845,-1.000000,0.000000,0.000000,0.000000,0.000000,0.000000,0.000000,0.001300,0.000000,0.000000,0.000000,0.000000,0.000000,0.000000,819,819,819,819
7891,0,0.000000,-0.000000,-0.062500,-0.12,-0.24,-0.651642,-1.000000,0.000000,0.000000,0.000000,0.000000,0.000000,0.000000,-0.000186,0.000000,0.000000,0.000000,0.000000,0.000000,0.000000,819,819,819,819
7903,0,0.000000,-0.000000,-0.062500,0.06,0.12,0.620543,-1.000000,0.000000,0.000000,0.000000,0.000000,0.000000,0.000000,0.000180,0.000000,0.000000,0.000000,0.000000,0.000000,0.000000,819,819,819,819
7916,0,0.000000,-0.000000,-0.062500,-0.06,0.24,1.277902,-1.000000,0.000000,0.000000,0.000000,0.000000,0.000000,0.000000,-0.000174,0.000000,0.000000,0.000000,0.000000,0.000000,0.000000,819,819,819,819
7927,0,0.000000,-0.000000,-0.062500,-0.06,-0.06,1.251395,-1.000000,0.000000,0.000000,0.000000,0.000000,0.000000,0.000000,-0.000203,0.000000,0.000000,0.000000,0.000000,0.000000,0.000000,819,819,819,819
7937,0,-0.062500,-0.000000,-0.062500,-0.31,-0.36,0.834445,-1.000000,0.000000,0.000000,0.000000,0.000000,0.000000,0.000000,-0.001063,0.000000,0.000000,0.000000,0.000000,0.000000,0.000000,819,819,819,819
7947,0,-0.062500,-0.000000,-0.062500,0.00,-0.12,0.101097,-1.000000,0.000000,0.000000,0.000000,0.000000,0.000000,0.000000,-0.000000,0.000000,0.000000,0.000000,0.000000,0.000000,0.000000,819,819,819,819
7957,0,-0.062500,-0.000000,-0.062500,0.00,-0.12,-0.529320,-1.000000,0.000000,0.000000,0.000000,0.000000,0.000000,0.000000,-0.000000,0.000000,0.000000,0.000000,0.000000,0.000000,0.000000,819,819,819,819
7971,0,-0.062500,-0.000000,-0.062500,-0.12,0.00,-1.273341,-1.000000,0.000000,0.000000,0.000000,0.000000,0.000000,0.000000,-0.000324,0.000000,0.000000,0.000000,0.000000,0.000000,0.000000,819,819,819,819
7983,0,0.000000,-0.000000,-0.062500,0.08,0.12,-1.073042,-1.000000,0.000000,0.000000,0.000000,0.000000,0.000000,0.000000,0.000254,0.000000,0.000000,0.000000,0.000000,0.000000,0.000000,819,819,819,819
7996,0,0.000000,-0.000000,-0.062500,-0.12,0.18,0.361973,-1.000000,0.000000,0.000000,0.000000,0.000000,0.000000,0.000000,-0.000349,0.000000,0.000000,0.000000,0.000000,0.000000,0.000000,819,819,819,819
8007,0,0.000000,-0.000000,-0.062500,0.00,0.06,1.086849,-1.000000,0.000000,0.000000,0.000000,0.000000,0.000000,0.000000,-0.000000,0.000000,0.000000,0.000000,0.000000,0.000000,0.000000,819,819,819,819
8017,0,-0.062500,-0.000000,-0.062500,-0.19,-0.24,1.419967,-1.000000,0.000000,0.000000,0.000000,0.000000,0.000000,0.000000,-0.000666,0.000000,0.000000,0.000000,0.000000,0.000000,0.000000,819,819,819,819
8027,0,-0.062500,-0.000000,-0.062500,0.00,0.00,1.377248,-1.000000,0.000000,0.000000,0.000000,0.000000,0.000000,0.000000,-0.000000,0.000000,0.000000,0.000000,0.000000,0.000000,0.000000,819,819,819,819
8037,0,-0.062500,-0.000000,-0.062500,-0.12,0.18,0.603237,-1.000000,0.000000,0.000000,0.000000,0.000000,0.000000,0.000000,-0.000409,0.000000,0.000000,0.000000,0.000000,0.000000,0.000000,819,819,819,819
8048,0,-0.062500,-0.000000,-0.062500,0.00,0.00,-0.622963,-1.000000,0.000000,0.000000,0.000000,0.000000,0.000000,0.000000,-0.000000,0.000000,0.000000,0.000000,0.000000,0.000000,0.000000,819,819,819,819
8058,0,-0.062500,-0.000000,-0.062500,0.06,-0.06,-1.396773,-1.000000,0.000000,0.000000,0.000000,0.000000,0.000000,0.000000,0.000207,0.000000,0.000000,0.000000,0.000000,0.000000,0.000000,819,819,819,819
8068,0,0.000000,-0.000000,-0.062500,0.37,-0.30,-1.672964,-1.000000,0.000000,0.000000,0.000000,0.000000,0.000000,0.000000,0.001289,0.000000,0.000000,0.000000,0.000000,0.000000,0.000000,819,819,819,819
8078,0,0.000000,-0.000000,-0.062500,0.00,-0.65,-1.271148,-1.000000,0.000000,0.000000,0.000000,0.000000,0.000000,0.000000,-0.000000,0.000000,0.000000,0.000000,0.000000,0.000000,0.000000,819,819,819,819
8088,0,0.000000,-0.000000,-0.062500,-0.06,-0.18,-0.657307,-1.000000,0.000000,0.000000,0.000000,0.000000,0.000000,0.000000,-0.000207,0.000000,0.000000,0.000000,0.000000,0.000000,0.000000,819,819,819,819
8098,0,0.000000,-0.000000,-0.062500,0.06,0.18,0.323385,-1.000000,0.000000,0.000000,0.000000,0.000000,0.000000,0.000000,0.000206,0.000000,0.000000,0.000000,0.000000,0.000000,0.000000,819,819,819,819
8108,0,0.000000,-0.000000,-0.062500,0.00,0.53,1.322419,-1.000000,0.000000,0.000000,0.000000,0.000000,0.000000,0.000000,-0.000000,0.000000,0.000000,0.000000,0.000000,0.000000,0.000000,819,819,819,819
8119,0,-0.062500,-0.000000,-0.062500,-0.28,0.36,1.609871,-1.000000,0.000000,0.000000,0.000000,0.000000,0.000000,0.000000,-0.000969,0.000000,0.000000,0.000000,0.000000,0.000000,0.000000,819,819,819,819
8129,0,-0.062500,-0.000000,-0.062500,-0.06,0.24,1.683618,-1.000000,0.000000,0.000000,0.000000,0.000000,0.000000,0.000000,-0.000206,0.000000,0.000000,0.000000,0.000000,0.000000,0.000000,819,819,819,819
8139,0,-0.062500,-0.000000,-0.062500,-0.06,-0.06,0.915431,-1.000000,0.000000,0.000000,0.000000,0.000000,0.000000,0.000000,-0.000205,0.000000,0.000000,0.000000,0.000000,0.000000,0.000000,819,819,819,819
8150,0,-0.062500,-0.000000,-0.062500,0.00,-0.12,-0.132353,-1.000000,0.000000,0.000000,0.000000,0.000000,0.000000,0.000000,-0.000000,0.000000,0.000000,0.000000,0.000000,0.000000,0.000000,819,819,819,819
8159,0,-0.062500,-0.000000,-0.062500,-0.18,0.00,-0.897243,-1.000000,0.000000,0.000000,0.000000,0.000000,0.000000,0.000000,-0.000628,0.000000,0.000000,0.000000,0.000000,0.000000,0.000000,819,819,819,819
8169,0,-0.062500,-0.000000,-0.062500,0.00,0.00,-1.113612,-1.000000,0.000000,0.000000,0.000000,0.000000,0.000000,0.000000,-0.000000,0.000000,0.000000,0.000000,0.000000,0.000000,0.000000,819,819,819,819
8179,0,-0.062500,-0.000000,-0.062500,0.06,-0.06,-0.946306,-1.000000,0.000000,0.000000,0.000000,0.000000,0.000000,0.000000,0.000205,0.000000,0.000000,0.000000,0.000000,0.000000,0.000000,819,819,819,819
8189,0,-0.062500,-0.000000,-0.062500,-0.06,-0.42,-0.581690,-1.000000,0.000000,0.000000,0.000000,0.000000,0.000000,0.000000,-0.000211,0.000000,0.000000,0.000000,0.000000,0.000000,0.000000,819,819,819,819
8199,0,-0.062500,-0.000000,-0.062500,0.06,-0.59,-0.385335,-1.000000,0.000000,0.000000,0.000000,0.000000,0.000000,0.000000,0.000213,0.000000,0.000000,0.000000,0.000000,0.000000,0.000000,819,819,819,819
8216,0,-0.062500,-0.000000,-0.062500,-0.06,-0.47,0.099483,-1.000000,0.000000,0.000000,0.000000,0.000000,0.000000,0.000000,-0.000146,0.000000,0.000000,0.000000,0.000000,0.000000,0.000000,819,819,819,819
8227,0,-0.062500,-0.000000,-0.062500,0.06,0.71,0.479974,-1.000000,0.000000,0.000000,0.000000,0.000000,0.000000,0.000000,0.000192,0.000000,0.000000,0.000000,0.000000,0.000000,0.000000,819,819,819,819
8238,0,-0.062500,-0.000000,-0.062500,0.06,0.77,0.795874,-1.000000,0.000000,0.000000,0.000000,0.000000,0.000000,0.000000,0.000200,0.000000,0.000000,0.000000,0.000000,0.000000,0.000000,819,819,819,819
8248,0,-0.062500,-0.000000,-0.062500,-0.12,0.36,1.286669,-1.000000,0.000000,0.000000,0.000000,0.000000,0.000000,0.000000,-0.000403,0.000000,0.000000,0.000000,0.000000,0.000000,0.000000,819,819,819,819
8258,0,-0.062500,-0.000000,-0.062500,0.00,0.12,1.133083,-1.000000,0.000000,0.000000,0.000000,0.000000,0.000000,0.000000,-0.000000,0.000000,0.000000,0.000000,0.000000,0.000000,0.000000,819,819,819,819
8268,0,-0.062500,-0.000000,-0.062500,-0.06,-0.42,0.709779,-1.000000,0.000000,0.000000,0.000000,0.000000,0.000000,0.000000,-0.000207,0.000000,0.000000,0.000000,0.000000,0.000000,0.000000,819,819,819,819
8278,0,-0.062500,-0.000000,-0.062500,-0.18,-0.36,0.272989,-1.000000,0.000000,0.000000,0.000000,0.000000,0.000000,0.000000,-0.000621,0.000000,0.000000,0.000000,0.000000,0.000000,0.000000,819,819,819,819
8289,0,-0.062500,-0.000000,-0.062500,-0.06,-0.12,-0.520726,-1.000000,0.000000,0.000000,0.000000,0.000000,0.000000,0.000000,-0.000207,0.000000,0.000000,0.000000,0.000000,0.000000,0.000000,819,819,819,819
8299,0,-0.062500,-0.000000,-0.062500,0.06,0.24,-1.391661,-1.000000,0.000000,0.000000,0.000000,0.000000,0.000000,0.000000,0.000205,0.000000,0.000000,0.000000,0.000000,0.000000,0.000000,819,819,819,819
8309,0,-0.062500,-0.000000,-0.062500,0.06,0.12,-1.613333,-1.000000,0.000000,0.000000,0.000000,0.000000,0.000000,0.000000,0.000206,0.000000,0.000000,0.000000,0.000000,0.000000,0.000000,819,819,819,819
8319,0,0.000000,-0.000000,-0.062500,0.31,0.00,-1.446292,-1.000000,0.000000,0.000000,0.000000,0.000000,0.000000,0.000000,0.001059,0.000000,0.000000,0.000000,0.000000,0.000000,0.000000,819,819,819,819
8329,0,0.000000,-0.000000,-0.062500,0.00,-0.06,-0.784815,-1.000000,0.000000,0.000000,0.000000,0.000000,0.000000,0.000000,-0.000000,0.000000,0.000000,0.000000,0.000000,0.000000,0.000000,819,819,819,819
8339,0,0.000000,-0.000000,-0.062500,0.00,0.12,0.317009,-1.000000,0.000000,0.000000,0.000000,0.000000,0.000000,0.000000,-0.000000,0.000000,0.000000,0.000000,0.000000,0.000000,0.000000,819,819,819,819
8350,0,0.000000,-0.000000,-0.062500,0.00,0.18,1.143975,-1.000000,0.000000,0.000000,0.000000,0.000000,0.000000,0.000000,-0.000000,0.000000,0.000000,0.000000,0.000000,0.000000,0.000000,819,819,819,819
8360,0,-0.062500,-0.000000,-0.062500,-0.37,0.18,1.541574,-1.000000,0.000000,0.000000,0.000000,0.000000,0.000000,0.000000,-0.001300,0.000000,0.000000,0.000000,0.000000,0.000000,0.000000,819,819,819,819
8370,0,-0.062500,-0.000000,-0.062500,-0.06,-0.12,1.383329,-1.000000,0.000000,0.000000,0.000000,0.000000,0.000000,0.000000,-0.000210,0.000000,0.000000,0.000000,0.000000,0.000000,0.000000,819,819,819,819
8380,0,-0.062500,-0.000000,-0.062500,-0.06,-0.30,0.841041,-1.000000,0.000000,0.000000,0.000000,0.000000,0.000000,0.000000,-0.000207,0.000000,0.000000,0.000000,0.000000,0.000000,0.000000,819,819,819,819
8390,0,-0.062500,-0.000000,-0.062500,0.00,-0.24,-0.076698,-1.000000,0.000000,0.000000,0.000000,0.000000,0.000000,0.000000,-0.000000,0.000000,0.000000,0.000000,0.000000,0.000000,0.000000,819,819,819,819
8400,0,-0.062500,-0.000000,-0.062500,0.06,0.06,-0.894460,-1.000000,0.000000,0.000000,0.000000,0.000000,0.000000,0.000000,0.000205,0.000000,0.000000,0.000000,0.000000,0.000000,0.000000,819,819,819,819
8410,0,-0.062500,-0.000000,-0.062500,-0.12,0.36,-1.113473,-1.000000,0.000000,0.000000,0.000000,0.000000,0.000000,0.000000,-0.000419,0.000000,0.000000,0.000000,0.000000,0.000000,0.000000,819,819,819,819
8420,0,-0.062500,-0.000000,-0.062500,0.00,0.71,-0.946299,-1.000000,0.000000,0.000000,0.000000,0.000000,0.000000,0.000000,-0.000000,0.000000,0.000000,0.000000,0.000000,0.000000,0.000000,819,819,819,819
8430,0,-0.062500,-0.000000,-0.062500,0.00,0.36,-0.522315,-1.000000,0.000000,0.000000,0.000000,0.000000,0.000000,0.000000,-0.000000,0.000000,0.000000,0.000000,0.000000,0.000000,0.000000,819,819,819,819
8440,0,-0.062500,-0.000000,-0.062500,-0.12,-0.12,0.152009,-1.000000,0.000000,0.000000,0.000000,0.000000,0.000000,0.000000,-0.000415,0.000000,0.000000,0.000000,0.000000,0.000000,0.000000,819,819,819,819
8450,0,-0.062500,-0.000000,-0.062500,-0.06,-0.53,0.660725,-1.000000,0.000000,0.000000,0.000000,0.000000,0.000000,0.000000,-0.000206,0.000000,0.000000,0.000000,0.000000,0.000000,0.000000,819,819,819,819
8460,0,-0.062500,-0.000000,-0.062500,0.06,-0.53,0.983036,-1.000000,0.000000,0.000000,0.000000,0.000000,0.000000,0.000000,0.000200,0.000000,0.000000,0.000000,0.000000,0.000000,0.000000,819,819,819,819
8471,0,-0.062500,-0.000000,-0.062500,0.00,-0.24,0.702277,-1.000000,0.000000,0.000000,0.000000,0.000000,0.000000,0.000000,-0.000000,0.000000,0.000000,0.000000,0.000000,0.000000,0.000000,819,819,819,819
8481,0,-0.062500,-0.000000,-0.062500,0.06,0.24,0.450739,-1.000000,0.000000,0.000000,0.000000,0.000000,0.000000,0.000000,0.000209,0.000000,0.000000,0.000000,0.000000,0.000000,0.000000,819,819,819,819
8491,0,-0.062500,-0.000000,-0.062500,0.00,0.47,0.022537,-1.000000,0.000000,0.000000,0.000000,0.000000,0.000000,0.000000,-0.000000,0.000000,0.000000,0.000000,0.000000,0.000000,0.000000,819,819,819,819
8501,0,-0.062500,-0.000000,-0.062500,0.06,0.53,-0.651998,-1.000000,0.000000,0.000000,0.000000,0.000000,0.000000,0.000000,0.000207,0.000000,0.000000,0.000000,0.000000,0.000000,0.000000,819,819,819,819
8511,0,-0.062500,-0.000000,-0.062500,0.00,0.12,-0.863850,-1.000000,0.000000,0.000000,0.000000,0.000000,0.000000,0.000000,-0.000000,0.000000,0.000000,0.000000,0.000000,0.000000,0.000000,819,819,819,819
8521,0,-0.062500,-0.000000,-0.062500,0.06,0.18,-0.755692,-1.000000,0.000000,0.000000,0.000000,0.000000,0.000000,0.000000,0.000208,0.000000,0.000000,0.000000,0.000000,0.000000,0.000000,819,819,819,819
8538,0,-0.062500,-0.000000,-0.062500,0.00,-0.06,-0.037785,-1.000000,0.000000,0.000000,0.000000,0.000000,0.000000,0.000000,-0.000000,0.000000,0.000000,0.000000,0.000000,0.000000,0.000000,819,819,819,819
8548,0,-0.062500,-0.000000,-0.062500,0.00,-0.12,0.294986,-1.000000,0.000000,0.000000,0.000000,0.000000,0.000000,0.000000,-0.000000,0.000000,0.000000,0.000000,0.000000,0.000000,0.000000,819,819,819,819
8559,0,-0.062500,-0.000000,-0.062500,0.06,-0.24,0.430374,-1.000000,0.000000,0.000000,0.000000,0.000000,0.000000,0.000000,0.000206,0.000000,0.000000,0.000000,0.000000,0.000000,0.000000,819,819,819,819
8569,0,-0.062500,-0.000000,-0.062500,0.06,-0.18,0.199644,-1.000000,0.000000,0.000000,0.000000,0.000000,0.000000,0.000000,0.000207,0.000000,0.000000,0.000000,0.000000,0.000000,0.000000,819,819,819,819
8579,0,-0.062500,-0.000000,-0.062500,-0.12,0.00,0.247482,-1.000000,0.000000,0.000000,0.000000,0.000000,0.000000,0.000000,-0.000414,0.000000,0.000000,0.000000,0.000000,0.000000,0.000000,819,819,819,819
8589,0,-0.062500,-0.000000,-0.062500,-0.12,0.06,0.071749,-1.000000,0.000000,0.000000,0.000000,0.000000,0.000000,0.000000,-0.000411,0.000000,0.000000,0.000000,0.000000,0.000000,0.000000,819,819,819,819
8599,0,-0.062500,-0.000000,-0.062500,0.06,0.18,-0.115163,-1.000000,0.000000,0.000000,0.000000,0.000000,0.000000,0.000000,0.000210,0.000000,0.000000,0.000000,0.000000,0.000000,0.000000,819,819,819,819
8609,0,-0.062500,-0.000000,-0.062500,0.00,0.36,0.053617,-1.000000,0.000000,0.000000,0.000000,0.000000,0.000000,0.000000,-0.000000,0.000000,0.000000,0.000000,0.000000,0.000000,0.000000,819,819,819,819
8619,0,-0.062500,-0.000000,-0.062500,0.00,0.36,0.358931,-1.000000,0.000000,0.000000,0.000000,0.000000,0.000000,0.000000,-0.000000,0.000000,0.000000,0.000000,0.000000,0.000000,0.000000,819,819,819,819
8629,0,-0.062500,-0.000000,-0.062500,0.00,0.00,0.552322,-1.000000,0.000000,0.000000,0.000000,0.000000,0.000000,0.000000,-0.000000,0.000000,0.000000,0.000000,0.000000,0.000000,0.000000,819,819,819,819
8639,0,-0.062500,-0.000000,-0.062500,0.06,-0.12,0.561991,-1.000000,0.000000,0.000000,0.000000,0.000000,0.000000,0.000000,0.000206,0.000000,0.000000,0.000000,0.000000,0.000000,0.000000,819,819,819,819
8649,0,-0.062500,-0.000000,-0.062500,0.06,-0.06,0.503100,-1.000000,0.000000,0.000000,0.000000,0.000000,0.000000,0.000000,0.000207,0.000000,0.000000,0.000000,0.000000,0.000000,0.000000,819,819,819,819
8659,0,-0.062500,-0.000000,-0.062500,0.06,0.00,0.262655,-1.000000,0.000000,0.000000,0.000000,0.000000,0.000000,0.000000,0.000207,0.000000,0.000000,0.000000,0.000000,0.000000,0.000000,819,819,819,819
8669,0,-0.062500,-0.000000,-0.062500,-0.06,0.12,0.072508,-1.000000,0.000000,0.000000,0.000000,0.000000,0.000000,0.000000,-0.000206,0.000000,0.000000,0.000000,0.000000,0.000000,0.000000,819,819,819,819
8679,0,-0.062500,-0.000000,-0.062500,0.06,0.06,-0.115125,-1.000000,0.000000,0.000000,0.000000,0.000000,0.000000,0.000000,0.000207,0.000000,0.000000,0.000000,0.000000,0.000000,0.000000,819,819,819,819
8689,0,-0.062500,-0.000000,-0.062500,-0.24,0.12,0.053619,-1.000000,0.000000,0.000000,0.000000,0.000000,0.000000,0.000000,-0.000836,0.000000,0.000000,0.000000,0.000000,0.000000,0.000000,819,819,819,819
8699,0,-0.062500,-0.000000,-0.062500,-0.06,0.00,0.002681,-1.000000,0.000000,0.000000,0.000000,0.000000,0.000000,0.000000,-0.000205,0.000000,0.000000,0.000000,0.000000,0.000000,0.000000,819,819,819,819
8709,0,-0.062500,-0.000000,-0.062500,-0.18,-0.12,0.000134,-1.000000,0.000000,0.000000,0.000000,0.000000,0.000000,0.000000,-0.000619,0.000000,0.000000,0.000000,0.000000,0.000000,0.000000,819,819,819,819
8719,0,-0.062500,-0.000000,-0.062500,0.00,-0.06,0.118757,-1.000000,0.000000,0.000000,0.000000,0.000000,0.000000,0.000000,-0.000000,0.000000,0.000000,0.000000,0.000000,0.000000,0.000000,819,819,819,819
8729,0,-0.062500,-0.000000,-0.062500,0.06,-0.18,0.184063,-1.000000,0.000000,0.000000,0.000000,0.000000,0.000000,0.000000,0.000210,0.000000,0.000000,0.000000,0.000000,0.000000,0.000000,819,819,819,819
8739,0,-0.062500,-0.000000,-0.062500,0.06,-0.30,0.068578,-1.000000,0.000000,0.000000,0.000000,0.000000,0.000000,0.000000,0.000206,0.000000,0.000000,0.000000,0.000000,0.000000,0.000000,819,819,819,819
8749,0,-0.062500,-0.000000,-0.062500,0.00,-0.06,-0.234071,-1.000000,0.000000,0.000000,0.000000,0.000000,0.000000,0.000000,-0.000000,0.000000,0.000000,0.000000,0.000000,0.000000,0.000000,819,819,819,819
8760,0,-0.062500,-0.000000,-0.062500,-0.06,-0.12,-0.486704,-1.000000,0.000000,0.000000,0.000000,0.000000,0.000000,0.000000,-0.000207,0.000000,0.000000,0.000000,0.000000,0.000000,0.000000,819,819,819,819
8770,0,-0.062500,-0.000000,-0.062500,-0.06,0.06,-0.380585,-1.000000,0.000000,0.000000,0.000000,0.000000,0.000000,0.000000,-0.000208,0.000000,0.000000,0.000000,0.000000,0.000000,0.000000,819,819,819,819
8780,0,-0.062500,-0.000000,-0.062500,0.00,-0.06,-0.137779,-1.000000,0.000000,0.000000,0.000000,0.000000,0.000000,0.000000,-0.000000,0.000000,0.000000,0.000000,0.000000,0.000000,0.000000,819,819,819,819
8790,0,-0.062500,-0.000000,-0.062500,-0.12,-0.18,0.171236,-1.000000,0.000000,0.000000,0.000000,0.000000,0.000000,0.000000,-0.000417,0.000000,0.000000,0.000000,0.000000,0.000000,0.000000,819,819,819,819
8800,0,-0.062500,-0.000000,-0.062500,-0.06,-0.12,0.424187,-1.000000,0.000000,0.000000,0.000000,0.000000,0.000000,0.000000,-0.000210,0.000000,0.000000,0.000000,0.000000,0.000000,0.000000,819,819,819,819
8814,0,-0.062500,-0.000000,-0.062500,-0.06,-0.06,0.614959,-1.000000,0.000000,0.000000,0.000000,0.000000,0.000000,0.000000,-0.000163,0.000000,0.000000,0.000000,0.000000,0.000000,0.000000,819,819,819,819
8826,0,-0.062500,-0.000000,-0.062500,-0.06,-0.06,0.624498,-1.000000,0.000000,0.000000,0.000000,0.000000,0.000000,0.000000,-0.000183,0.000000,0.000000,0.000000,0.000000,0.000000,0.000000,819,819,819,819
8838,0,-0.062500,-0.000000,-0.062500,0.00,0.30,0.446850,-1.000000,0.000000,0.000000,0.000000,0.000000,0.000000,0.000000,-0.000000,0.000000,0.000000,0.000000,0.000000,0.000000,0.000000,819,819,819,819
8856,0,-0.062500,-0.000000,-0.062500,-0.12,0.06,-0.037032,-1.000000,0.000000,0.000000,0.000000,0.000000,0.000000,0.000000,-0.000288,0.000000,0.000000,0.000000,0.000000,0.000000,0.000000,819,819,819,819
8868,0,-0.062500,-0.000000,-0.062500,0.00,0.06,-0.239352,-1.000000,0.000000,0.000000,0.000000,0.000000,0.000000,0.000000,-0.000000,0.000000,0.000000,0.000000,0.000000,0.000000,0.000000,819,819,819,819
8879,0,-0.062500,-0.000000,-0.062500,0.12,0.00,-0.011968,-1.000000,0.000000,0.000000,0.000000,0.000000,0.000000,0.000000,0.000389,0.000000,0.000000,0.000000,0.000000,0.000000,0.000000,819,819,819,819
8889,0,-0.062500,-0.000000,-0.062500,0.12,-0.24,0.236902,-1.000000,0.000000,0.000000,0.000000,0.000000,0.000000,0.000000,0.000402,0.000000,0.000000,0.000000,0.000000,0.000000,0.000000,819,819,819,819
8899,0,-0.062500,-0.000000,-0.062500,0.00,-0.06,0.427470,-1.000000,0.000000,0.000000,0.000000,0.000000,0.000000,0.000000,-0.000000,0.000000,0.000000,0.000000,0.000000,0.000000,0.000000,819,819,819,819
8909,0,-0.062500,-0.000000,-0.062500,-0.06,0.12,0.555749,-1.000000,0.000000,0.000000,0.000000,0.000000,0.000000,0.000000,-0.000207,0.000000,0.000000,0.000000,0.000000,0.000000,0.000000,819,819,819,819
8920,0,-0.062500,-0.000000,-0.062500,0.00,-0.06,0.384037,-1.000000,0.000000,0.000000,0.000000,0.000000,0.000000,0.000000,-0.000000,0.000000,0.000000,0.000000,0.000000,0.000000,0.000000,819,819,819,819
8930,0,-0.062500,-0.000000,-0.062500,0.06,0.18,-0.040173,-1.000000,0.000000,0.000000,0.000000,0.000000,0.000000,0.000000,0.000208,0.000000,0.000000,0.000000,0.000000,0.000000,0.000000,819,819,819,819
8940,0,-0.062500,-0.000000,-0.062500,-0.12,0.06,-0.120759,-1.000000,0.000000,0.000000,0.000000,0.000000,0.000000,0.000000,-0.000412,0.000000,0.000000,0.000000,0.000000,0.000000,0.000000,819,819,819,819
8950,0,-0.062500,-0.000000,-0.062500,0.00,0.12,-0.362288,-1.000000,0.000000,0.000000,0.000000,0.000000,0.000000,0.000000,-0.000000,0.000000,0.000000,0.000000,0.000000,0.000000,0.000000,819,819,819,819
8960,0,-0.062500,-0.000000,-0.062500,-0.12,-0.12,-0.374364,-1.000000,0.000000,0.000000,0.000000,0.000000,0.000000,0.000000,-0.000417,0.000000,0.000000,0.000000,0.000000,0.000000,0.000000,819,819,819,819
8970,0,-0.062500,-0.000000,-0.062500,-0.12,-0.24,-0.315593,-1.000000,0.000000,0.000000,0.000000,0.000000,0.000000,0.000000,-0.000419,0.000000,0.000000,0.000000,0.000000,0.000000,0.000000,819,819,819,819
8980,0,-0.062500,-0.000000,-0.062500,-0.06,-0.24,-0.075155,-1.000000,0.000000,0.000000,0.000000,0.000000,0.000000,0.000000,-0.000209,0.000000,0.000000,0.000000,0.000000,0.000000,0.000000,819,819,819,819
8990,0,-0.062500,-0.000000,-0.062500,-0.06,-0.12,-0.003758,-1.000000,0.000000,0.000000,0.000000,0.000000,0.000000,0.000000,-0.000205,0.000000,0.000000,0.000000,0.000000,0.000000,0.000000,819,819,819,819
9000,0,-0.062500,-0.000000,-0.062500,-0.06,0.18,0.296687,-1.000000,0.000000,0.000000,0.000000,0.000000,0.000000,0.000000,-0.000208,0.000000,0.000000,0.000000,0.000000,0.000000,0.000000,819,819,819,819
9010,0,-0.062500,-0.000000,-0.062500,-0.06,0.12,0.311709,-1.000000,0.000000,0.000000,0.000000,0.000000,0.000000,0.000000,-0.000209,0.000000,0.000000,0.000000,0.000000,0.000000,0.000000,819,819,819,819
9020,0,-0.062500,-0.000000,-0.062500,0.00,0.06,0.490585,-1.000000,0.000000,0.000000,0.000000,0.000000,0.000000,0.000000,-0.000000,0.000000,0.000000,0.000000,0.000000,0.000000,0.000000,819,819,819,819
9030,0,-0.062500,-0.000000,-0.062500,-0.06,0.12,0.380779,-1.000000,0.000000,0.000000,0.000000,0.000000,0.000000,0.000000,-0.000206,0.000000,0.000000,0.000000,0.000000,0.000000,0.000000,819,819,819,819
9040,0,-0.062500,-0.000000,-0.062500,-0.12,0.12,0.137789,-1.000000,0.000000,0.000000,0.000000,0.000000,0.000000,0.000000,-0.000407,0.000000,0.000000,0.000000,0.000000,0.000000,0.000000,819,819,819,819
9050,0,-0.062500,-0.000000,-0.062500,0.00,0.06,-0.111861,-1.000000,0.000000,0.000000,0.000000,0.000000,0.000000,0.000000,-0.000000,0.000000,0.000000,0.000000,0.000000,0.000000,0.000000,819,819,819,819
9060,0,-0.062500,-0.000000,-0.062500,0.00,0.00,-0.361843,-1.000000,0.000000,0.000000,0.000000,0.000000,0.000000,0.000000,-0.000000,0.000000,0.000000,0.000000,0.000000,0.000000,0.000000,819,819,819,819
9070,0,-0.062500,-0.000000,-0.062500,-0.12,-0.06,-0.493092,-1.000000,0.000000,0.000000,0.000000,0.000000,0.000000,0.000000,-0.000415,0.000000,0.000000,0.000000,0.000000,0.000000,0.000000,819,819,819,819
9080,0,-0.062500,-0.000000,-0.062500,-0.12,0.00,-0.499655,-1.000000,0.000000,0.000000,0.000000,0.000000,0.000000,0.000000,-0.000415,0.000000,0.000000,0.000000,0.000000,0.000000,0.000000,819,819,819,819
9090,0,-0.062500,-0.000000,-0.062500,-0.06,-0.24,-0.440608,-1.000000,0.000000,0.000000,0.000000,0.000000,0.000000,0.000000,-0.000204,0.000000,0.000000,0.000000,0.000000,0.000000,0.000000,819,819,819,819
9100,0,-0.062500,-0.000000,-0.062500,0.12,-0.06,-0.318905,-1.000000,0.000000,0.000000,0.000000,0.000000,0.000000,0.000000,0.000411,0.000000,0.000000,0.000000,0.000000,0.000000,0.000000,819,819,819,819
9110,0,-0.062500,-0.000000,-0.062500,0.06,0.12,-0.134695,-1.000000,0.000000,0.000000,0.000000,0.000000,0.000000,0.000000,0.000208,0.000000,0.000000,0.000000,0.000000,0.000000,0.000000,819,819,819,819
9120,0,-0.062500,-0.000000,-0.062500,0.12,0.30,-0.006735,-1.000000,0.000000,0.000000,0.000000,0.000000,0.000000,0.000000,0.000416,0.000000,0.000000,0.000000,0.000000,0.000000,0.000000,819,819,819,819
9130,0,-0.062500,-0.000000,-0.062500,0.06,0.24,-0.000337,-1.000000,0.000000,0.000000,0.000000,0.000000,0.000000,0.000000,0.000210,0.000000,0.000000,0.000000,0.000000,0.000000,0.000000,819,819,819,819
9140,0,-0.062500,-0.000000,-0.062500,-0.12,0.00,-0.000017,-1.000000,0.000000,0.000000,0.000000,0.000000,0.000000,0.000000,-0.000412,0.000000,0.000000,0.000000,0.000000,0.000000,0.000000,819,819,819,819
9150,0,-0.062500,-0.000000,-0.062500,-0.18,-0.12,-0.059376,-1.000000,0.000000,0.000000,0.000000,0.000000,0.000000,0.000000,-0.000621,0.000000,0.000000,0.000000,0.000000,0.000000,0.000000,819,819,819,819
9160,0,-0.062500,-0.000000,-0.062500,-0.12,-0.42,-0.181094,-1.000000,0.000000,0.000000,0.000000,0.000000,0.000000,0.000000,-0.000418,0.000000,0.000000,0.000000,0.000000,0.000000,0.000000,819,819,819,819
9178,0,-0.062500,-0.000000,-0.062500,-0.06,-0.30,-0.246555,-1.000000,0.000000,0.000000,0.000000,0.000000,0.000000,0.000000,-0.000143,0.000000,0.000000,0.000000,0.000000,0.000000,0.000000,819,819,819,819
9190,0,-0.062500,-0.000000,-0.062500,-0.06,0.24,-0.012328,-1.000000,0.000000,0.000000,0.000000,0.000000,0.000000,0.000000,-0.000187,0.000000,0.000000,0.000000,0.000000,0.000000,0.000000,819,819,819,819
9200,0,-0.062500,-0.000000,-0.062500,-0.06,0.06,0.236884,-1.000000,0.000000,0.000000,0.000000,0.000000,0.000000,0.000000,-0.000201,0.000000,0.000000,0.000000,0.000000,0.000000,0.000000,819,819,819,819
9210,0,-0.062500,-0.000000,-0.062500,0.00,0.00,0.071219,-1.000000,0.000000,0.000000,0.000000,0.000000,0.000000,0.000000,-0.000000,0.000000,0.000000,0.000000,0.000000,0.000000,0.000000,819,819,819,819
9220,0,-0.062500,-0.000000,-0.062500,-0.12,-0.53,-0.055814,-1.000000,0.000000,0.000000,0.000000,0.000000,0.000000,0.000000,-0.000416,0.000000,0.000000,0.000000,0.000000,0.000000,0.000000,819,819,819,819
9230,0,-0.062500,-0.000000,-0.062500,0.00,-1.01,-0.477791,-1.000000,0.000000,0.000000,0.000000,0.000000,0.000000,0.000000,-0.000000,0.000000,0.000000,0.000000,0.000000,0.000000,0.000000,819,819,819,819
9240,0,-0.062500,-0.000000,-0.062500,0.06,-0.65,-0.498890,-1.000000,0.000000,0.000000,0.000000,0.000000,0.000000,0.000000,0.000205,0.000000,0.000000,0.000000,0.000000,0.000000,0.000000,819,819,819,819
9251,0,-0.062500,-0.000000,-0.062500,-0.06,-0.06,-0.559319,-1.000000,0.000000,0.000000,0.000000,0.000000,0.000000,0.000000,-0.000205,0.000000,0.000000,0.000000,0.000000,0.000000,0.000000,819,819,819,819
9260,0,-0.062500,-0.000000,-0.062500,0.06,0.53,0.031409,-1.000000,0.000000,0.000000,0.000000,0.000000,0.000000,0.000000,0.000212,0.000000,0.000000,0.000000,0.000000,0.000000,0.000000,819,819,819,819
9270,0,-0.062500,-0.000000,-0.062500,0.00,0.65,0.476570,-1.000000,0.000000,0.000000,0.000000,0.000000,0.000000,0.000000,-0.000000,0.000000,0.000000,0.000000,0.000000,0.000000,0.000000,819,819,819,819
9280,0,-0.062500,-0.000000,-0.062500,0.00,0.65,0.676953,-1.000000,0.000000,0.000000,0.000000,0.000000,0.000000,0.000000,-0.000000,0.000000,0.000000,0.000000,0.000000,0.000000,0.000000,819,819,819,819
9291,0,-0.062500,-0.000000,-0.062500,-0.18,-0.12,0.805723,-1.000000,0.000000,0.000000,0.000000,0.000000,0.000000,0.000000,-0.000614,0.000000,0.000000,0.000000,0.000000,0.000000,0.000000,819,819,819,819
9300,0,-0.062500,-0.000000,-0.062500,0.06,-0.71,0.634036,-1.000000,0.000000,0.000000,0.000000,0.000000,0.000000,0.000000,0.000209,0.000000,0.000000,0.000000,0.000000,0.000000,0.000000,819,819,819,819
9311,0,-0.062500,-0.000000,-0.062500,0.12,-0.53,0.091077,-1.000000,0.000000,0.000000,0.000000,0.000000,0.000000,0.000000,0.000411,0.000000,0.000000,0.000000,0.000000,0.000000,0.000000,819,819,819,819
9321,0,-0.062500,-0.000000,-0.062500,0.06,0.18,-0.232946,-1.000000,0.000000,0.000000,0.000000,0.000000,0.000000,0.000000,0.000207,0.000000,0.000000,0.000000,0.000000,0.000000,0.000000,819,819,819,819
9331,0,-0.062500,-0.000000,-0.062500,0.06,0.30,-0.605397,-1.000000,0.000000,0.000000,0.000000,0.000000,0.000000,0.000000,0.000208,0.000000,0.000000,0.000000,0.000000,0.000000,0.000000,819,819,819,819
9341,0,-0.062500,-0.000000,-0.062500,0.00,0.06,-0.505270,-1.000000,0.000000,0.000000,0.000000,0.000000,0.000000,0.000000,-0.000000,0.000000,0.000000,0.000000,0.000000,0.000000,0.000000,819,819,819,819
9351,0,-0.062500,-0.000000,-0.062500,0.00,-0.30,-0.203388,-1.000000,0.000000,0.000000,0.000000,0.000000,0.000000,0.000000,-0.000000,0.000000,0.000000,0.000000,0.000000,0.000000,0.000000,819,819,819,819
9360,0,-0.062500,-0.000000,-0.062500,0.12,-0.42,0.049206,-1.000000,0.000000,0.000000,0.000000,0.000000,0.000000,0.000000,0.000418,0.000000,0.000000,0.000000,0.000000,0.000000,0.000000,819,819,819,819
9371,0,-0.062500,-0.000000,-0.062500,-0.12,-0.24,0.358710,-1.000000,0.000000,0.000000,0.000000,0.000000,0.000000,0.000000,-0.000415,0.000000,0.000000,0.000000,0.000000,0.000000,0.000000,819,819,819,819
9381,0,-0.062500,-0.000000,-0.062500,0.00,0.30,0.492936,-1.000000,0.000000,0.000000,0.000000,0.000000,0.000000,0.000000,-0.000000,0.000000,0.000000,0.000000,0.000000,0.000000,0.000000,819,819,819,819
9391,0,-0.062500,-0.000000,-0.062500,-0.06,0.53,0.321522,-1.000000,0.000000,0.000000,0.000000,0.000000,0.000000,0.000000,-0.000205,0.000000,0.000000,0.000000,0.000000,0.000000,0.000000,819,819,819,819
9401,0,-0.062500,-0.000000,-0.062500,0.06,0.36,0.075451,-1.000000,0.000000,0.000000,0.000000,0.000000,0.000000,0.000000,0.000208,0.000000,0.000000,0.000000,0.000000,0.000000,0.000000,819,819,819,819
9411,0,-0.062500,-0.000000,-0.062500,0.12,0.12,-0.411852,-1.000000,0.000000,0.000000,0.000000,0.000000,0.000000,0.000000,0.000413,0.000000,0.000000,0.000000,0.000000,0.000000,0.000000,819,819,819,819
9421,0,-0.062500,-0.000000,-0.062500,0.00,-0.12,-0.554968,-1.000000,0.000000,0.000000,0.000000,0.000000,0.000000,0.000000,-0.000000,0.000000,0.000000,0.000000,0.000000,0.000000,0.000000,819,819,819,819
9431,0,-0.062500,-0.000000,-0.062500,0.00,0.00,-0.621498,-1.000000,0.000000,0.000000,0.000000,0.000000,0.000000,0.000000,-0.000000,0.000000,0.000000,0.000000,0.000000,0.000000,0.000000,819,819,819,819
9441,0,-0.062500,-0.000000,-0.062500,0.00,0.30,-0.565450,-1.000000,0.000000,0.000000,0.000000,0.000000,0.000000,0.000000,-0.000000,0.000000,0.000000,0.000000,0.000000,0.000000,0.000000,819,819,819,819
9451,0,-0.062500,-0.000000,-0.062500,-0.12,0.00,-0.087648,-1.000000,0.000000,0.000000,0.000000,0.000000,0.000000,0.000000,-0.000413,0.000000,0.000000,0.000000,0.000000,0.000000,0.000000,819,819,819,819
9461,0,-0.062500,-0.000000,-0.062500,-0.06,-0.59,0.233118,-1.000000,0.000000,0.000000,0.000000,0.000000,0.000000,0.000000,-0.000210,0.000000,0.000000,0.000000,0.000000,0.000000,0.000000,819,819,819,819
9471,0,-0.062500,-0.000000,-0.062500,-0.06,-0.77,0.605406,-1.000000,0.000000,0.000000,0.000000,0.000000,0.000000,0.000000,-0.000209,0.000000,0.000000,0.000000,0.000000,0.000000,0.000000,819,819,819,819
9481,0,-0.062500,-0.000000,-0.062500,0.00,-0.18,0.802145,-1.000000,0.000000,0.000000,0.000000,0.000000,0.000000,0.000000,-0.000000,0.000000,0.000000,0.000000,0.000000,0.000000,0.000000,819,819,819,819
9496,0,-0.062500,-0.000000,-0.062500,-0.12,0.77,0.693232,-1.000000,0.000000,0.000000,0.000000,0.000000,0.000000,0.000000,-0.000309,0.000000,0.000000,0.000000,0.000000,0.000000,0.000000,819,819,819,819
9508,0,-0.062500,-0.000000,-0.062500,0.06,0.89,0.212787,-1.000000,0.000000,0.000000,0.000000,0.000000,0.000000,0.000000,0.000181,0.000000,0.000000,0.000000,0.000000,0.000000,0.000000,819,819,819,819
9520,0,-0.062500,-0.000000,-0.062500,-0.06,-0.30,-0.464361,-1.000000,0.000000,0.000000,0.000000,0.000000,0.000000,0.000000,-0.000188,0.000000,0.000000,0.000000,0.000000,0.000000,0.000000,819,819,819,819
9531,0,-0.062500,-0.000000,-0.062500,0.06,-0.47,-0.973218,-1.000000,0.000000,0.000000,0.000000,0.000000,0.000000,0.000000,0.000199,0.000000,0.000000,0.000000,0.000000,0.000000,0.000000,819,819,819,819
9541,0,-0.062500,-0.000000,-0.062500,0.06,-0.42,-1.058036,-1.000000,0.000000,0.000000,0.000000,0.000000,0.000000,0.000000,0.000203,0.000000,0.000000,0.000000,0.000000,0.000000,0.000000,819,819,819,819
9551,0,-0.062500,-0.000000,-0.062500,-0.06,-0.42,-0.706027,-1.000000,0.000000,0.000000,0.000000,0.000000,0.000000,0.000000,-0.000206,0.000000,0.000000,0.000000,0.000000,0.000000,0.000000,819,819,819,819
9561,0,-0.062500,-0.000000,-0.062500,0.00,-0.30,0.024074,-1.000000,0.000000,0.000000,0.000000,0.000000,0.000000,0.000000,-0.000000,0.000000,0.000000,0.000000,0.000000,0.000000,0.000000,819,819,819,819
9571,0,-0.062500,-0.000000,-0.062500,0.00,-0.18,0.535579,-1.000000,0.000000,0.000000,0.000000,0.000000,0.000000,0.000000,-0.000000,0.000000,0.000000,0.000000,0.000000,0.000000,0.000000,819,819,819,819
9581,0,-0.062500,-0.000000,-0.062500,0.12,0.18,1.036154,-1.000000,0.000000,0.000000,0.000000,0.000000,0.000000,0.000000,0.000418,0.000000,0.000000,0.000000,0.000000,0.000000,0.000000,819,819,819,819
9591,0,-0.062500,-0.000000,-0.062500,0.06,0.36,1.179933,-1.000000,0.000000,0.000000,0.000000,0.000000,0.000000,0.000000,0.000205,0.000000,0.000000,0.000000,0.000000,0.000000,0.000000,819,819,819,819
9601,0,-0.062500,-0.000000,-0.062500,0.00,0.53,0.890247,-1.000000,0.000000,0.000000,0.000000,0.000000,0.000000,0.000000,-0.000000,0.000000,0.000000,0.000000,0.000000,0.000000,0.000000,819,819,819,819
9611,0,-0.062500,-0.000000,-0.062500,0.06,0.53,0.519512,-1.000000,0.000000,0.000000,0.000000,0.000000,0.000000,0.000000,0.000210,0.000000,0.000000,0.000000,0.000000,0.000000,0.000000,819,819,819,819
9621,0,-0.062500,-0.000000,-0.062500,-0.06,0.24,-0.092774,-1.000000,0.000000,0.000000,0.000000,0.000000,0.000000,0.000000,-0.000208,0.000000,0.000000,0.000000,0.000000,0.000000,0.000000,819,819,819,819
9631,0,-0.062500,-0.000000,-0.062500,-0.18,0.36,-0.420264,-1.000000,0.000000,0.000000,0.000000,0.000000,0.000000,0.000000,-0.000620,0.000000,0.000000,0.000000,0.000000,0.000000,0.000000,819,819,819,819
9641,0,-0.062500,-0.000000,-0.062500,-0.12,0.06,-0.436638,-1.000000,0.000000,0.000000,0.000000,0.000000,0.000000,0.000000,-0.000412,0.000000,0.000000,0.000000,0.000000,0.000000,0.000000,819,819,819,819
9651,0,-0.062500,-0.000000,-0.062500,0.00,0.18,-0.259332,-1.000000,0.000000,0.000000,0.000000,0.000000,0.000000,0.000000,-0.000000,0.000000,0.000000,0.000000,0.000000,0.000000,0.000000,819,819,819,819
9665,0,-0.062500,-0.000000,-0.062500,-0.06,0.12,0.105783,-1.000000,0.000000,0.000000,0.000000,0.000000,0.000000,0.000000,-0.000171,0.000000,0.000000,0.000000,0.000000,0.000000,0.000000,819,819,819,819
9675,0,-0.062500,-0.000000,-0.062500,0.06,0.24,0.480289,-1.000000,0.000000,0.000000,0.000000,0.000000,0.000000,0.000000,0.000199,0.000000,0.000000,0.000000,0.000000,0.000000,0.000000,819,819,819,819
9686,0,-0.062500,-0.000000,-0.062500,-0.12,0.36,0.558389,-1.000000,0.000000,0.000000,0.000000,0.000000,0.000000,0.000000,-0.000381,0.000000,0.000000,0.000000,0.000000,0.000000,0.000000,819,819,819,819
9696,0,-0.062500,-0.000000,-0.062500,0.00,-0.06,0.324794,-1.000000,0.000000,0.000000,0.000000,0.000000,0.000000,0.000000,-0.000000,0.000000,0.000000,0.000000,0.000000,0.000000,0.000000,819,819,819,819
9708,0,-0.062500,-0.000000,-0.062500,-0.12,-0.18,-0.102510,-1.000000,0.000000,0.000000,0.000000,0.000000,0.000000,0.000000,-0.000363,0.000000,0.000000,0.000000,0.000000,0.000000,0.000000,819,819,819,819
9720,0,-0.062500,-0.000000,-0.062500,0.00,-0.24,-0.480126,-1.000000,0.000000,0.000000,0.000000,0.000000,0.000000,0.000000,-0.000000,0.000000,0.000000,0.000000,0.000000,0.000000,0.000000,819,819,819,819
9731,0,-0.062500,-0.000000,-0.062500,-0.12,0.06,-0.795881,-1.000000,0.000000,0.000000,0.000000,0.000000,0.000000,0.000000,-0.000395,0.000000,0.000000,0.000000,0.000000,0.000000,0.000000,819,819,819,819
9741,0,-0.062500,-0.000000,-0.062500,-0.06,0.06,-0.514794,-1.000000,0.000000,0.000000,0.000000,0.000000,0.000000,0.000000,-0.000200,0.000000,0.000000,0.000000,0.000000,0.000000,0.000000,819,819,819,819
9751,0,-0.062500,-0.000000,-0.062500,-0.06,0.06,-0.085115,-1.000000,0.000000,0.000000,0.000000,0.000000,0.000000,0.000000,-0.000208,0.000000,0.000000,0.000000,0.000000,0.000000,0.000000,819,819,819,819
9761,0,-0.062500,-0.000000,-0.062500,0.00,0.18,0.351994,-1.000000,0.000000,0.000000,0.000000,0.000000,0.000000,0.000000,-0.000000,0.000000,0.000000,0.000000,0.000000,0.000000,0.000000,819,819,819,819
9771,0,-0.062500,-0.000000,-0.062500,0.06,0.24,0.551975,-1.000000,0.000000,0.000000,0.000000,0.000000,0.000000,0.000000,0.000207,0.000000,0.000000,0.000000,0.000000,0.000000,0.000000,819,819,819,819
9782,0,-0.062500,-0.000000,-0.062500,0.12,0.06,0.799474,-1.000000,0.000000,0.000000,0.000000,0.000000,0.000000,0.000000,0.000413,0.000000,0.000000,0.000000,0.000000,0.000000,0.000000,819,819,819,819
9792,0,-0.062500,-0.000000,-0.062500,0.00,-0.06,0.514974,-1.000000,0.000000,0.000000,0.000000,0.000000,0.000000,0.000000,-0.000000,0.000000,0.000000,0.000000,0.000000,0.000000,0.000000,819,819,819,819
9802,0,-0.062500,-0.000000,-0.062500,0.00,0.12,0.263249,-1.000000,0.000000,0.000000,0.000000,0.000000,0.000000,0.000000,-0.000000,0.000000,0.000000,0.000000,0.000000,0.000000,0.000000,819,819,819,819
9819,0,-0.062500,-0.000000,-0.062500,0.00,-0.06,0.013162,-1.000000,0.000000,0.000000,0.000000,0.000000,0.000000,0.000000,-0.000000,0.000000,0.000000,0.000000,0.000000,0.000000,0.000000,819,819,819,819
9832,0,-0.062500,-0.000000,-0.062500,0.06,-0.06,-0.771217,-1.000000,0.000000,0.000000,0.000000,0.000000,0.000000,0.000000,0.000180,0.000000,0.000000,0.000000,0.000000,0.000000,0.000000,819,819,819,819
9842,0,-0.062500,-0.000000,-0.062500,-0.06,0.00,-0.810436,-1.000000,0.000000,0.000000,0.000000,0.000000,0.000000,0.000000,-0.000206,0.000000,0.000000,0.000000,0.000000,0.000000,0.000000,819,819,819,819
9852,0,-0.062500,-0.000000,-0.062500,0.00,-0.12,-0.574897,-1.000000,0.000000,0.000000,0.000000,0.000000,0.000000,0.000000,-0.000000,0.000000,0.000000,0.000000,0.000000,0.000000,0.000000,819,819,819,819
9862,0,-0.062500,-0.000000,-0.062500,0.00,-0.06,-0.325620,-1.000000,0.000000,0.000000,0.000000,0.000000,0.000000,0.000000,-0.000000,0.000000,0.000000,0.000000,0.000000,0.000000,0.000000,819,819,819,819
9872,0,-0.062500,-0.000000,-0.062500,-0.12,0.00,0.043094,-1.000000,0.000000,0.000000,0.000000,0.000000,0.000000,0.000000,-0.000419,0.000000,0.000000,0.000000,0.000000,0.000000,0.000000,819,819,819,819
9882,0,-0.062500,-0.000000,-0.062500,0.00,-0.12,0.477155,-1.000000,0.000000,0.000000,0.000000,0.000000,0.000000,0.000000,-0.000000,0.000000,0.000000,0.000000,0.000000,0.000000,0.000000,819,819,819,819
9892,0,-0.062500,-0.000000,-0.062500,-0.06,-0.42,0.676983,-1.000000,0.000000,0.000000,0.000000,0.000000,0.000000,0.000000,-0.000203,0.000000,0.000000,0.000000,0.000000,0.000000,0.000000,819,819,819,819
9902,0,-0.062500,-0.000000,-0.062500,-0.06,0.00,0.627599,-1.000000,0.000000,0.000000,0.000000,0.000000,0.000000,0.000000,-0.000210,0.000000,0.000000,0.000000,0.000000,0.000000,0.000000,819,819,819,819
9912,0,-0.062500,-0.000000,-0.062500,-0.06,0.24,0.387630,-1.000000,0.000000,0.000000,0.000000,0.000000,0.000000,0.000000,-0.000207,0.000000,0.000000,0.000000,0.000000,0.000000,0.000000,819,819,819,819
9922,0,-0.062500,-0.000000,-0.062500,0.06,0.42,0.078756,-1.000000,0.000000,0.000000,0.000000,0.000000,0.000000,0.000000,0.000207,0.000000,0.000000,0.000000,0.000000,0.000000,0.000000,819,819,819,819
9932,0,-0.062500,-0.000000,-0.062500,-0.06,-0.06,-0.233562,-1.000000,0.000000,0.000000,0.000000,0.000000,0.000000,0.000000,-0.000207,0.000000,0.000000,0.000000,0.000000,0.000000,0.000000,819,819,819,819
9942,0,-0.062500,-0.000000,-0.062500,0.00,0.06,-0.427303,-1.000000,0.000000,0.000000,0.000000,0.000000,0.000000,0.000000,-0.000000,0.000000,0.000000,0.000000,0.000000,0.000000,0.000000,819,819,819,819
9952,0,-0.062500,-0.000000,-0.062500,0.00,-0.12,-0.436990,-1.000000,0.000000,0.000000,0.000000,0.000000,0.000000,0.000000,-0.000000,0.000000,0.000000,0.000000,0.000000,0.000000,0.000000,819,819,819,819
9962,0,-0.062500,-0.000000,-0.062500,0.12,-0.06,-0.318725,-1.000000,0.000000,0.000000,0.000000,0.000000,0.000000,0.000000,0.000417,0.000000,0.000000,0.000000,0.000000,0.000000,0.000000,819,819,819,819
9972,0,-0.062500,-0.000000,-0.062500,-0.06,0.00,0.043439,-1.000000,0.000000,0.000000,0.000000,0.000000,0.000000,0.000000,-0.000209,0.000000,0.000000,0.000000,0.000000,0.000000,0.000000,819,819,819,819
9982,0,-0.062500,-0.000000,-0.062500,-0.06,-0.18,0.477172,-1.000000,0.000000,0.000000,0.000000,0.000000,0.000000,0.000000,-0.000209,0.000000,0.000000,0.000000,0.000000,0.000000,0.000000,819,819,819,819
9992,0,-0.062500,-0.000000,-0.062500,-0.06,0.36,0.736359,-1.000000,0.000000,0.000000,0.000000,0.000000,0.000000,0.000000,-0.000205,0.000000,0.000000,0.000000,0.000000,0.000000,0.000000,819,819,819,819
10002,0,-0.062500,-0.000000,-0.062500,-0.18,0.18,0.868068,-1.000000,0.000000,0.000000,0.000000,0.000000,0.000000,0.000000,-0.000626,0.000000,0.000000,0.000000,0.000000,0.000000,0.000000,819,819,819,819
10012,0,-0.125000,-0.000000,-0.062500,-0.25,0.12,0.755903,-1.000000,0.000000,0.000000,0.000000,0.000000,0.000000,0.000000,-0.000891,0.000000,0.000000,0.000000,0.000000,0.000000,0.000000,819,819,819,819
10022,0,-0.125000,-0.000000,-0.062500,-0.06,0.00,0.334670,-1.000000,0.000000,0.000000,0.000000,0.000000,0.000000,0.000000,-0.000207,0.000000,0.000000,0.000000,0.000000,0.000000,0.000000,819,819,819,819
10032,0,-0.125000,-0.000000,-0.062500,0.00,-0.24,0.016734,-1.000000,0.000000,0.000000,0.000000,0.000000,0.000000,0.000000,-0.000000,0.000000,0.000000,0.000000,0.000000,0.000000,0.000000,819,819,819,819
10042,0,-0.125000,-0.000000,-0.062500,-0.06,0.00,-0.533538,-1.000000,0.000000,0.000000,0.000000,0.000000,0.000000,0.000000,-0.000205,0.000000,0.000000,0.000000,0.000000,0.000000,0.000000,819,819,819,819
10052,0,-0.062500,-0.000000,-0.062500,0.31,0.12,-0.620427,-1.000000,0.000000,0.000000,0.000000,0.000000,0.000000,0.000000,0.001101,0.000000,0.000000,0.000000,0.000000,0.000000,0.000000,819,819,819,819
10062,0,-0.062500,-0.000000,-0.062500,0.06,0.00,-0.565396,-1.000000,0.000000,0.000000,0.000000,0.000000,0.000000,0.000000,0.000209,0.000000,0.000000,0.000000,0.000000,0.000000,0.000000,819,819,819,819
10072,0,-0.062500,-0.000000,-0.062500,0.00,0.12,-0.265770,-1.000000,0.000000,0.000000,0.000000,0.000000,0.000000,0.000000,-0.000000,0.000000,0.000000,0.000000,0.000000,0.000000,0.000000,819,819,819,819
10082,0,-0.062500,-0.000000,-0.062500,0.00,0.30,-0.013288,-1.000000,0.000000,0.000000,0.000000,0.000000,0.000000,0.000000,-0.000000,0.000000,0.000000,0.000000,0.000000,0.000000,0.000000,819,819,819,819
10092,0,-0.062500,-0.000000,-0.062500,-0.06,0.18,0.355586,-1.000000,0.000000,0.000000,0.000000,0.000000,0.000000,0.000000,-0.000205,0.000000,0.000000,0.000000,0.000000,0.000000,0.000000,819,819,819,819
10102,0,-0.062500,-0.000000,-0.062500,0.00,-0.06,0.552154,-1.000000,0.000000,0.000000,0.000000,0.000000,0.000000,0.000000,-0.000000,0.000000,0.000000,0.000000,0.000000,0.000000,0.000000,819,819,819,819
10112,0,-0.062500,-0.000000,-0.062500,-0.12,-0.18,0.443233,-1.000000,0.000000,0.000000,0.000000,0.000000,0.000000,0.000000,-0.000417,0.000000,0.000000,0.000000,0.000000,0.000000,0.000000,819,819,819,819
10122,0,-0.062500,-0.000000,-0.062500,-0.18,-0.24,0.081537,-1.000000,0.000000,0.000000,0.000000,0.000000,0.000000,0.000000,-0.000619,0.000000,0.000000,0.000000,0.000000,0.000000,0.000000,819,819,819,819
10140,0,-0.062500,-0.000000,-0.062500,0.00,-0.12,-0.292798,-1.000000,0.000000,0.000000,0.000000,0.000000,0.000000,0.000000,-0.000000,0.000000,0.000000,0.000000,0.000000,0.000000,0.000000,819,819,819,819
10152,0,-0.062500,-0.000000,-0.062500,0.06,0.18,-0.845890,-1.000000,0.000000,0.000000,0.000000,0.000000,0.000000,0.000000,0.000189,0.000000,0.000000,0.000000,0.000000,0.000000,0.000000,819,819,819,819
10162,0,-0.062500,-0.000000,-0.062500,-0.12,0.00,-0.873544,-1.000000,0.000000,0.000000,0.000000,0.000000,0.000000,0.000000,-0.000398,0.000000,0.000000,0.000000,0.000000,0.000000,0.000000,819,819,819,819
10172,0,-0.062500,-0.000000,-0.062500,0.00,-0.18,-0.578052,-1.000000,0.000000,0.000000,0.000000,0.000000,0.000000,0.000000,-0.000000,0.000000,0.000000,0.000000,0.000000,0.000000,0.000000,819,819,819,819
10182,0,-0.062500,-0.000000,-0.062500,0.00,-0.18,-0.028903,-1.000000,0.000000,0.000000,0.000000,0.000000,0.000000,0.000000,-0.000000,0.000000,0.000000,0.000000,0.000000,0.000000,0.000000,819,819,819,819
10193,0,-0.062500,-0.000000,-0.062500,0.00,-0.06,0.532930,-1.000000,0.000000,0.000000,0.000000,0.000000,0.000000,0.000000,-0.000000,0.000000,0.000000,0.000000,0.000000,0.000000,0.000000,819,819,819,819
10203,0,-0.062500,-0.000000,-0.062500,-0.12,-0.12,0.857896,-1.000000,0.000000,0.000000,0.000000,0.000000,0.000000,0.000000,-0.000417,0.000000,0.000000,0.000000,0.000000,0.000000,0.000000,819,819,819,819
10213,0,-0.062500,-0.000000,-0.062500,0.00,-0.30,0.874145,-1.000000,0.000000,0.000000,0.000000,0.000000,0.000000,0.000000,-0.000000,0.000000,0.000000,0.000000,0.000000,0.000000,0.000000,819,819,819,819
