t,is_crashed,roll,pitch,yaw,p,q,r,throttle,p_cmd,q_cmd,r_cmd,roll_cmd,pitch_cmd,yaw_cmd,roll_pid_out,pitch_pid_out,yaw_pid_out,motor_fl,motor_bl,motor_fr,motor_br,pwm_fl,pwm_bl,pwm_fr,pwm_br
7052,0,2.562500,0.625000,-0.062500,-0.12,0.30,0.771875,-1.000000,0.000000,0.000000,0.000000,0.000000,0.000000,0.000000,-0.000095,-0.000238,-0.000463,0.000000,0.000000,0.000000,0.000000,0,0,0,0
7068,0,0.000000,0.000000,-0.062500,-8.07,-2.07,0.513594,-1.000000,0.000000,0.000000,0.000000,0.000000,0.000000,0.000000,-0.006456,0.001658,-0.000308,0.000000,0.000000,0.000000,0.000000,819,819,819,819
7079,0,0.000000,0.000000,0.000000,0.06,-0.30,-1.043070,-1.000000,0.000000,0.000000,0.000000,0.000000,0.000000,0.000000,0.000048,0.000238,0.000626,0.000000,0.000000,0.000000,0.000000,819,819,819,819
7089,0,0.000000,0.000000,-0.062500,0.12,0.18,-1.180279,-1.000000,0.000000,0.000000,0.000000,0.000000,0.000000,0.000000,0.000095,-0.000143,0.000709,0.000000,0.000000,0.000000,0.000000,819,819,819,819
7100,0,0.000000,0.000000,-0.062500,0.12,0.24,-0.830889,-1.000000,0.000000,0.000000,0.000000,0.000000,0.000000,0.000000,0.000095,-0.000190,0.000499,0.000000,0.000000,0.000000,0.000000,819,819,819,819
7110,0,0.000000,0.000000,-0.062500,-0.06,0.36,-0.279044,-1.000000,0.000000,0.000000,0.000000,0.000000,0.000000,0.000000,-0.000048,-0.000285,0.000168,0.000000,0.000000,0.000000,0.000000,819,819,819,819
7120,0,0.000000,0.000000,-0.062500,0.00,0.00,0.223548,-1.000000,0.000000,0.000000,0.000000,0.000000,0.000000,0.000000,-0.000000,0.000000,-0.000134,0.000000,0.000000,0.000000,0.000000,819,819,819,819
7130,0,0.000000,0.000000,-0.062500,0.00,-0.47,0.545552,-1.000000,0.000000,0.000000,0.000000,0.000000,0.000000,0.000000,-0.000000,0.000380,-0.000328,0.000000,0.000000,0.000000,0.000000,819,819,819,819
7140,0,0.000000,0.000000,-0.062500,0.12,-0.42,0.561653,-1.000000,0.000000,0.000000,0.000000,0.000000,0.000000,0.000000,0.000095,0.000333,-0.000337,0.000000,0.000000,0.000000,0.000000,819,819,819,819
7150,0,0.000000,0.000000,-0.062500,0.00,-0.06,0.384333,-1.000000,0.000000,0.000000,0.000000,0.000000,0.000000,0.000000,-0.000000,0.000048,-0.000231,0.000000,0.000000,0.000000,0.000000,819,819,819,819
7160,0,0.000000,0.000000,-0.062500,0.00,0.30,0.137967,-1.000000,0.000000,0.000000,0.000000,0.000000,0.000000,0.000000,-0.000000,-0.000238,-0.000083,0.000000,0.000000,0.000000,0.000000,819,819,819,819
7170,0,0.000000,0.000000,-0.062500,0.06,0.30,-0.111852,-1.000000,0.000000,0.000000,0.000000,0.000000,0.000000,0.000000,0.000048,-0.000238,0.000067,0.000000,0.000000,0.000000,0.000000,819,819,819,819
7180,0,0.000000,0.000000,-0.062500,0.06,0.06,-0.243093,-1.000000,0.000000,0.000000,0.000000,0.000000,0.000000,0.000000,0.000048,-0.000048,0.000146,0.000000,0.000000,0.000000,0.000000,819,819,819,819
7190,0,0.000000,0.000000,-0.062500,-0.06,-0.06,-0.368405,-1.000000,0.000000,0.000000,0.000000,0.000000,0.000000,0.000000,-0.000048,0.000048,0.000221,0.000000,0.000000,0.000000,0.000000,819,819,819,819
7200,0,0.000000,0.000000,-0.062500,0.00,0.00,-0.315295,-1.000000,0.000000,0.000000,0.000000,0.000000,0.000000,0.000000,-0.000000,0.000000,0.000189,0.000000,0.000000,0.000000,0.000000,819,819,819,819
7210,0,0.000000,0.000000,-0.062500,-0.12,0.06,-0.253265,-1.000000,0.000000,0.000000,0.000000,0.000000,0.000000,0.000000,-0.000095,-0.000048,0.000152,0.000000,0.000000,0.000000,0.000000,819,819,819,819
7220,0,0.000000,0.000000,-0.062500,0.00,0.12,-0.190788,-1.000000,0.000000,0.000000,0.000000,0.000000,0.000000,0.000000,-0.000000,-0.000095,0.000115,0.000000,0.000000,0.000000,0.000000,819,819,819,819
7230,0,0.000000,0.000000,-0.062500,0.06,0.00,-0.068914,-1.000000,0.000000,0.000000,0.000000,0.000000,0.000000,0.000000,0.000048,0.000000,0.000041,0.000000,0.000000,0.000000,0.000000,819,819,819,819
7240,0,0.000000,0.000000,-0.062500,-0.06,-0.18,0.234054,-1.000000,0.000000,0.000000,0.000000,0.000000,0.000000,0.000000,-0.000048,0.000143,-0.000141,0.000000,0.000000,0.000000,0.000000,819,819,819,819
7250,0,0.000000,0.000000,-0.062500,0.00,-0.12,0.308578,-1.000000,0.000000,0.000000,0.000000,0.000000,0.000000,0.000000,-0.000000,0.000095,-0.000185,0.000000,0.000000,0.000000,0.000000,819,819,819,819
7260,0,0.000000,0.000000,-0.062500,0.00,0.06,0.312304,-1.000000,0.000000,0.000000,0.000000,0.000000,0.000000,0.000000,-0.000000,-0.000048,-0.000187,0.000000,0.000000,0.000000,0.000000,819,819,819,819
7270,0,0.000000,0.000000,-0.062500,0.06,0.30,0.074990,-1.000000,0.000000,0.000000,0.000000,0.000000,0.000000,0.000000,0.000048,-0.000238,-0.000045,0.000000,0.000000,0.000000,0.000000,819,819,819,819
7280,0,0.000000,0.000000,-0.062500,0.00,0.24,0.003750,-1.000000,0.000000,0.000000,0.000000,0.000000,0.000000,0.000000,-0.000000,-0.000190,-0.000002,0.000000,0.000000,0.000000,0.000000,819,819,819,819
7290,0,0.000000,0.000000,-0.062500,0.00,-0.18,-0.177938,-1.000000,0.000000,0.000000,0.000000,0.000000,0.000000,0.000000,-0.000000,0.000143,0.000107,0.000000,0.000000,0.000000,0.000000,819,819,819,819
7300,0,0.000000,0.000000,-0.062500,0.12,-0.06,-0.483897,-1.000000,0.000000,0.000000,0.000000,0.000000,0.000000,0.000000,0.000095,0.000048,0.000290,0.000000,0.000000,0.000000,0.000000,819,819,819,819
7310,0,0.000000,0.000000,-0.062500,-0.06,-0.06,-0.439820,-1.000000,0.000000,0.000000,0.000000,0.000000,0.000000,0.000000,-0.000048,0.000048,0.000264,0.000000,0.000000,0.000000,0.000000,819,819,819,819
7320,0,0.000000,0.000000,-0.062500,-0.06,-0.06,-0.259491,-1.000000,0.000000,0.000000,0.000000,0.000000,0.000000,0.000000,-0.000048,0.000048,0.000156,0.000000,0.000000,0.000000,0.000000,819,819,819,819
7330,0,0.000000,0.000000,-0.062500,0.00,0.00,-0.012975,-1.000000,0.000000,0.000000,0.000000,0.000000,0.000000,0.000000,-0.000000,0.000000,0.000008,0.000000,0.000000,0.000000,0.000000,819,819,819,819
7340,0,0.000000,0.000000,-0.062500,0.06,0.00,0.118101,-1.000000,0.000000,0.000000,0.000000,0.000000,0.000000,0.000000,0.000048,0.000000,-0.000071,0.000000,0.000000,0.000000,0.000000,819,819,819,819
7350,0,0.000000,0.000000,-0.062500,0.00,0.06,-0.290970,-1.000000,0.000000,0.000000,0.000000,0.000000,0.000000,0.000000,-0.000000,-0.000048,0.000175,0.000000,0.000000,0.000000,0.000000,819,819,819,819
7360,0,0.000000,0.000000,-0.062500,0.06,0.30,0.163576,-1.000000,0.000000,0.000000,0.000000,0.000000,0.000000,0.000000,0.000048,-0.000238,-0.000098,0.000000,0.000000,0.000000,0.000000,819,819,819,819
7377,0,0.000000,0.000000,-0.062500,-0.12,0.36,0.305054,-1.000000,0.000000,0.000000,0.000000,0.000000,0.000000,0.000000,-0.000095,-0.000285,-0.000183,0.000000,0.000000,0.000000,0.000000,819,819,819,819
7389,0,0.000000,0.000000,-0.062500,0.06,0.53,-0.519122,-1.000000,0.000000,0.000000,0.000000,0.000000,0.000000,0.000000,0.000048,-0.000428,0.000312,0.000000,0.000000,0.000000,0.000000,819,819,819,819
7400,0,0.000000,0.000000,-0.062500,-0.06,-1.19,-0.619706,-1.000000,0.000000,0.000000,0.000000,0.000000,0.000000,0.000000,-0.000048,0.000950,0.000372,0.000000,0.000000,0.000000,0.000000,819,819,819,819
7410,0,0.062500,0.000000,0.000000,0.31,-0.36,0.028390,-1.000000,0.000000,0.000000,0.000000,0.000000,0.000000,0.000000,0.000250,0.000285,-0.000017,0.000000,0.000000,0.000000,0.000000,819,819,819,819
7420,0,0.062500,0.000000,0.000000,0.06,0.53,0.179544,-1.000000,0.000000,0.000000,0.000000,0.000000,0.000000,0.000000,0.000048,-0.000428,-0.000108,0.000000,0.000000,0.000000,0.000000,819,819,819,819
7430,0,0.062500,0.000000,0.000000,0.12,-0.47,0.127727,-1.000000,0.000000,0.000000,0.000000,0.000000,0.000000,0.000000,0.000095,0.000380,-0.000077,0.000000,0.000000,0.000000,0.000000,819,819,819,819
7440,0,0.062500,0.000000,0.000000,0.00,-0.83,0.125136,-1.000000,0.000000,0.000000,0.000000,0.000000,0.000000,0.000000,-0.000000,0.000665,-0.000075,0.000000,0.000000,0.000000,0.000000,819,819,819,819
7450,0,0.062500,0.000000,0.000000,-0.06,-0.47,-0.528118,-1.000000,0.000000,0.000000,0.000000,0.000000,0.000000,0.000000,-0.000048,0.000380,0.000317,0.000000,0.000000,0.000000,0.000000,819,819,819,819
7460,0,0.062500,0.000000,0.000000,-0.06,0.30,-0.620156,-1.000000,0.000000,0.000000,0.000000,0.000000,0.000000,0.000000,-0.000048,-0.000238,0.000372,0.000000,0.000000,0.000000,0.000000,819,819,819,819
7470,0,0.062500,0.000000,0.000000,-0.12,-0.47,-1.277883,-1.000000,0.000000,0.000000,0.000000,0.000000,0.000000,0.000000,-0.000095,0.000380,0.000767,0.000000,0.000000,0.000000,0.000000,819,819,819,819
7480,0,0.062500,0.000000,0.000000,0.00,-0.59,-0.717019,-1.000000,0.000000,0.000000,0.000000,0.000000,0.000000,0.000000,-0.000000,0.000475,0.000430,0.000000,0.000000,0.000000,0.000000,819,819,819,819
7490,0,0.062500,0.000000,0.000000,0.12,-0.24,-0.748351,-1.000000,0.000000,0.000000,0.000000,0.000000,0.000000,0.000000,0.000095,0.000190,0.000449,0.000000,0.000000,0.000000,0.000000,819,819,819,819
7500,0,0.062500,0.000000,0.000000,-0.06,-0.36,-0.512418,-1.000000,0.000000,0.000000,0.000000,0.000000,0.000000,0.000000,-0.000048,0.000285,0.000308,0.000000,0.000000,0.000000,0.000000,819,819,819,819
7510,0,0.062500,0.000000,0.000000,0.06,0.06,0.865004,-1.000000,0.000000,0.000000,0.000000,0.000000,0.000000,0.000000,0.000048,-0.000048,-0.000519,0.000000,0.000000,0.000000,0.000000,819,819,819,819
7520,0,0.062500,0.000000,0.000000,-0.06,-0.18,1.112000,-1.000000,0.000000,0.000000,0.000000,0.000000,0.000000,0.000000,-0.000048,0.000143,-0.000668,0.000000,0.000000,0.000000,0.000000,819,819,819,819
7530,0,0.062500,0.000000,0.000000,0.06,-0.53,1.243100,-1.000000,0.000000,0.000000,0.000000,0.000000,0.000000,0.000000,0.000048,0.000428,-0.000746,0.000000,0.000000,0.000000,0.000000,819,819,819,819
7540,0,0.062500,0.000000,0.000000,0.00,-0.53,0.596530,-1.000000,0.000000,0.000000,0.000000,0.000000,0.000000,0.000000,-0.000000,0.000428,-0.000358,0.000000,0.000000,0.000000,0.000000,819,819,819,819
7550,0,0.062500,0.000000,0.000000,0.06,0.71,-0.088924,-1.000000,0.000000,0.000000,0.000000,0.000000,0.000000,0.000000,0.000048,-0.000570,0.000053,0.000000,0.000000,0.000000,0.000000,819,819,819,819
7560,0,0.062500,0.000000,0.000000,0.00,0.30,-0.716946,-1.000000,0.000000,0.000000,0.000000,0.000000,0.000000,0.000000,-0.000000,-0.000238,0.000430,0.000000,0.000000,0.000000,0.000000,819,819,819,819
7570,0,0.062500,0.000000,0.000000,0.06,0.42,-0.985847,-1.000000,0.000000,0.000000,0.000000,0.000000,0.000000,0.000000,0.000048,-0.000333,0.000592,0.000000,0.000000,0.000000,0.000000,819,819,819,819
7580,0,0.062500,0.000000,0.000000,0.12,0.36,-1.355542,-1.000000,0.000000,0.000000,0.000000,0.000000,0.000000,0.000000,0.000095,-0.000285,0.000814,0.000000,0.000000,0.000000,0.000000,819,819,819,819
7590,0,0.062500,0.000000,0.000000,0.00,0.71,0.229098,-1.000000,0.000000,0.000000,0.000000,0.000000,0.000000,0.000000,-0.000000,-0.000570,-0.000138,0.000000,0.000000,0.000000,0.000000,819,819,819,819
7600,0,0.062500,0.000000,-0.062500,0.06,-0.24,0.902080,-1.000000,0.000000,0.000000,0.000000,0.000000,0.000000,0.000000,0.000048,0.000190,-0.000542,0.000000,0.000000,0.000000,0.000000,819,819,819,819
7610,0,0.062500,0.000000,-0.062500,0.00,-0.53,1.113854,-1.000000,0.000000,0.000000,0.000000,0.000000,0.000000,0.000000,-0.000000,0.000428,-0.000669,0.000000,0.000000,0.000000,0.000000,819,819,819,819
7620,0,0.000000,0.000000,0.000000,-0.31,0.53,1.955693,-1.000000,0.000000,0.000000,0.000000,0.000000,0.000000,0.000000,-0.000250,-0.000428,-0.001174,0.000000,0.000000,0.000000,0.000000,819,819,819,819
7630,0,0.000000,0.000000,0.000000,0.06,0.47,1.404034,-1.000000,0.000000,0.000000,0.000000,0.000000,0.000000,0.000000,0.000048,-0.000380,-0.000843,0.000000,0.000000,0.000000,0.000000,819,819,819,819
7640,0,0.000000,0.000000,0.000000,0.06,-0.12,0.188952,-1.000000,0.000000,0.000000,0.000000,0.000000,0.000000,0.000000,0.000048,0.000095,-0.000113,0.000000,0.000000,0.000000,0.000000,819,819,819,819
7650,0,0.000000,0.000000,0.000000,-0.06,0.24,-0.999927,-1.000000,0.000000,0.000000,0.000000,0.000000,0.000000,0.000000,-0.000048,-0.000190,0.000600,0.000000,0.000000,0.000000,0.000000,819,819,819,819
7660,0,0.000000,0.000000,0.000000,-0.12,-0.30,-2.068746,-1.000000,0.000000,0.000000,0.000000,0.000000,0.000000,0.000000,-0.000095,0.000238,0.001242,0.000000,0.000000,0.000000,0.000000,819,819,819,819
7670,0,0.062500,0.000000,0.000000,0.25,-0.77,-1.944062,-1.000000,0.000000,0.000000,0.000000,0.000000,0.000000,0.000000,0.000203,0.000618,0.001167,0.000000,0.000000,0.000000,0.000000,819,819,819,819
7680,0,0.062500,0.000000,0.000000,0.18,-0.24,-1.047203,-1.000000,0.000000,0.000000,0.000000,0.000000,0.000000,0.000000,0.000143,0.000190,0.000629,0.000000,0.000000,0.000000,0.000000,819,819,819,819
7696,0,0.062500,0.000000,0.000000,0.06,-0.30,-0.408610,-1.000000,0.000000,0.000000,0.000000,0.000000,0.000000,0.000000,0.000048,0.000238,0.000245,0.000000,0.000000,0.000000,0.000000,819,819,819,819
7707,0,0.062500,0.000000,0.000000,0.06,0.00,0.929569,-1.000000,0.000000,0.000000,0.000000,0.000000,0.000000,0.000000,0.000048,0.000000,-0.000558,0.000000,0.000000,0.000000,0.000000,819,819,819,819
7719,0,0.062500,0.000000,0.000000,0.06,-0.18,1.471478,-1.000000,0.000000,0.000000,0.000000,0.000000,0.000000,0.000000,0.000048,0.000143,-0.000883,0.000000,0.000000,0.000000,0.000000,819,819,819,819
7730,0,0.000000,0.000000,0.000000,-0.34,-0.59,0.904824,-1.000000,0.000000,0.000000,0.000000,0.000000,0.000000,0.000000,-0.000275,0.000475,-0.000543,0.000000,0.000000,0.000000,0.000000,819,819,819,819
7740,0,0.000000,0.000000,0.000000,-0.12,0.24,-0.311009,-1.000000,0.000000,0.000000,0.000000,0.000000,0.000000,0.000000,-0.000095,-0.000190,0.000187,0.000000,0.000000,0.000000,0.000000,819,819,819,819
7750,0,0.000000,0.000000,0.000000,-0.06,-0.42,-1.321800,-1.000000,0.000000,0.000000,0.000000,0.000000,0.000000,0.000000,-0.000048,0.000333,0.000793,0.000000,0.000000,0.000000,0.000000,819,819,819,819
7760,0,0.062500,0.000000,0.000000,0.31,-0.47,-1.550465,-1.000000,0.000000,0.000000,0.000000,0.000000,0.000000,0.000000,0.000250,0.000380,0.000931,0.000000,0.000000,0.000000,0.000000,819,819,819,819
7771,0,0.062500,0.000000,0.000000,-0.06,0.06,-1.680648,-1.000000,0.000000,0.000000,0.000000,0.000000,0.000000,0.000000,-0.000048,-0.000048,0.001009,0.000000,0.000000,0.000000,0.000000,819,819,819,819
7780,0,0.062500,0.000000,0.000000,0.00,-0.42,-1.449657,-1.000000,0.000000,0.000000,0.000000,0.000000,0.000000,0.000000,-0.000000,0.000333,0.000870,0.000000,0.000000,0.000000,0.000000,819,819,819,819
7791,0,0.062500,0.000000,0.000000,0.18,-0.83,-0.191233,-1.000000,0.000000,0.000000,0.000000,0.000000,0.000000,0.000000,0.000143,0.000665,0.000115,0.000000,0.000000,0.000000,0.000000,819,819,819,819
7801,0,0.062500,0.000000,0.000000,0.12,-0.24,0.821688,-1.000000,0.000000,0.000000,0.000000,0.000000,0.000000,0.000000,0.000095,0.000190,-0.000493,0.000000,0.000000,0.000000,0.000000,819,819,819,819
7811,0,0.062500,0.000000,0.000000,0.12,0.24,0.872334,-1.000000,0.000000,0.000000,0.000000,0.000000,0.000000,0.000000,0.000095,-0.000190,-0.000524,0.000000,0.000000,0.000000,0.000000,819,819,819,819
7821,0,0.062500,0.000000,0.000000,-0.06,0.24,0.696742,-1.000000,0.000000,0.000000,0.000000,0.000000,0.000000,0.000000,-0.000048,-0.000190,-0.000418,0.000000,0.000000,0.000000,0.000000,819,819,819,819
7831,0,0.062500,0.000000,0.000000,-0.06,-0.36,-0.024538,-1.000000,0.000000,0.000000,0.000000,0.000000,0.000000,0.000000,-0.000048,0.000285,0.000015,0.000000,0.000000,0.000000,0.000000,819,819,819,819
7841,0,0.062500,0.000000,0.000000,0.00,-0.53,-0.535602,-1.000000,0.000000,0.000000,0.000000,0.000000,0.000000,0.000000,-0.000000,0.000428,0.000322,0.000000,0.000000,0.000000,0.000000,819,819,819,819
7851,0,0.062500,0.062500,0.000000,-0.06,-0.46,-1.154905,-1.000000,0.000000,0.000000,0.000000,0.000000,0.000000,0.000000,-0.000048,0.000368,0.000693,0.000000,0.000000,0.000000,0.000000,819,819,819,819
7861,0,0.062500,0.062500,0.000000,0.00,-0.77,-1.660870,-1.000000,0.000000,0.000000,0.000000,0.000000,0.000000,0.000000,-0.000000,0.000618,0.000997,0.000000,0.000000,0.000000,0.000000,819,819,819,819
7871,0,0.062500,0.062500,0.000000,-0.06,-0.06,-0.617419,-1.000000,0.000000,0.000000,0.000000,0.000000,0.000000,0.000000,-0.000048,0.000048,0.000371,0.000000,0.000000,0.000000,0.000000,819,819,819,819
7880,0,0.062500,0.062500,0.000000,-0.12,0.53,0.147254,-1.000000,0.000000,0.000000,0.000000,0.000000,0.000000,0.000000,-0.000095,-0.000428,-0.000088,0.000000,0.000000,0.000000,0.000000,819,819,819,819
7893,0,0.062500,0.062500,0.000000,-0.12,0.24,0.541738,-1.000000,0.000000,0.000000,0.000000,0.000000,0.000000,0.000000,-0.000095,-0.000190,-0.000325,0.000000,0.000000,0.000000,0.000000,819,819,819,819
7902,0,0.062500,0.062500,0.000000,-0.06,0.30,0.798962,-1.000000,0.000000,0.000000,0.000000,0.000000,0.000000,0.000000,-0.000048,-0.000238,-0.000480,0.000000,0.000000,0.000000,0.000000,819,819,819,819
7912,0,0.062500,0.062500,0.000000,-0.06,0.00,0.693073,-1.000000,0.000000,0.000000,0.000000,0.000000,0.000000,0.000000,-0.000048,0.000000,-0.000416,0.000000,0.000000,0.000000,0.000000,819,819,819,819
7921,0,0.062500,0.062500,0.000000,0.12,-0.24,0.094029,-1.000000,0.000000,0.000000,0.000000,0.000000,0.000000,0.000000,0.000095,0.000190,-0.000056,0.000000,0.000000,0.000000,0.000000,819,819,819,819
7931,0,0.062500,0.062500,0.000000,-0.06,-0.18,-0.232799,-1.000000,0.000000,0.000000,0.000000,0.000000,0.000000,0.000000,-0.000048,0.000143,0.000140,0.000000,0.000000,0.000000,0.000000,819,819,819,819
7941,0,0.062500,0.062500,0.000000,-0.06,-0.12,-0.842890,-1.000000,0.000000,0.000000,0.000000,0.000000,0.000000,0.000000,-0.000048,0.000095,0.000506,0.000000,0.000000,0.000000,0.000000,819,819,819,819
7951,0,0.062500,0.062500,0.000000,0.00,0.12,-0.695269,-1.000000,0.000000,0.000000,0.000000,0.000000,0.000000,0.000000,-0.000000,-0.000095,0.000417,0.000000,0.000000,0.000000,0.000000,819,819,819,819
7961,0,0.062500,0.062500,0.000000,-0.06,0.47,-0.509763,-1.000000,0.000000,0.000000,0.000000,0.000000,0.000000,0.000000,-0.000048,-0.000380,0.000306,0.000000,0.000000,0.000000,0.000000,819,819,819,819
7971,0,0.062500,0.062500,0.000000,0.00,0.30,0.033887,-1.000000,0.000000,0.000000,0.000000,0.000000,0.000000,0.000000,-0.000000,-0.000238,-0.000020,0.000000,0.000000,0.000000,0.000000,819,819,819,819
7981,0,0.062500,0.062500,0.000000,-0.12,-0.24,0.476694,-1.000000,0.000000,0.000000,0.000000,0.000000,0.000000,0.000000,-0.000095,0.000190,-0.000286,0.000000,0.000000,0.000000,0.000000,819,819,819,819
7991,0,0.062500,0.062500,0.000000,-0.06,-0.42,0.617585,-1.000000,0.000000,0.000000,0.000000,0.000000,0.000000,0.000000,-0.000048,0.000333,-0.000371,0.000000,0.000000,0.000000,0.000000,819,819,819,819
8008,0,0.062500,0.062500,0.000000,-0.06,-0.18,0.505879,-1.000000,0.000000,0.000000,0.000000,0.000000,0.000000,0.000000,-0.000048,0.000143,-0.000304,0.000000,0.000000,0.000000,0.000000,819,819,819,819
8020,0,0.062500,0.062500,0.000000,-0.06,0.18,0.322169,-1.000000,0.000000,0.000000,0.000000,0.000000,0.000000,0.000000,-0.000048,-0.000143,-0.000193,0.000000,0.000000,0.000000,0.000000,819,819,819,819
8030,0,0.062500,0.062500,0.000000,-0.06,0.30,-0.458892,0.006000,0.000000,0.000000,0.000000,0.000000,0.000000,0.000000,-0.000048,-0.000238,0.000275,0.000000,0.000000,0.000000,0.000000,819,819,819,819
8041,0,0.062500,0.062500,0.000000,-0.18,0.18,-0.735445,0.006000,0.000000,0.000000,0.000000,0.000000,0.000000,0.000000,-0.000143,-0.000143,0.000441,0.000000,0.000000,0.000000,0.000000,819,819,819,819
8051,0,0.062500,0.062500,0.000000,-0.06,0.00,-0.571147,0.006000,0.000000,0.000000,0.000000,0.000000,0.000000,0.000000,-0.000048,0.000000,0.000343,0.000000,0.000000,0.000000,0.000000,819,819,819,819
8061,0,0.062500,0.062500,0.000000,0.24,-0.71,0.268318,0.006000,0.000000,0.000000,0.000000,0.000000,0.000000,0.000000,0.000190,0.000570,-0.000161,0.000000,0.000000,0.000000,0.000000,819,819,819,819
8071,0,0.062500,0.062500,0.000000,0.24,-0.83,0.666541,0.006000,0.000000,0.000000,0.000000,0.000000,0.000000,0.000000,0.000190,0.000665,-0.000400,0.000000,0.000000,0.000000,0.000000,819,819,819,819
8081,0,0.062500,0.062500,0.000000,0.06,0.30,0.508327,0.006000,0.000000,0.000000,0.000000,0.000000,0.000000,0.000000,0.000048,-0.000238,-0.000305,0.000000,0.000000,0.000000,0.000000,819,819,819,819
8091,0,0.062500,0.062500,0.000000,-0.18,1.07,0.084791,0.006000,0.000000,0.000000,0.000000,0.000000,0.000000,0.000000,-0.000143,-0.000855,-0.000051,0.000000,0.000000,0.000000,0.000000,819,819,819,819
8101,0,0.062500,0.062500,0.000000,-0.12,0.89,-0.352010,0.006000,0.000000,0.000000,0.000000,0.000000,0.000000,0.000000,-0.000095,-0.000713,0.000211,0.000000,0.000000,0.000000,0.000000,819,819,819,819
8111,0,0.062500,0.062500,0.000000,0.00,-0.12,-0.908226,0.006000,0.000000,0.000000,0.000000,0.000000,0.000000,0.000000,-0.000000,0.000095,0.000545,0.000000,0.000000,0.000000,0.000000,819,819,819,819
8121,0,0.062500,0.062500,0.000000,0.00,-0.89,-0.698536,0.006000,0.000000,0.000000,0.000000,0.000000,0.000000,0.000000,-0.000000,0.000713,0.000419,0.000000,0.000000,0.000000,0.000000,819,819,819,819
8131,0,0.125000,0.062500,0.000000,0.43,-0.83,-0.034927,0.006000,0.000000,0.000000,0.000000,0.000000,0.000000,0.000000,0.000345,0.000665,0.000021,0.000000,0.000000,0.000000,0.000000,819,819,819,819
8141,0,0.125000,0.062500,0.000000,0.00,-0.47,0.473254,0.006000,0.000000,0.000000,0.000000,0.000000,0.000000,0.000000,-0.000000,0.000380,-0.000284,0.000000,0.000000,0.000000,0.000000,819,819,819,819
8151,0,0.062500,0.062500,0.000000,-0.49,0.24,0.854913,0.006000,0.000000,0.000000,0.000000,0.000000,0.000000,0.000000,-0.000393,-0.000190,-0.000513,0.000000,0.000000,0.000000,0.000000,819,819,819,819
8161,0,0.062500,0.062500,0.000000,0.00,0.65,0.695871,0.006000,0.000000,0.000000,0.000000,0.000000,0.000000,0.000000,-0.000000,-0.000523,-0.000418,0.000000,0.000000,0.000000,0.000000,819,819,819,819
8171,0,0.062500,0.062500,0.000000,0.06,0.42,0.391044,0.006000,0.000000,0.000000,0.000000,0.000000,0.000000,0.000000,0.000048,-0.000333,-0.000235,0.000000,0.000000,0.000000,0.000000,819,819,819,819
8181,0,0.062500,0.062500,0.000000,0.06,0.00,-0.039823,0.006000,0.000000,0.000000,0.000000,0.000000,0.000000,0.000000,0.000048,0.000000,0.000024,0.000000,0.000000,0.000000,0.000000,819,819,819,819
8191,0,0.062500,0.062500,0.000000,0.00,-0.30,-0.773866,0.006000,0.000000,0.000000,0.000000,0.000000,0.000000,0.000000,-0.000000,0.000238,0.000465,0.000000,0.000000,0.000000,0.000000,819,819,819,819
8201,0,0.062500,0.062500,0.000000,-0.12,-0.53,-0.810568,0.006000,0.000000,0.000000,0.000000,0.000000,0.000000,0.000000,-0.000095,0.000428,0.000487,0.000000,0.000000,0.000000,0.000000,819,819,819,819
8211,0,0.125000,0.062500,0.000000,0.37,-0.30,-0.753028,0.006000,0.000000,0.000000,0.000000,0.000000,0.000000,0.000000,0.000298,0.000238,0.000452,0.000000,0.000000,0.000000,0.000000,819,819,819,819
8221,0,0.125000,0.062500,0.000000,0.00,-0.06,-0.275151,0.006000,0.000000,0.000000,0.000000,0.000000,0.000000,0.000000,-0.000000,0.000048,0.000165,0.000000,0.000000,0.000000,0.000000,819,819,819,819
8231,0,0.125000,0.062500,0.000000,0.06,0.24,0.342492,0.006000,0.000000,0.000000,0.000000,0.000000,0.000000,0.000000,0.000048,-0.000190,-0.000206,0.000000,0.000000,0.000000,0.000000,819,819,819,819
8241,0,0.125000,0.062500,0.000000,0.00,0.42,0.729625,0.006000,0.000000,0.000000,0.000000,0.000000,0.000000,0.000000,-0.000000,-0.000333,-0.000438,0.000000,0.000000,0.000000,0.000000,819,819,819,819
8251,0,0.062500,0.062500,0.000000,-0.37,0.06,0.630231,0.006000,0.000000,0.000000,0.000000,0.000000,0.000000,0.000000,-0.000298,-0.000048,-0.000378,0.000000,0.000000,0.000000,0.000000,819,819,819,819
8261,0,0.062500,0.062500,0.000000,0.00,-0.06,0.506512,0.006000,0.000000,0.000000,0.000000,0.000000,0.000000,0.000000,-0.000000,0.000048,-0.000304,0.000000,0.000000,0.000000,0.000000,819,819,819,819
8271,0,0.062500,0.062500,0.000000,0.06,-0.18,0.025326,0.006000,0.000000,0.000000,0.000000,0.000000,0.000000,0.000000,0.000048,0.000143,-0.000015,0.000000,0.000000,0.000000,0.000000,819,819,819,819
8281,0,0.062500,0.062500,0.000000,-0.06,-0.18,-0.473734,0.006000,0.000000,0.000000,0.000000,0.000000,0.000000,0.000000,-0.000048,0.000143,0.000284,0.000000,0.000000,0.000000,0.000000,819,819,819,819
8291,0,0.062500,0.062500,0.000000,0.00,0.06,-0.795562,0.006000,0.000000,0.000000,0.000000,0.000000,0.000000,0.000000,-0.000000,-0.000048,0.000478,0.000000,0.000000,0.000000,0.000000,819,819,819,819
8301,0,0.125000,0.062500,0.000000,0.19,-0.12,-0.752278,0.006000,0.000000,0.000000,0.000000,0.000000,0.000000,0.000000,0.000155,0.000095,0.000452,0.000000,0.000000,0.000000,0.000000,819,819,819,819
8311,0,0.125000,0.062500,0.000000,0.00,-0.06,-0.512614,0.006000,0.000000,0.000000,0.000000,0.000000,0.000000,0.000000,-0.000000,0.000048,0.000308,0.000000,0.000000,0.000000,0.000000,819,819,819,819
8328,0,0.125000,0.062500,0.000000,-0.06,-0.12,0.033744,0.006000,0.000000,0.000000,0.000000,0.000000,0.000000,0.000000,-0.000048,0.000095,-0.000020,0.000000,0.000000,0.000000,0.000000,819,819,819,819
8341,0,0.125000,0.062500,0.000000,-0.06,0.18,0.476687,0.006000,0.000000,0.000000,0.000000,0.000000,0.000000,0.000000,-0.000048,-0.000143,-0.000286,0.000000,0.000000,0.000000,0.000000,819,819,819,819
8351,0,0.125000,0.062500,0.000000,0.00,0.18,0.558209,0.006000,0.000000,0.000000,0.000000,0.000000,0.000000,0.000000,-0.000000,-0.000143,-0.000335,0.000000,0.000000,0.000000,0.000000,819,819,819,819
8361,0,0.125000,0.062500,0.000000,0.00,-0.12,0.324785,0.006000,0.000000,0.000000,0.000000,0.000000,0.000000,0.000000,-0.000000,0.000095,-0.000195,0.000000,0.000000,0.000000,0.000000,819,819,819,819
8371,0,0.125000,0.062500,0.000000,0.00,-0.24,-0.161886,0.006000,0.000000,0.000000,0.000000,0.000000,0.000000,0.000000,-0.000000,0.000190,0.000097,0.000000,0.000000,0.000000,0.000000,819,819,819,819
8381,0,0.125000,0.062500,0.000000,0.00,-0.24,-0.423719,0.006000,0.000000,0.000000,0.000000,0.000000,0.000000,0.000000,-0.000000,0.000190,0.000254,0.000000,0.000000,0.000000,0.000000,819,819,819,819
8391,0,0.125000,0.062500,0.000000,-0.06,-0.06,-0.496186,0.006000,0.000000,0.000000,0.000000,0.000000,0.000000,0.000000,-0.000048,0.000048,0.000298,0.000000,0.000000,0.000000,0.000000,819,819,819,819
8401,0,0.125000,0.062500,0.000000,-0.12,0.06,-0.440434,0.006000,0.000000,0.000000,0.000000,0.000000,0.000000,0.000000,-0.000095,-0.000048,0.000264,0.000000,0.000000,0.000000,0.000000,819,819,819,819
8411,0,0.125000,0.062500,0.000000,-0.06,0.24,-0.259522,0.006000,0.000000,0.000000,0.000000,0.000000,0.000000,0.000000,-0.000048,-0.000190,0.000156,0.000000,0.000000,0.000000,0.000000,819,819,819,819
8535,0,0.125000,0.062500,0.000000,0.18,-0.12,0.046399,0.006000,0.000000,0.000000,0.000000,0.000000,0.000000,0.000000,0.000143,0.000095,-0.000028,0.000000,0.000000,0.000000,0.000000,819,819,819,819
8759,0,0.125000,0.062500,0.000000,0.00,0.06,-0.057055,0.006000,0.000000,0.000000,0.000000,0.000000,0.000000,0.000000,-0.000000,-0.000048,0.000034,0.000000,0.000000,0.000000,0.000000,819,819,819,819
9005,0,0.125000,0.062500,0.000000,0.00,0.00,-0.062228,0.006000,0.000000,0.000000,0.000000,0.000000,0.000000,0.000000,-0.000000,0.000000,0.000037,0.000000,0.000000,0.000000,0.000000,819,819,819,819
9180,0,0.125000,0.062500,0.000000,0.00,0.12,0.115639,0.006000,0.000000,0.000000,0.000000,0.000000,0.000000,0.000000,-0.000000,-0.000095,-0.000069,0.000000,0.000000,0.000000,0.000000,819,819,819,819
9246,0,0.125000,0.062500,0.000000,-0.06,-0.12,0.183907,0.006000,0.000000,0.000000,0.000000,0.000000,0.000000,0.000000,-0.000048,0.000095,-0.000110,0.000000,0.000000,0.000000,0.000000,819,819,819,819
9256,0,0.125000,0.062500,0.000000,0.06,-0.18,0.187320,0.006000,0.000000,0.000000,0.000000,0.000000,0.000000,0.000000,0.000048,0.000143,-0.000112,0.000000,0.000000,0.000000,0.000000,819,819,819,819
9267,0,0.125000,0.062500,0.000000,0.00,-0.18,0.068741,0.006000,0.000000,0.000000,0.000000,0.000000,0.000000,0.000000,-0.000000,0.000143,-0.000041,0.000000,0.000000,0.000000,0.000000,819,819,819,819
9278,0,0.125000,0.062500,0.000000,0.00,-0.06,0.062812,0.006000,0.000000,0.000000,0.000000,0.000000,0.000000,0.000000,-0.000000,0.000048,-0.000038,0.000000,0.000000,0.000000,0.000000,819,819,819,819
9290,0,0.125000,0.062500,0.000000,0.06,0.06,-0.056234,0.006000,0.000000,0.000000,0.000000,0.000000,0.000000,0.000000,0.000048,-0.000048,0.000034,0.000000,0.000000,0.000000,0.000000,819,819,819,819
9301,0,0.125000,0.062500,0.000000,-0.12,0.12,-0.002812,0.006000,0.000000,0.000000,0.000000,0.000000,0.000000,0.000000,-0.000095,-0.000095,0.000002,0.000000,0.000000,0.000000,0.000000,819,819,819,819
9313,0,0.125000,0.062500,0.000000,-0.06,0.00,0.118609,0.006000,0.000000,0.000000,0.000000,0.000000,0.000000,0.000000,-0.000048,0.000000,-0.000071,0.000000,0.000000,0.000000,0.000000,819,819,819,819
9323,0,0.125000,0.062500,0.000000,0.00,0.12,-0.112820,0.006000,0.000000,0.000000,0.000000,0.000000,0.000000,0.000000,-0.000000,-0.000095,0.000068,0.000000,0.000000,0.000000,0.000000,819,819,819,819
9333,0,0.125000,0.062500,0.000000,-0.12,-0.12,0.172484,0.006000,0.000000,0.000000,0.000000,0.000000,0.000000,0.000000,-0.000095,0.000095,-0.000104,0.000000,0.000000,0.000000,0.000000,819,819,819,819
9343,0,0.125000,0.062500,0.000000,0.00,0.00,0.067999,0.006000,0.000000,0.000000,0.000000,0.000000,0.000000,0.000000,-0.000000,0.000000,-0.000041,0.000000,0.000000,0.000000,0.000000,819,819,819,819
9353,0,0.125000,0.062500,0.000000,0.00,-0.12,0.181525,0.006000,0.000000,0.000000,0.000000,0.000000,0.000000,0.000000,-0.000000,0.000095,-0.000109,0.000000,0.000000,0.000000,0.000000,819,819,819,819
9363,0,0.125000,0.062500,0.000000,-0.12,-0.06,0.068451,0.006000,0.000000,0.000000,0.000000,0.000000,0.000000,0.000000,-0.000095,0.000048,-0.000041,0.000000,0.000000,0.000000,0.000000,819,819,819,819
9373,0,0.125000,0.062500,0.000000,-0.06,-0.24,-0.055952,0.006000,0.000000,0.000000,0.000000,0.000000,0.000000,0.000000,-0.000048,0.000190,0.000034,0.000000,0.000000,0.000000,0.000000,819,819,819,819
9383,0,0.125000,0.062500,0.000000,-0.24,-0.18,-0.002798,0.006000,0.000000,0.000000,0.000000,0.000000,0.000000,0.000000,-0.000190,0.000143,0.000002,0.000000,0.000000,0.000000,0.000000,819,819,819,819
9393,0,0.125000,0.062500,0.000000,-0.12,-0.06,-0.059515,0.006000,0.000000,0.000000,0.000000,0.000000,0.000000,0.000000,-0.000095,0.000048,0.000036,0.000000,0.000000,0.000000,0.000000,819,819,819,819
9403,0,0.125000,0.062500,0.000000,-0.12,0.06,0.056399,0.006000,0.000000,0.000000,0.000000,0.000000,0.000000,0.000000,-0.000095,-0.000048,-0.000034,0.000000,0.000000,0.000000,0.000000,819,819,819,819
9413,0,0.125000,0.062500,0.000000,-0.18,0.00,-0.056555,0.006000,0.000000,0.000000,0.000000,0.000000,0.000000,0.000000,-0.000143,0.000000,0.000034,0.000000,0.000000,0.000000,0.000000,819,819,819,819
9423,0,0.125000,0.062500,0.000000,0.06,0.12,0.056547,0.006000,0.000000,0.000000,0.000000,0.000000,0.000000,0.000000,0.000048,-0.000095,-0.000034,0.000000,0.000000,0.000000,0.000000,819,819,819,819
9433,0,0.125000,0.062500,0.000000,0.00,0.06,0.180952,0.006000,0.000000,0.000000,0.000000,0.000000,0.000000,0.000000,-0.000000,-0.000048,-0.000109,0.000000,0.000000,0.000000,0.000000,819,819,819,819
9443,0,0.125000,0.062500,0.000000,0.18,0.06,0.127798,0.006000,0.000000,0.000000,0.000000,0.000000,0.000000,0.000000,0.000143,-0.000048,-0.000077,0.000000,0.000000,0.000000,0.000000,819,819,819,819
9453,0,0.125000,0.062500,0.000000,0.00,0.06,0.125140,0.006000,0.000000,0.000000,0.000000,0.000000,0.000000,0.000000,-0.000000,-0.000048,-0.000075,0.000000,0.000000,0.000000,0.000000,819,819,819,819
9463,0,0.125000,0.062500,0.000000,-0.06,-0.30,0.065632,0.006000,0.000000,0.000000,0.000000,0.000000,0.000000,0.000000,-0.000048,0.000238,-0.000039,0.000000,0.000000,0.000000,0.000000,819,819,819,819
9473,0,0.125000,0.062500,0.000000,0.00,-0.06,-0.174843,0.006000,0.000000,0.000000,0.000000,0.000000,0.000000,0.000000,-0.000000,0.000048,0.000105,0.000000,0.000000,0.000000,0.000000,819,819,819,819
9483,0,0.125000,0.062500,0.000000,0.00,0.18,-0.246242,0.006000,0.000000,0.000000,0.000000,0.000000,0.000000,0.000000,-0.000000,-0.000143,0.000148,0.000000,0.000000,0.000000,0.000000,819,819,819,819
9493,0,0.125000,0.062500,0.000000,-0.12,0.30,-0.131062,0.006000,0.000000,0.000000,0.000000,0.000000,0.000000,0.000000,-0.000095,-0.000238,0.000079,0.000000,0.000000,0.000000,0.000000,819,819,819,819
9503,0,0.125000,0.062500,0.000000,0.06,0.18,-0.125303,0.006000,0.000000,0.000000,0.000000,0.000000,0.000000,0.000000,0.000048,-0.000143,0.000075,0.000000,0.000000,0.000000,0.000000,819,819,819,819
9513,0,0.125000,0.062500,0.000000,0.06,-0.12,0.112485,0.006000,0.000000,0.000000,0.000000,0.000000,0.000000,0.000000,0.000048,0.000095,-0.000068,0.000000,0.000000,0.000000,0.000000,819,819,819,819
9523,0,0.125000,0.062500,0.000000,-0.06,-0.18,0.183749,0.006000,0.000000,0.000000,0.000000,0.000000,0.000000,0.000000,-0.000048,0.000143,-0.000110,0.000000,0.000000,0.000000,0.000000,819,819,819,819
9535,0,0.125000,0.062500,0.000000,0.00,-0.24,0.365437,0.006000,0.000000,0.000000,0.000000,0.000000,0.000000,0.000000,-0.000000,0.000190,-0.000219,0.000000,0.000000,0.000000,0.000000,819,819,819,819
9545,0,0.125000,0.062500,0.000000,-0.06,-0.12,0.315147,0.006000,0.000000,0.000000,0.000000,0.000000,0.000000,0.000000,-0.000048,0.000095,-0.000189,0.000000,0.000000,0.000000,0.000000,819,819,819,819
9562,0,0.125000,0.062500,0.000000,0.06,0.06,0.134507,0.006000,0.000000,0.000000,0.000000,0.000000,0.000000,0.000000,0.000048,-0.000048,-0.000081,0.000000,0.000000,0.000000,0.000000,819,819,819,819
9574,0,0.125000,0.062500,0.000000,0.12,0.18,-0.230775,0.006000,0.000000,0.000000,0.000000,0.000000,0.000000,0.000000,0.000095,-0.000143,0.000139,0.000000,0.000000,0.000000,0.000000,819,819,819,819
9583,0,0.125000,0.062500,0.000000,0.06,0.00,-0.367789,0.006000,0.000000,0.000000,0.000000,0.000000,0.000000,0.000000,0.000048,0.000000,0.000221,0.000000,0.000000,0.000000,0.000000,819,819,819,819
9594,0,0.125000,0.062500,0.000000,-0.06,0.00,-0.196514,0.006000,0.000000,0.000000,0.000000,0.000000,0.000000,0.000000,-0.000048,0.000000,0.000118,0.000000,0.000000,0.000000,0.000000,819,819,819,819
9603,0,0.125000,0.062500,0.000000,0.06,0.00,-0.009826,0.006000,0.000000,0.000000,0.000000,0.000000,0.000000,0.000000,0.000048,0.000000,0.000006,0.000000,0.000000,0.000000,0.000000,819,819,819,819
9613,0,0.125000,0.062500,0.000000,0.00,-0.06,0.118259,0.006000,0.000000,0.000000,0.000000,0.000000,0.000000,0.000000,-0.000000,0.000048,-0.000071,0.000000,0.000000,0.000000,0.000000,819,819,819,819
9623,0,0.125000,0.062500,0.000000,0.00,-0.06,0.243413,0.006000,0.000000,0.000000,0.000000,0.000000,0.000000,0.000000,-0.000000,0.000048,-0.000146,0.000000,0.000000,0.000000,0.000000,819,819,819,819
9633,0,0.125000,0.062500,0.000000,-0.06,-0.06,0.427796,0.006000,0.000000,0.000000,0.000000,0.000000,0.000000,0.000000,-0.000048,0.000048,-0.000257,0.000000,0.000000,0.000000,0.000000,819,819,819,819
9643,0,0.125000,0.062500,0.000000,0.12,0.12,0.199515,0.006000,0.000000,0.000000,0.000000,0.000000,0.000000,0.000000,0.000095,-0.000095,-0.000120,0.000000,0.000000,0.000000,0.000000,819,819,819,819
9653,0,0.125000,0.062500,0.000000,0.00,0.12,-0.049399,0.006000,0.000000,0.000000,0.000000,0.000000,0.000000,0.000000,-0.000000,-0.000095,0.000030,0.000000,0.000000,0.000000,0.000000,819,819,819,819
9663,0,0.125000,0.062500,0.000000,0.12,0.18,-0.180595,0.006000,0.000000,0.000000,0.000000,0.000000,0.000000,0.000000,0.000095,-0.000143,0.000108,0.000000,0.000000,0.000000,0.000000,819,819,819,819
9673,0,0.125000,0.062500,0.000000,0.00,0.06,-0.305905,0.006000,0.000000,0.000000,0.000000,0.000000,0.000000,0.000000,-0.000000,-0.000048,0.000184,0.000000,0.000000,0.000000,0.000000,819,819,819,819
9683,0,0.125000,0.062500,0.000000,0.18,0.06,-0.193420,0.006000,0.000000,0.000000,0.000000,0.000000,0.000000,0.000000,0.000143,-0.000048,0.000116,0.000000,0.000000,0.000000,0.000000,819,819,819,819
9694,0,0.125000,0.062500,0.000000,0.06,-0.06,-0.128421,0.006000,0.000000,0.000000,0.000000,0.000000,0.000000,0.000000,0.000048,0.000048,0.000077,0.000000,0.000000,0.000000,0.000000,819,819,819,819
9703,0,0.125000,0.062500,0.000000,0.18,0.00,-0.006421,0.006000,0.000000,0.000000,0.000000,0.000000,0.000000,0.000000,0.000143,0.000000,0.000004,0.000000,0.000000,0.000000,0.000000,819,819,819,819
9713,0,0.125000,0.062500,0.000000,-0.06,-0.06,0.059054,0.006000,0.000000,0.000000,0.000000,0.000000,0.000000,0.000000,-0.000048,0.000048,-0.000035,0.000000,0.000000,0.000000,0.000000,819,819,819,819
9723,0,0.125000,0.062500,0.000000,0.12,0.06,0.062328,0.006000,0.000000,0.000000,0.000000,0.000000,0.000000,0.000000,0.000095,-0.000048,-0.000037,0.000000,0.000000,0.000000,0.000000,819,819,819,819
9733,0,0.125000,0.062500,0.000000,0.06,0.06,0.181241,0.006000,0.000000,0.000000,0.000000,0.000000,0.000000,0.000000,0.000048,-0.000048,-0.000109,0.000000,0.000000,0.000000,0.000000,819,819,819,819
9744,0,0.125000,0.062500,0.000000,0.06,-0.06,0.009062,0.006000,0.000000,0.000000,0.000000,0.000000,0.000000,0.000000,0.000048,0.000048,-0.000005,0.000000,0.000000,0.000000,0.000000,819,819,819,819
9753,0,0.125000,0.062500,0.000000,0.00,0.00,-0.118297,0.006000,0.000000,0.000000,0.000000,0.000000,0.000000,0.000000,-0.000000,0.000000,0.000071,0.000000,0.000000,0.000000,0.000000,819,819,819,819
9763,0,0.125000,0.062500,0.000000,0.12,-0.06,-0.243415,0.006000,0.000000,0.000000,0.000000,0.000000,0.000000,0.000000,0.000095,0.000048,0.000146,0.000000,0.000000,0.000000,0.000000,819,819,819,819
9773,0,0.125000,0.062500,0.000000,0.12,-0.06,-0.368421,0.006000,0.000000,0.000000,0.000000,0.000000,0.000000,0.000000,0.000095,0.000048,0.000221,0.000000,0.000000,0.000000,0.000000,819,819,819,819
9784,0,0.125000,0.062500,0.000000,0.06,-0.06,-0.315296,0.006000,0.000000,0.000000,0.000000,0.000000,0.000000,0.000000,0.000048,0.000048,0.000189,0.000000,0.000000,0.000000,0.000000,819,819,819,819
9794,0,0.125000,0.062500,0.000000,0.06,-0.06,-0.015765,0.006000,0.000000,0.000000,0.000000,0.000000,0.000000,0.000000,0.000048,0.000048,0.000009,0.000000,0.000000,0.000000,0.000000,819,819,819,819
9804,0,0.125000,0.062500,0.000000,0.12,-0.06,0.117962,0.006000,0.000000,0.000000,0.000000,0.000000,0.000000,0.000000,0.000095,0.000048,-0.000071,0.000000,0.000000,0.000000,0.000000,819,819,819,819
9814,0,0.125000,0.062500,0.000000,0.06,0.06,0.302773,0.006000,0.000000,0.000000,0.000000,0.000000,0.000000,0.000000,0.000048,-0.000048,-0.000182,0.000000,0.000000,0.000000,0.000000,819,819,819,819
9824,0,0.125000,0.062500,0.000000,0.00,-0.06,0.193264,0.006000,0.000000,0.000000,0.000000,0.000000,0.000000,0.000000,-0.000000,0.000048,-0.000116,0.000000,0.000000,0.000000,0.000000,819,819,819,819
9833,0,0.125000,0.062500,0.000000,0.12,0.06,0.128413,0.006000,0.000000,0.000000,0.000000,0.000000,0.000000,0.000000,0.000095,-0.000048,-0.000077,0.000000,0.000000,0.000000,0.000000,819,819,819,819
9844,0,0.125000,0.062500,0.000000,0.06,-0.06,-0.052954,0.006000,0.000000,0.000000,0.000000,0.000000,0.000000,0.000000,0.000048,0.000048,0.000032,0.000000,0.000000,0.000000,0.000000,819,819,819,819
9854,0,0.125000,0.062500,0.000000,-0.06,0.12,-0.240148,0.006000,0.000000,0.000000,0.000000,0.000000,0.000000,0.000000,-0.000048,-0.000095,0.000144,0.000000,0.000000,0.000000,0.000000,819,819,819,819
9864,0,0.125000,0.062500,0.000000,0.12,-0.06,-0.308882,0.006000,0.000000,0.000000,0.000000,0.000000,0.000000,0.000000,0.000095,0.000048,0.000185,0.000000,0.000000,0.000000,0.000000,819,819,819,819
9881,0,0.125000,0.062500,0.000000,0.06,-0.12,-0.252944,0.006000,0.000000,0.000000,0.000000,0.000000,0.000000,0.000000,0.000048,0.000095,0.000152,0.000000,0.000000,0.000000,0.000000,819,819,819,819
9894,0,0.125000,0.062500,0.000000,0.12,-0.18,0.046728,0.006000,0.000000,0.000000,0.000000,0.000000,0.000000,0.000000,0.000095,0.000143,-0.000028,0.000000,0.000000,0.000000,0.000000,819,819,819,819
9904,0,0.125000,0.062500,0.000000,-0.12,0.00,0.239836,0.006000,0.000000,0.000000,0.000000,0.000000,0.000000,0.000000,-0.000095,0.000000,-0.000144,0.000000,0.000000,0.000000,0.000000,819,819,819,819
9914,0,0.125000,0.062500,0.000000,0.00,0.00,0.368242,0.006000,0.000000,0.000000,0.000000,0.000000,0.000000,0.000000,-0.000000,0.000000,-0.000221,0.000000,0.000000,0.000000,0.000000,819,819,819,819
9924,0,0.125000,0.062500,0.000000,0.00,-0.06,0.196537,0.006000,0.000000,0.000000,0.000000,0.000000,0.000000,0.000000,-0.000000,0.000048,-0.000118,0.000000,0.000000,0.000000,0.000000,819,819,819,819
9934,0,0.125000,0.062500,0.000000,0.18,-0.06,-0.049548,0.006000,0.000000,0.000000,0.000000,0.000000,0.000000,0.000000,0.000143,0.000048,0.000030,0.000000,0.000000,0.000000,0.000000,819,819,819,819
9944,0,0.125000,0.062500,0.000000,0.12,0.00,-0.180602,0.006000,0.000000,0.000000,0.000000,0.000000,0.000000,0.000000,0.000095,0.000000,0.000108,0.000000,0.000000,0.000000,0.000000,819,819,819,819
9954,0,0.125000,0.062500,0.000000,0.12,0.12,-0.246530,0.006000,0.000000,0.000000,0.000000,0.000000,0.000000,0.000000,0.000095,-0.000095,0.000148,0.000000,0.000000,0.000000,0.000000,819,819,819,819
9964,0,0.125000,0.062500,0.000000,0.00,0.00,-0.071702,0.006000,0.000000,0.000000,0.000000,0.000000,0.000000,0.000000,-0.000000,0.000000,0.000043,0.000000,0.000000,0.000000,0.000000,819,819,819,819
9974,0,0.125000,0.062500,0.000000,0.06,0.00,-0.181710,0.006000,0.000000,0.000000,0.000000,0.000000,0.000000,0.000000,0.000048,0.000000,0.000109,0.000000,0.000000,0.000000,0.000000,819,819,819,819
9984,0,0.125000,0.062500,0.000000,0.12,-0.12,-0.009086,0.006000,0.000000,0.000000,0.000000,0.000000,0.000000,0.000000,0.000095,0.000095,0.000005,0.000000,0.000000,0.000000,0.000000,819,819,819,819
9994,0,0.125000,0.062500,0.000000,0.06,-0.12,0.118296,0.006000,0.000000,0.000000,0.000000,0.000000,0.000000,0.000000,0.000048,0.000095,-0.000071,0.000000,0.000000,0.000000,0.000000,819,819,819,819
10004,0,0.125000,0.062500,0.000000,-0.06,0.06,0.124665,0.006000,0.000000,0.000000,0.000000,0.000000,0.000000,0.000000,-0.000048,-0.000048,-0.000075,0.000000,0.000000,0.000000,0.000000,819,819,819,819
10014,0,0.125000,0.062500,0.000000,0.06,-0.18,0.124983,0.006000,0.000000,0.000000,0.000000,0.000000,0.000000,0.000000,0.000048,0.000143,-0.000075,0.000000,0.000000,0.000000,0.000000,819,819,819,819
10024,0,0.125000,0.062500,0.000000,0.06,-0.06,0.065624,0.006000,0.000000,0.000000,0.000000,0.000000,0.000000,0.000000,0.000048,0.000048,-0.000039,0.000000,0.000000,0.000000,0.000000,819,819,819,819
10036,0,0.125000,0.062500,0.000000,-0.06,-0.18,0.062656,0.006000,0.000000,0.000000,0.000000,0.000000,0.000000,0.000000,-0.000048,0.000143,-0.000038,0.000000,0.000000,0.000000,0.000000,819,819,819,819
10046,0,0.125000,0.062500,0.000000,0.00,-0.06,-0.174992,0.006000,0.000000,0.000000,0.000000,0.000000,0.000000,0.000000,-0.000000,0.000048,0.000105,0.000000,0.000000,0.000000,0.000000,819,819,819,819
10056,0,0.125000,0.062500,0.000000,0.12,0.18,-0.246250,0.006000,0.000000,0.000000,0.000000,0.000000,0.000000,0.000000,0.000095,-0.000143,0.000148,0.000000,0.000000,0.000000,0.000000,819,819,819,819
10065,0,0.125000,0.062500,0.000000,-0.06,0.30,-0.190437,0.006000,0.000000,0.000000,0.000000,0.000000,0.000000,0.000000,-0.000048,-0.000238,0.000114,0.000000,0.000000,0.000000,0.000000,819,819,819,819
10075,0,0.125000,0.062500,0.000000,0.00,0.00,-0.068897,0.006000,0.000000,0.000000,0.000000,0.000000,0.000000,0.000000,-0.000000,0.000000,0.000041,0.000000,0.000000,0.000000,0.000000,819,819,819,819
10085,0,0.125000,0.062500,0.000000,-0.06,0.18,0.055930,0.006000,0.000000,0.000000,0.000000,0.000000,0.000000,0.000000,-0.000048,-0.000143,-0.000034,0.000000,0.000000,0.000000,0.000000,819,819,819,819
10095,0,0.125000,0.062500,0.000000,0.06,0.18,-0.175328,0.006000,0.000000,0.000000,0.000000,0.000000,0.000000,0.000000,0.000048,-0.000143,0.000105,0.000000,0.000000,0.000000,0.000000,819,819,819,819
10104,0,0.125000,0.062500,0.000000,0.06,0.12,-0.127516,0.007000,0.000000,0.000000,0.000000,0.000000,0.000000,0.000000,0.000048,-0.000095,0.000077,0.000000,0.000000,0.000000,0.000000,819,819,819,819
10114,0,0.125000,0.062500,0.000000,-0.06,0.24,0.052999,0.007000,0.000000,0.000000,0.000000,0.000000,0.000000,0.000000,-0.000048,-0.000190,-0.000032,0.000000,0.000000,0.000000,0.000000,819,819,819,819
10124,0,0.125000,0.062500,0.000000,-0.06,0.06,0.062025,0.007000,0.000000,0.000000,0.000000,0.000000,0.000000,0.000000,-0.000048,-0.000048,-0.000037,0.000000,0.000000,0.000000,0.000000,819,819,819,819
10134,0,0.125000,0.062500,0.000000,0.06,0.12,-0.056274,0.007000,0.000000,0.000000,0.000000,0.000000,0.000000,0.000000,0.000048,-0.000095,0.000034,0.000000,0.000000,0.000000,0.000000,819,819,819,819
10144,0,0.125000,0.062500,0.000000,0.00,0.06,0.056561,0.007000,0.000000,0.000000,0.000000,0.000000,0.000000,0.000000,-0.000000,-0.000048,-0.000034,0.000000,0.000000,0.000000,0.000000,819,819,819,819
10154,0,0.125000,0.062500,0.000000,0.00,0.06,0.002828,0.007000,0.000000,0.000000,0.000000,0.000000,0.000000,0.000000,-0.000000,-0.000048,-0.000002,0.000000,0.000000,0.000000,0.000000,819,819,819,819
10164,0,0.125000,0.062500,0.000000,0.00,0.06,-0.118609,0.007000,0.000000,0.000000,0.000000,0.000000,0.000000,0.000000,-0.000000,-0.000048,0.000071,0.000000,0.000000,0.000000,0.000000,819,819,819,819
10174,0,0.125000,0.062500,0.000000,0.00,0.00,-0.124680,0.007000,0.000000,0.000000,0.000000,0.000000,0.000000,0.000000,-0.000000,0.000000,0.000075,0.000000,0.000000,0.000000,0.000000,819,819,819,819
10184,0,0.125000,0.062500,0.000000,-0.06,0.00,-0.124984,0.007000,0.000000,0.000000,0.000000,0.000000,0.000000,0.000000,-0.000048,0.000000,0.000075,0.000000,0.000000,0.000000,0.000000,819,819,819,819
10199,0,0.125000,0.062500,0.000000,-0.06,-0.06,-0.006249,0.007000,0.000000,0.000000,0.000000,0.000000,0.000000,0.000000,-0.000048,0.000048,0.000004,0.000000,0.000000,0.000000,0.000000,819,819,819,819
10211,0,0.125000,0.062500,0.000000,0.12,0.00,-0.059687,0.007000,0.000000,0.000000,0.000000,0.000000,0.000000,0.000000,0.000095,0.000000,0.000036,0.000000,0.000000,0.000000,0.000000,819,819,819,819
10224,0,0.125000,0.062500,0.000000,-0.06,-0.06,-0.002984,0.007000,0.000000,0.000000,0.000000,0.000000,0.000000,0.000000,-0.000048,0.000048,0.000002,0.000000,0.000000,0.000000,0.000000,819,819,819,819
10234,0,0.125000,0.062500,0.000000,-0.12,0.06,0.059226,0.007000,0.000000,0.000000,0.000000,0.000000,0.000000,0.000000,-0.000095,-0.000048,-0.000036,0.000000,0.000000,0.000000,0.000000,819,819,819,819
10244,0,0.125000,0.062500,0.000000,0.00,0.30,-0.115789,0.007000,0.000000,0.000000,0.000000,0.000000,0.000000,0.000000,-0.000000,-0.000238,0.000070,0.000000,0.000000,0.000000,0.000000,819,819,819,819
10254,0,0.125000,0.062500,0.000000,0.06,0.24,-0.065164,0.007000,0.000000,0.000000,0.000000,0.000000,0.000000,0.000000,0.000048,-0.000190,0.000039,0.000000,0.000000,0.000000,0.000000,819,819,819,819
10264,0,0.125000,0.062500,0.000000,0.00,0.06,0.174867,0.007000,0.000000,0.000000,0.000000,0.000000,0.000000,0.000000,-0.000000,-0.000048,-0.000105,0.000000,0.000000,0.000000,0.000000,819,819,819,819
10274,0,0.125000,0.062500,0.000000,0.00,0.12,0.068118,0.008000,0.000000,0.000000,0.000000,0.000000,0.000000,0.000000,-0.000000,-0.000095,-0.000041,0.000000,0.000000,0.000000,0.000000,819,819,819,819
10284,0,0.125000,0.062500,0.000000,0.00,0.18,-0.115344,0.008000,0.000000,0.000000,0.000000,0.000000,0.000000,0.000000,-0.000000,-0.000143,0.000069,0.000000,0.000000,0.000000,0.000000,819,819,819,819
10294,0,0.125000,0.062500,0.000000,-0.18,0.00,-0.124517,0.008000,0.000000,0.000000,0.000000,0.000000,0.000000,0.000000,-0.000143,0.000000,0.000075,0.000000,0.000000,0.000000,0.000000,819,819,819,819
10304,0,0.125000,0.062500,0.000000,-0.12,-0.12,-0.065601,0.008000,0.000000,0.000000,0.000000,0.000000,0.000000,0.000000,-0.000095,0.000095,0.000039,0.000000,0.000000,0.000000,0.000000,819,819,819,819
10314,0,0.125000,0.062500,0.000000,0.12,-0.06,-0.003280,0.008000,0.000000,0.000000,0.000000,0.000000,0.000000,0.000000,0.000095,0.000048,0.000002,0.000000,0.000000,0.000000,0.000000,819,819,819,819
10324,0,0.125000,0.062500,0.000000,0.06,0.06,-0.059539,0.008000,0.000000,0.000000,0.000000,0.000000,0.000000,0.000000,0.000048,-0.000048,0.000036,0.000000,0.000000,0.000000,0.000000,819,819,819,819
10334,0,0.125000,0.062500,0.000000,0.06,0.36,0.056398,0.008000,0.000000,0.000000,0.000000,0.000000,0.000000,0.000000,0.000048,-0.000285,-0.000034,0.000000,0.000000,0.000000,0.000000,819,819,819,819
10345,0,0.125000,0.062500,0.000000,-0.06,0.12,0.121570,0.008000,0.000000,0.000000,0.000000,0.000000,0.000000,0.000000,-0.000048,-0.000095,-0.000073,0.000000,0.000000,0.000000,0.000000,819,819,819,819
10354,0,0.125000,0.062500,0.000000,-0.06,-0.06,0.006078,0.008000,0.000000,0.000000,0.000000,0.000000,0.000000,0.000000,-0.000048,0.000048,-0.000004,0.000000,0.000000,0.000000,0.000000,819,819,819,819
10364,0,0.125000,0.062500,0.000000,-0.06,-0.06,0.000304,0.008000,0.000000,0.000000,0.000000,0.000000,0.000000,0.000000,-0.000048,0.000048,-0.000000,0.000000,0.000000,0.000000,0.000000,819,819,819,819
10374,0,0.125000,0.062500,0.000000,-0.06,0.06,0.118765,0.008000,0.000000,0.000000,0.000000,0.000000,0.000000,0.000000,-0.000048,-0.000048,-0.000071,0.000000,0.000000,0.000000,0.000000,819,819,819,819
10387,0,0.125000,0.062500,0.000000,0.06,0.00,0.005938,0.008000,0.000000,0.000000,0.000000,0.000000,0.000000,0.000000,0.000048,0.000000,-0.000004,0.000000,0.000000,0.000000,0.000000,819,819,819,819
10397,0,0.125000,0.062500,0.000000,-0.06,0.00,-0.118453,0.008000,0.000000,0.000000,0.000000,0.000000,0.000000,0.000000,-0.000048,0.000000,0.000071,0.000000,0.000000,0.000000,0.000000,819,819,819,819
10406,0,0.125000,0.062500,0.000000,-0.06,-0.12,-0.184048,0.008000,0.000000,0.000000,0.000000,0.000000,0.000000,0.000000,-0.000048,0.000095,0.000110,0.000000,0.000000,0.000000,0.000000,819,819,819,819
10416,0,0.125000,0.062500,0.000000,0.00,0.24,-0.068577,0.008000,0.000000,0.000000,0.000000,0.000000,0.000000,0.000000,-0.000000,-0.000190,0.000041,0.000000,0.000000,0.000000,0.000000,819,819,819,819
10426,0,0.125000,0.062500,0.000000,0.00,-0.06,-0.062804,0.008000,0.000000,0.000000,0.000000,0.000000,0.000000,0.000000,-0.000000,0.000048,0.000038,0.000000,0.000000,0.000000,0.000000,819,819,819,819
10435,0,0.125000,0.062500,0.000000,0.00,0.00,0.056235,0.008000,0.000000,0.000000,0.000000,0.000000,0.000000,0.000000,-0.000000,0.000000,-0.000034,0.000000,0.000000,0.000000,0.000000,819,819,819,819
10445,0,0.125000,0.062500,0.000000,0.00,-0.12,0.121562,0.008000,0.000000,0.000000,0.000000,0.000000,0.000000,0.000000,-0.000000,0.000095,-0.000073,0.000000,0.000000,0.000000,0.000000,819,819,819,819
10455,0,0.125000,0.062500,0.000000,-0.06,-0.12,0.124828,0.008000,0.000000,0.000000,0.000000,0.000000,0.000000,0.000000,-0.000048,0.000095,-0.000075,0.000000,0.000000,0.000000,0.000000,819,819,819,819
10465,0,0.125000,0.062500,0.000000,-0.06,-0.06,0.184366,0.008000,0.000000,0.000000,0.000000,0.000000,0.000000,0.000000,-0.000048,0.000048,-0.000111,0.000000,0.000000,0.000000,0.000000,819,819,819,819
10475,0,0.125000,0.062500,0.000000,-0.06,0.12,0.068593,0.008000,0.000000,0.000000,0.000000,0.000000,0.000000,0.000000,-0.000048,-0.000095,-0.000041,0.000000,0.000000,0.000000,0.000000,819,819,819,819
10485,0,0.125000,0.062500,0.000000,-0.12,-0.18,-0.115320,0.008000,0.000000,0.000000,0.000000,0.000000,0.000000,0.000000,-0.000095,0.000143,0.000069,0.000000,0.000000,0.000000,0.000000,819,819,819,819
10495,0,0.125000,0.062500,0.000000,0.00,-0.06,-0.183891,0.008000,0.000000,0.000000,0.000000,0.000000,0.000000,0.000000,-0.000000,0.000048,0.000110,0.000000,0.000000,0.000000,0.000000,819,819,819,819
10512,0,0.125000,0.062500,0.000000,0.00,-0.12,-0.187320,0.008000,0.000000,0.000000,0.000000,0.000000,0.000000,0.000000,-0.000000,0.000095,0.000112,0.000000,0.000000,0.000000,0.000000,819,819,819,819
10524,0,0.125000,0.062500,0.000000,0.00,0.00,-0.068741,0.008000,0.000000,0.000000,0.000000,0.000000,0.000000,0.000000,-0.000000,0.000000,0.000041,0.000000,0.000000,0.000000,0.000000,819,819,819,819
10534,0,0.125000,0.062500,0.000000,0.06,0.00,0.055938,0.008000,0.000000,0.000000,0.000000,0.000000,0.000000,0.000000,0.000048,0.000000,-0.000034,0.000000,0.000000,0.000000,0.000000,819,819,819,819
10545,0,0.125000,0.062500,0.000000,-0.06,0.00,0.062172,0.008000,0.000000,0.000000,0.000000,0.000000,0.000000,0.000000,-0.000048,0.000000,-0.000037,0.000000,0.000000,0.000000,0.000000,819,819,819,819
10555,0,0.125000,0.062500,0.000000,0.00,0.24,0.240609,0.008000,0.000000,0.000000,0.000000,0.000000,0.000000,0.000000,-0.000000,-0.000190,-0.000144,0.000000,0.000000,0.000000,0.000000,819,819,819,819
10565,0,0.125000,0.062500,0.000000,0.00,0.24,0.190155,0.008000,0.000000,0.000000,0.000000,0.000000,0.000000,0.000000,-0.000000,-0.000190,-0.000114,0.000000,0.000000,0.000000,0.000000,819,819,819,819
10575,0,0.125000,0.062500,0.000000,0.00,0.42,0.009508,0.008000,0.000000,0.000000,0.000000,0.000000,0.000000,0.000000,-0.000000,-0.000333,-0.000006,0.000000,0.000000,0.000000,0.000000,819,819,819,819
10585,0,0.125000,0.062500,0.000000,0.06,0.18,-0.177650,0.008000,0.000000,0.000000,0.000000,0.000000,0.000000,0.000000,0.000048,-0.000143,0.000107,0.000000,0.000000,0.000000,0.000000,819,819,819,819
10595,0,0.125000,0.062500,0.000000,-0.12,-0.06,-0.246382,0.008000,0.000000,0.000000,0.000000,0.000000,0.000000,0.000000,-0.000095,0.000048,0.000148,0.000000,0.000000,0.000000,0.000000,819,819,819,819
10605,0,0.125000,0.062500,0.000000,0.06,0.06,-0.131069,0.008000,0.000000,0.000000,0.000000,0.000000,0.000000,0.000000,0.000048,-0.000048,0.000079,0.000000,0.000000,0.000000,0.000000,819,819,819,819
10615,0,0.125000,0.062500,0.000000,-0.06,-0.12,-0.125303,0.008000,0.000000,0.000000,0.000000,0.000000,0.000000,0.000000,-0.000048,0.000095,0.000075,0.000000,0.000000,0.000000,0.000000,819,819,819,819
10625,0,0.125000,0.062500,0.000000,0.06,-0.18,-0.125015,0.008000,0.000000,0.000000,0.000000,0.000000,0.000000,0.000000,0.000048,0.000143,0.000075,0.000000,0.000000,0.000000,0.000000,819,819,819,819
10635,0,0.125000,0.062500,0.000000,0.06,0.12,-0.065626,0.008000,0.000000,0.000000,0.000000,0.000000,0.000000,0.000000,0.000048,-0.000095,0.000039,0.000000,0.000000,0.000000,0.000000,819,819,819,819
10645,0,0.125000,0.062500,0.000000,0.00,0.18,0.234219,0.008000,0.000000,0.000000,0.000000,0.000000,0.000000,0.000000,-0.000000,-0.000143,-0.000141,0.000000,0.000000,0.000000,0.000000,819,819,819,819
10655,0,0.125000,0.062500,0.000000,-0.06,0.24,0.249211,0.008000,0.000000,0.000000,0.000000,0.000000,0.000000,0.000000,-0.000048,-0.000190,-0.000150,0.000000,0.000000,0.000000,0.000000,819,819,819,819
10665,0,0.125000,0.062500,0.000000,-0.06,0.06,0.190586,0.008000,0.000000,0.000000,0.000000,0.000000,0.000000,0.000000,-0.000048,-0.000048,-0.000114,0.000000,0.000000,0.000000,0.000000,819,819,819,819
10675,0,0.125000,0.062500,0.000000,0.06,0.12,0.068904,0.008000,0.000000,0.000000,0.000000,0.000000,0.000000,0.000000,0.000048,-0.000095,-0.000041,0.000000,0.000000,0.000000,0.000000,819,819,819,819
10685,0,0.125000,0.062500,0.000000,-0.18,0.06,-0.115305,0.008000,0.000000,0.000000,0.000000,0.000000,0.000000,0.000000,-0.000143,-0.000048,0.000069,0.000000,0.000000,0.000000,0.000000,819,819,819,819
10695,0,0.125000,0.062500,0.000000,-0.06,0.30,-0.421390,0.008000,0.000000,0.000000,0.000000,0.000000,0.000000,0.000000,-0.000048,-0.000238,0.000253,0.000000,0.000000,0.000000,0.000000,819,819,819,819
10705,0,0.125000,0.062500,0.000000,-0.06,0.18,-0.436695,0.009000,0.000000,0.000000,0.000000,0.000000,0.000000,0.000000,-0.000048,-0.000143,0.000262,0.000000,0.000000,0.000000,0.000000,819,819,819,819
10715,0,0.125000,0.062500,0.000000,0.12,0.00,-0.081210,0.009000,0.000000,0.000000,0.000000,0.000000,0.000000,0.000000,0.000095,0.000000,0.000049,0.000000,0.000000,0.000000,0.000000,819,819,819,819
10725,0,0.125000,0.062500,0.000000,-0.06,0.00,0.055315,0.009000,0.000000,0.000000,0.000000,0.000000,0.000000,0.000000,-0.000048,0.000000,-0.000033,0.000000,0.000000,0.000000,0.000000,819,819,819,819
10735,0,0.125000,0.062500,0.000000,0.06,0.24,0.002766,0.009000,0.000000,0.000000,0.000000,0.000000,0.000000,0.000000,0.000048,-0.000190,-0.000002,0.000000,0.000000,0.000000,0.000000,819,819,819,819
10745,0,0.125000,0.062500,0.000000,0.12,0.00,0.118888,0.009000,0.000000,0.000000,0.000000,0.000000,0.000000,0.000000,0.000095,0.000000,-0.000071,0.000000,0.000000,0.000000,0.000000,819,819,819,819
10755,0,0.125000,0.062500,0.000000,0.06,0.06,0.124694,0.009000,0.000000,0.000000,0.000000,0.000000,0.000000,0.000000,0.000048,-0.000048,-0.000075,0.000000,0.000000,0.000000,0.000000,819,819,819,819
10765,0,0.125000,0.062500,0.000000,0.00,0.18,0.184360,0.009000,0.000000,0.000000,0.000000,0.000000,0.000000,0.000000,-0.000000,-0.000143,-0.000111,0.000000,0.000000,0.000000,0.000000,819,819,819,819
10775,0,0.125000,0.062500,0.000000,-0.12,0.12,0.009218,0.009000,0.000000,0.000000,0.000000,0.000000,0.000000,0.000000,-0.000095,-0.000095,-0.000006,0.000000,0.000000,0.000000,0.000000,819,819,819,819
10785,0,0.125000,0.062500,0.000000,0.00,-0.06,-0.118289,0.009000,0.000000,0.000000,0.000000,0.000000,0.000000,0.000000,-0.000000,0.000048,0.000071,0.000000,0.000000,0.000000,0.000000,819,819,819,819
10795,0,0.125000,0.062500,0.000000,0.00,0.06,-0.065289,0.009000,0.000000,0.000000,0.000000,0.000000,0.000000,0.000000,-0.000000,-0.000048,0.000039,0.000000,0.000000,0.000000,0.000000,819,819,819,819
10805,0,0.125000,0.062500,0.000000,-0.12,0.00,-0.240764,0.009000,0.000000,0.000000,0.000000,0.000000,0.000000,0.000000,-0.000095,0.000000,0.000145,0.000000,0.000000,0.000000,0.000000,819,819,819,819
10815,0,0.125000,0.062500,0.000000,-0.06,0.06,-0.130788,0.009000,0.000000,0.000000,0.000000,0.000000,0.000000,0.000000,-0.000048,-0.000048,0.000079,0.000000,0.000000,0.000000,0.000000,819,819,819,819
10831,0,0.125000,0.062500,0.000000,-0.06,-0.06,-0.125289,0.009000,0.000000,0.000000,0.000000,0.000000,0.000000,0.000000,-0.000048,0.000048,0.000075,0.000000,0.000000,0.000000,0.000000,819,819,819,819
10844,0,0.125000,0.062500,0.000000,0.00,0.06,-0.006264,0.010000,0.000000,0.000000,0.000000,0.000000,0.000000,0.000000,-0.000000,-0.000048,0.000004,0.000000,0.000000,0.000000,0.000000,819,819,819,819
10856,0,0.125000,0.062500,0.000000,-0.06,-0.06,0.059062,0.009000,0.000000,0.000000,0.000000,0.000000,0.000000,0.000000,-0.000048,0.000048,-0.000035,0.000000,0.000000,0.000000,0.000000,819,819,819,819
10866,0,0.125000,0.062500,0.000000,-0.12,-0.06,0.062328,0.010000,0.000000,0.000000,0.000000,0.000000,0.000000,0.000000,-0.000095,0.000048,-0.000037,0.000000,0.000000,0.000000,0.000000,819,819,819,819
10876,0,0.125000,0.062500,0.000000,-0.12,-0.06,-0.056259,0.010000,0.000000,0.000000,0.000000,0.000000,0.000000,0.000000,-0.000095,0.000048,0.000034,0.000000,0.000000,0.000000,0.000000,819,819,819,819
10885,0,0.125000,0.062500,0.000000,0.00,-0.12,-0.180938,0.010000,0.000000,0.000000,0.000000,0.000000,0.000000,0.000000,-0.000000,0.000095,0.000109,0.000000,0.000000,0.000000,0.000000,819,819,819,819
10895,0,0.125000,0.062500,0.000000,0.12,0.12,-0.127797,0.010000,0.000000,0.000000,0.000000,0.000000,0.000000,0.000000,0.000095,-0.000095,0.000077,0.000000,0.000000,0.000000,0.000000,819,819,819,819
10905,0,0.125000,0.062500,0.000000,0.06,0.12,-0.125140,0.010000,0.000000,0.000000,0.000000,0.000000,0.000000,0.000000,0.000048,-0.000095,0.000075,0.000000,0.000000,0.000000,0.000000,819,819,819,819
10915,0,0.125000,0.062500,0.000000,0.00,0.06,-0.006257,0.010000,0.000000,0.000000,0.000000,0.000000,0.000000,0.000000,-0.000000,-0.000048,0.000004,0.000000,0.000000,0.000000,0.000000,819,819,819,819
10925,0,0.125000,0.062500,0.000000,0.06,0.06,-0.000313,0.010000,0.000000,0.000000,0.000000,0.000000,0.000000,0.000000,0.000048,-0.000048,0.000000,0.000000,0.000000,0.000000,0.000000,819,819,819,819
