t,is_crashed,roll,pitch,yaw,p,q,r,throttle,p_cmd,q_cmd,r_cmd,roll_cmd,pitch_cmd,yaw_cmd,roll_pid_out,pitch_pid_out,yaw_pid_out,motor_fl,motor_bl,motor_fr,motor_br,pwm_fl,pwm_bl,pwm_fr,pwm_br
7431,0,0.500000,0.175000,71.987503,0.00,0.00,0.000104,-1.000000,-600.000000,-600.000000,0.000000,0.000000,0.000000,0.000000,0.310000,-0.310000,-0.000001,0.000000,0.000000,0.000000,0.000000,0,0,0,0
7443,0,0.800000,0.280000,129.577499,0.12,0.04,0.000405,-1.000000,-600.000000,-600.000000,0.000000,0.000000,0.000000,0.000000,0.310000,-0.310000,-0.000004,0.000000,0.000000,0.000000,0.000000,819,819,819,819
7453,0,1.040000,0.364000,175.649506,0.23,0.08,0.000573,-1.000000,-600.000000,-600.000000,0.000000,0.000000,0.000000,0.000000,0.310000,-0.310000,-0.000006,0.000000,0.000000,0.000000,0.000000,819,819,819,819
7463,0,1.232000,0.431200,-147.492889,0.30,0.11,0.000415,-1.000000,-600.000000,-600.000000,0.000000,0.000000,0.000000,0.000000,0.310000,-0.310000,-0.000005,0.000000,0.000000,0.000000,0.000000,819,819,819,819
7473,0,1.385600,0.484960,-118.006805,0.35,0.12,0.000583,-1.000000,-600.000000,-600.000000,0.000000,0.000000,0.000000,0.000000,0.310000,-0.310000,-0.000007,0.000000,0.000000,0.000000,0.000000,819,819,819,819
7484,0,1.508480,0.527968,-94.417938,0.37,0.13,0.000528,-1.000000,-600.000000,-600.000000,0.000000,0.000000,0.000000,0.000000,0.310000,-0.310000,-0.000006,0.000000,0.000000,0.000000,0.000000,819,819,819,819
7493,0,1.606784,0.562374,-75.546844,0.39,0.14,0.000581,-1.000000,-600.000000,-600.000000,0.000000,0.000000,0.000000,0.000000,0.310000,-0.310000,-0.000007,0.000000,0.000000,0.000000,0.000000,819,819,819,819
7503,0,1.685427,0.589900,-60.449982,0.39,0.14,0.000526,-1.000000,-600.000000,-600.000000,0.000000,0.000000,0.000000,0.000000,0.310000,-0.310000,-0.000007,0.000000,0.000000,0.000000,0.000000,819,819,819,819
7513,0,1.748342,0.611920,-48.372498,0.38,0.13,0.000683,-1.000000,-600.000000,-600.000000,0.000000,0.000000,0.000000,0.000000,0.310000,-0.310000,-0.000009,0.000000,0.000000,0.000000,0.000000,819,819,819,819
7523,0,1.798673,0.629536,-38.710510,0.37,0.13,0.000618,-1.000000,-600.000000,-600.000000,0.000000,0.000000,0.000000,0.000000,0.310000,-0.310000,-0.000008,0.000000,0.000000,0.000000,0.000000,819,819,819,819
7533,0,1.838939,0.643629,-30.980927,0.35,0.12,0.000767,-1.000000,-600.000000,-600.000000,0.000000,0.000000,0.000000,0.000000,0.310000,-0.310000,-0.000010,0.000000,0.000000,0.000000,0.000000,819,819,819,819
7543,0,1.871151,0.654903,-24.797241,0.33,0.12,0.001005,-1.000000,-600.000000,-600.000000,0.000000,0.000000,0.000000,0.000000,0.310000,-0.310000,-0.000013,0.000000,0.000000,0.000000,0.000000,819,819,819,819
7553,0,1.896921,0.663922,-19.850311,0.31,0.11,0.000909,-1.000000,-600.000000,-600.000000,0.000000,0.000000,0.000000,0.000000,0.310000,-0.310000,-0.000012,0.000000,0.000000,0.000000,0.000000,819,819,819,819
7563,0,1.917537,0.671138,-15.892761,0.29,0.10,0.000823,-1.000000,-600.000000,-600.000000,0.000000,0.000000,0.000000,0.000000,0.310000,-0.310000,-0.000012,0.000000,0.000000,0.000000,0.000000,819,819,819,819
7573,0,1.934029,0.676910,-12.726715,0.27,0.10,0.000849,-1.000000,-600.000000,-600.000000,0.000000,0.000000,0.000000,0.000000,0.310000,-0.310000,-0.000012,0.000000,0.000000,0.000000,0.000000,819,819,819,819
7584,0,1.947223,0.681528,-10.193878,0.25,0.09,0.000664,-1.000000,-600.000000,-600.000000,0.000000,0.000000,0.000000,0.000000,0.310000,-0.310000,-0.000011,0.000000,0.000000,0.000000,0.000000,819,819,819,819
7594,0,1.957779,0.685223,-8.167603,0.23,0.08,0.000601,-1.000000,-600.000000,-600.000000,0.000000,0.000000,0.000000,0.000000,0.310000,-0.310000,-0.000010,0.000000,0.000000,0.000000,0.000000,819,819,819,819
7603,0,1.966223,0.688178,-6.546600,0.21,0.07,0.000544,-1.000000,-600.000000,-600.000000,0.000000,0.000000,0.000000,0.000000,0.310000,-0.310000,-0.000010,0.000000,0.000000,0.000000,0.000000,819,819,819,819
7613,0,1.972978,0.690542,-5.249786,0.19,0.07,0.000492,-1.000000,-600.000000,-600.000000,0.000000,0.000000,0.000000,0.000000,0.310000,-0.310000,-0.000009,0.000000,0.000000,0.000000,0.000000,819,819,819,819
7624,0,1.978383,0.692434,-4.212341,0.18,0.06,0.000549,-1.000000,-600.000000,-600.000000,0.000000,0.000000,0.000000,0.000000,0.310000,-0.310000,-0.000010,0.000000,0.000000,0.000000,0.000000,819,819,819,819
7634,0,1.982706,0.693947,-3.382385,0.16,0.06,0.000601,-1.000000,-600.000000,-600.000000,0.000000,0.000000,0.000000,0.000000,0.310000,-0.310000,-0.000011,0.000000,0.000000,0.000000,0.000000,819,819,819,819
7643,0,1.986165,0.695158,-2.718414,0.15,0.05,0.000647,-1.000000,-600.000000,-600.000000,0.000000,0.000000,0.000000,0.000000,0.310000,-0.310000,-0.000012,0.000000,0.000000,0.000000,0.000000,819,819,819,819
7653,0,1.988932,0.696126,-2.187225,0.13,0.05,0.000171,-1.000000,-600.000000,-600.000000,0.000000,0.000000,0.000000,0.000000,0.310000,-0.310000,-0.000007,0.000000,0.000000,0.000000,0.000000,819,819,819,819
7664,0,1.991145,0.696901,-1.762299,0.12,0.04,0.000155,-1.000000,-600.000000,-600.000000,0.000000,0.000000,0.000000,0.000000,0.310000,-0.310000,-0.000007,0.000000,0.000000,0.000000,0.000000,819,819,819,819
7674,0,1.992916,0.697521,-1.422333,0.11,0.04,0.000037,-1.000000,-600.000000,-600.000000,0.000000,0.000000,0.000000,0.000000,0.310000,-0.310000,-0.000006,0.000000,0.000000,0.000000,0.000000,819,819,819,819
7684,0,1.994333,0.698017,-1.150360,0.10,0.03,-0.000070,-1.000000,-600.000000,-600.000000,0.000000,0.000000,0.000000,0.000000,0.310000,-0.310000,-0.000004,0.000000,0.000000,0.000000,0.000000,819,819,819,819
7694,0,1.995466,0.698413,-0.932800,0.09,0.03,-0.000271,-1.000000,-600.000000,-600.000000,0.000000,0.000000,0.000000,0.000000,0.310000,-0.310000,-0.000002,0.000000,0.000000,0.000000,0.000000,819,819,819,819
7704,0,1.996373,0.698731,-0.758759,0.08,0.03,-0.000245,-1.000000,-600.000000,-600.000000,0.000000,0.000000,0.000000,0.000000,0.310000,-0.310000,-0.000002,0.000000,0.000000,0.000000,0.000000,819,819,819,819
7714,0,1.997099,0.698984,-0.619507,0.07,0.03,-0.000429,-1.000000,-600.000000,-600.000000,0.000000,0.000000,0.000000,0.000000,0.310000,-0.310000,-0.000000,0.000000,0.000000,0.000000,0.000000,819,819,819,819
7724,0,1.997679,0.699188,-0.508118,0.07,0.02,-0.000285,-1.000000,-600.000000,-600.000000,0.000000,0.000000,0.000000,0.000000,0.310000,-0.310000,-0.000002,0.000000,0.000000,0.000000,0.000000,819,819,819,819
7734,0,1.998143,0.699350,-0.419006,0.06,0.02,-0.000051,-1.000000,-600.000000,-600.000000,0.000000,0.000000,0.000000,0.000000,0.310000,-0.310000,-0.000004,0.000000,0.000000,0.000000,0.000000,819,819,819,819
7751,0,1.998514,0.699480,-0.347717,0.05,0.02,-0.000046,-1.000000,-600.000000,-600.000000,0.000000,0.000000,0.000000,0.000000,0.310000,-0.310000,-0.000004,0.000000,0.000000,0.000000,0.000000,819,819,819,819
7763,0,1.998811,0.699584,-0.290680,0.05,0.02,-0.000145,-1.000000,-600.000000,-600.000000,0.000000,0.000000,0.000000,0.000000,0.310000,-0.310000,-0.000003,0.000000,0.000000,0.000000,0.000000,819,819,819,819
7773,0,1.999049,0.699667,-0.245056,0.04,0.02,-0.000442,-1.000000,-600.000000,-600.000000,0.000000,0.000000,0.000000,0.000000,0.310000,-0.310000,0.000000,0.000000,0.000000,0.000000,0.000000,819,819,819,819
7784,0,1.999239,0.699734,-0.208557,0.04,0.01,-0.000607,-1.000000,-600.000000,-600.000000,0.000000,0.000000,0.000000,0.000000,0.310000,-0.310000,0.000002,0.000000,0.000000,0.000000,0.000000,819,819,819,819
7794,0,1.999391,0.699787,-0.179352,0.04,0.01,-0.000550,-1.000000,-600.000000,-600.000000,0.000000,0.000000,0.000000,0.000000,0.310000,-0.310000,0.000002,0.000000,0.000000,0.000000,0.000000,819,819,819,819
7804,0,1.999513,0.699830,-0.155975,0.03,0.01,-0.000705,-1.000000,-600.000000,-600.000000,0.000000,0.000000,0.000000,0.000000,0.310000,-0.310000,0.000003,0.000000,0.000000,0.000000,0.000000,819,819,819,819
7814,0,1.999611,0.699864,-0.137299,0.03,0.01,-0.000534,-1.000000,-600.000000,-600.000000,0.000000,0.000000,0.000000,0.000000,0.310000,-0.310000,0.000002,0.000000,0.000000,0.000000,0.000000,819,819,819,819
7824,0,1.999688,0.699891,-0.122345,0.03,0.00,-0.000380,-1.000000,-600.000000,-600.000000,0.000000,0.000000,0.000000,0.000000,0.310000,-0.310000,0.000000,0.000000,0.000000,0.000000,0.000000,819,819,819,819
7834,0,1.999751,0.699913,-0.110382,0.02,0.00,-0.000551,-1.000000,-600.000000,-600.000000,0.000000,0.000000,0.000000,0.000000,0.310000,-0.310000,0.000002,0.000000,0.000000,0.000000,0.000000,819,819,819,819
7844,0,1.999801,0.699930,-0.100800,0.02,0.00,-0.000499,-1.000000,-600.000000,-600.000000,0.000000,0.000000,0.000000,0.000000,0.310000,-0.310000,0.000002,0.000000,0.000000,0.000000,0.000000,819,819,819,819
7854,0,1.999840,0.699944,-0.093140,0.02,0.00,-0.000762,-1.000000,-600.000000,-600.000000,0.000000,0.000000,0.000000,0.000000,0.310000,-0.310000,0.000005,0.000000,0.000000,0.000000,0.000000,819,819,819,819
7864,0,1.999872,0.699955,-0.087006,0.02,0.00,-0.000690,-1.000000,-600.000000,-600.000000,0.000000,0.000000,0.000000,0.000000,0.310000,-0.310000,0.000005,0.000000,0.000000,0.000000,0.000000,819,819,819,819
7874,0,1.999898,0.699964,-0.082123,0.02,0.00,-0.000624,-1.000000,-600.000000,-600.000000,0.000000,0.000000,0.000000,0.000000,0.310000,-0.310000,0.000004,0.000000,0.000000,0.000000,0.000000,819,819,819,819
7884,0,1.999918,0.699971,-0.078217,0.01,0.00,-0.000772,-1.000000,-600.000000,-600.000000,0.000000,0.000000,0.000000,0.000000,0.310000,-0.310000,0.000006,0.000000,0.000000,0.000000,0.000000,819,819,819,819
7894,0,1.999935,0.699977,-0.075073,0.01,0.00,-0.001113,-1.000000,-600.000000,-600.000000,0.000000,0.000000,0.000000,0.000000,0.310000,-0.310000,0.000010,0.000000,0.000000,0.000000,0.000000,819,819,819,819
7904,0,1.999948,0.699982,-0.072571,0.01,0.00,-0.001526,-1.000000,-600.000000,-600.000000,0.000000,0.000000,0.000000,0.000000,0.310000,-0.310000,0.000015,0.000000,0.000000,0.000000,0.000000,819,819,819,819
7914,0,1.999958,0.699985,-0.070557,0.01,0.00,-0.001692,-1.000000,-600.000000,-600.000000,0.000000,0.000000,0.000000,0.000000,0.310000,-0.310000,0.000017,0.000000,0.000000,0.000000,0.000000,819,819,819,819
7924,0,1.999967,0.699988,-0.068939,0.00,0.00,-0.000702,-1.000000,-600.000000,-600.000000,0.000000,0.000000,0.000000,0.000000,0.310000,-0.310000,0.000007,0.000000,0.000000,0.000000,0.000000,819,819,819,819
7935,0,1.999973,0.699991,-0.067657,0.00,0.00,-0.000013,-1.000000,-600.000000,-600.000000,0.000000,0.000000,0.000000,0.000000,0.310000,-0.310000,0.000000,0.000000,0.000000,0.000000,0.000000,819,819,819,819
7944,0,1.999979,0.699992,-0.066620,0.00,0.00,-0.000219,-1.000000,-600.000000,-600.000000,0.000000,0.000000,0.000000,0.000000,0.310000,-0.310000,0.000002,0.000000,0.000000,0.000000,0.000000,819,819,819,819
7954,0,1.999983,0.699994,-0.065796,0.00,0.00,-0.000613,-1.000000,-600.000000,-600.000000,0.000000,0.000000,0.000000,0.000000,0.310000,-0.310000,0.000007,0.000000,0.000000,0.000000,0.000000,819,819,819,819
7964,0,1.999986,0.699995,-0.065155,0.00,0.00,-0.001280,-1.000000,-600.000000,-600.000000,0.000000,0.000000,0.000000,0.000000,0.310000,-0.310000,0.000014,0.000000,0.000000,0.000000,0.000000,819,819,819,819
7974,0,1.999989,0.699996,-0.064636,0.00,0.00,-0.001780,-1.000000,-600.000000,-600.000000,0.000000,0.000000,0.000000,0.000000,0.310000,-0.310000,0.000020,0.000000,0.000000,0.000000,0.000000,819,819,819,819
7984,0,1.999991,0.699997,-0.064209,0.00,0.00,-0.002026,-1.000000,-600.000000,-600.000000,0.000000,0.000000,0.000000,0.000000,0.310000,-0.310000,0.000023,0.000000,0.000000,0.000000,0.000000,819,819,819,819
7994,0,1.999993,0.699997,-0.063873,0.00,0.00,-0.001522,-1.000000,-600.000000,-600.000000,0.000000,0.000000,0.000000,0.000000,0.310000,-0.310000,0.000019,0.000000,0.000000,0.000000,0.000000,819,819,819,819
8004,0,1.999995,0.699998,-0.063599,0.00,0.00,-0.001067,-1.000000,-600.000000,-600.000000,0.000000,0.000000,0.000000,0.000000,0.310000,-0.310000,0.000014,0.000000,0.000000,0.000000,0.000000,819,819,819,819
8014,0,1.999996,0.699998,-0.063385,0.00,0.00,-0.000655,-1.000000,-600.000000,-600.000000,0.000000,0.000000,0.000000,0.000000,0.310000,-0.310000,0.000011,0.000000,0.000000,0.000000,0.000000,819,819,819,819
8024,0,1.999996,0.699999,-0.063202,0.00,0.00,-0.000489,-1.000000,-600.000000,-600.000000,0.000000,0.000000,0.000000,0.000000,0.310000,-0.310000,0.000009,0.000000,0.000000,0.000000,0.000000,819,819,819,819
8035,0,1.999997,0.699999,-0.063080,0.00,0.00,-0.000132,-1.000000,-600.000000,-600.000000,0.000000,0.000000,0.000000,0.000000,0.310000,-0.310000,0.000005,0.000000,0.000000,0.000000,0.000000,819,819,819,819
8044,0,1.999998,0.699999,-0.062958,0.00,0.00,-0.000015,-1.000000,-600.000000,-600.000000,0.000000,0.000000,0.000000,0.000000,0.310000,-0.310000,0.000004,0.000000,0.000000,0.000000,0.000000,819,819,819,819
8054,0,1.999998,0.699999,-0.062866,0.00,0.00,-0.000118,-1.000000,-600.000000,-600.000000,0.000000,0.000000,0.000000,0.000000,0.310000,-0.310000,0.000005,0.000000,0.000000,0.000000,0.000000,819,819,819,819
8066,0,1.999999,0.699999,-0.062805,0.00,-0.00,-0.000210,-1.000000,-600.000000,-600.000000,0.000000,0.000000,0.000000,0.000000,0.310000,-0.310000,0.000006,0.000000,0.000000,0.000000,0.000000,819,819,819,819
8076,0,1.999999,0.700000,-0.062744,0.00,-0.00,-0.000605,-1.000000,-600.000000,-600.000000,0.000000,0.000000,0.000000,0.000000,0.310000,-0.310000,0.000011,0.000000,0.000000,0.000000,0.000000,819,819,819,819
8085,0,1.999999,0.700000,-0.062714,0.00,-0.00,-0.000962,-1.000000,-600.000000,-600.000000,0.000000,0.000000,0.000000,0.000000,0.310000,-0.310000,0.000015,0.000000,0.000000,0.000000,0.000000,819,819,819,819
8095,0,1.999999,0.700000,-0.062683,0.00,-0.00,-0.001181,-1.000000,-600.000000,-600.000000,0.000000,0.000000,0.000000,0.000000,0.310000,-0.310000,0.000017,0.000000,0.000000,0.000000,0.000000,819,819,819,819
8105,0,1.999999,0.700000,-0.062653,0.00,-0.00,-0.001069,-1.000000,-600.000000,-600.000000,0.000000,0.000000,0.000000,0.000000,0.310000,-0.310000,0.000017,0.000000,0.000000,0.000000,0.000000,819,819,819,819
8115,0,2.000000,0.700000,-0.062622,0.00,-0.00,-0.000760,-1.000000,-600.000000,-600.000000,0.000000,0.000000,0.000000,0.000000,0.310000,-0.310000,0.000014,0.000000,0.000000,0.000000,0.000000,819,819,819,819
8125,0,2.000000,0.700000,-0.062592,0.00,-0.00,-0.000273,-1.000000,-600.000000,-600.000000,0.000000,0.000000,0.000000,0.000000,0.310000,-0.310000,0.000009,0.000000,0.000000,0.000000,0.000000,819,819,819,819
8135,0,2.000000,0.700000,-0.062592,0.00,-0.00,-0.000040,-1.000000,-600.000000,-600.000000,0.000000,0.000000,0.000000,0.000000,0.310000,-0.310000,0.000007,0.000000,0.000000,0.000000,0.000000,819,819,819,819
8145,0,2.000000,0.700000,-0.062592,0.00,-0.00,-0.000036,-1.000000,-600.000000,-600.000000,0.000000,0.000000,0.000000,0.000000,0.310000,-0.310000,0.000007,0.000000,0.000000,0.000000,0.000000,819,819,819,819
8155,0,2.000000,0.700000,-0.062592,0.00,-0.00,-0.000137,-1.000000,-600.000000,-600.000000,0.000000,0.000000,0.000000,0.000000,0.310000,-0.310000,0.000008,0.000000,0.000000,0.000000,0.000000,819,819,819,819
8165,0,2.000000,0.700000,-0.062592,0.00,-0.00,-0.000020,-1.000000,-600.000000,-600.000000,0.000000,0.000000,0.000000,0.000000,0.310000,-0.310000,0.000006,0.000000,0.000000,0.000000,0.000000,819,819,819,819
8175,0,2.000000,0.700000,-0.062592,-0.00,-0.00,-0.000122,-1.000000,-600.000000,-600.000000,0.000000,0.000000,0.000000,0.000000,0.310000,-0.310000,0.000008,0.000000,0.000000,0.000000,0.000000,819,819,819,819
8185,0,2.000000,0.700000,-0.062592,-0.00,-0.00,-0.000007,-1.000000,-600.000000,-600.000000,0.000000,0.000000,0.000000,0.000000,0.310000,-0.310000,0.000006,0.000000,0.000000,0.000000,0.000000,819,819,819,819
8195,0,2.000000,0.700000,-0.062592,-0.00,0.00,0.000098,-1.000000,-600.000000,-600.000000,0.000000,0.000000,0.000000,0.000000,0.310000,-0.310000,0.000005,0.000000,0.000000,0.000000,0.000000,819,819,819,819
8205,0,2.000000,0.700000,-0.062592,-0.00,0.00,-0.000015,-1.000000,-600.000000,-600.000000,0.000000,0.000000,0.000000,0.000000,0.310000,-0.310000,0.000006,0.000000,0.000000,0.000000,0.000000,819,819,819,819
8215,0,2.000000,0.700000,-0.062592,0.00,-0.00,-0.000117,-1.000000,-600.000000,-600.000000,0.000000,0.000000,0.000000,0.000000,0.310000,-0.310000,0.000008,0.000000,0.000000,0.000000,0.000000,819,819,819,819
8225,0,2.000000,0.700000,-0.062592,0.00,-0.00,-0.000313,-1.000000,-600.000000,-600.000000,0.000000,0.000000,0.000000,0.000000,0.310000,-0.310000,0.000010,0.000000,0.000000,0.000000,0.000000,819,819,819,819
8239,0,2.000000,0.700000,-0.062592,0.00,-0.00,-0.000387,-1.000000,-600.000000,-600.000000,0.000000,0.000000,0.000000,0.000000,0.310000,-0.310000,0.000011,0.000000,0.000000,0.000000,0.000000,819,819,819,819
8249,0,2.000000,0.700000,-0.062592,0.00,-0.00,-0.000765,-1.000000,-600.000000,-600.000000,0.000000,0.000000,0.000000,0.000000,0.310000,-0.310000,0.000015,0.000000,0.000000,0.000000,0.000000,819,819,819,819
8260,0,2.000000,0.700000,-0.062592,0.00,0.00,-0.001003,-1.000000,-600.000000,-600.000000,0.000000,0.000000,0.000000,0.000000,0.310000,-0.310000,0.000018,0.000000,0.000000,0.000000,0.000000,819,819,819,819
8271,0,2.000000,0.700000,-0.062592,-0.00,0.00,-0.000908,-1.000000,-600.000000,-600.000000,0.000000,0.000000,0.000000,0.000000,0.310000,-0.310000,0.000017,0.000000,0.000000,0.000000,0.000000,819,819,819,819
8283,0,2.000000,0.700000,-0.062592,-0.00,0.00,-0.000511,-1.000000,-600.000000,-600.000000,0.000000,0.000000,0.000000,0.000000,0.310000,-0.310000,0.000013,0.000000,0.000000,0.000000,0.000000,819,819,819,819
8294,0,2.000000,0.700000,-0.062592,-0.00,-0.00,0.000367,-1.000000,-600.000000,-600.000000,0.000000,0.000000,0.000000,0.000000,0.310000,-0.310000,0.000004,0.000000,0.000000,0.000000,0.000000,819,819,819,819
8305,0,2.000000,0.700000,-0.062592,-0.00,-0.00,0.000436,-1.000000,-600.000000,-600.000000,0.000000,0.000000,0.000000,0.000000,0.310000,-0.310000,0.000003,0.000000,0.000000,0.000000,0.000000,819,819,819,819
8315,0,2.000000,0.700000,-0.062592,-0.00,0.00,-0.000124,-1.000000,-600.000000,-600.000000,0.000000,0.000000,0.000000,0.000000,0.310000,-0.310000,0.000009,0.000000,0.000000,0.000000,0.000000,819,819,819,819
8325,0,2.000000,0.700000,-0.062592,-0.00,0.00,-0.001356,-1.000000,-600.000000,-600.000000,0.000000,0.000000,0.000000,0.000000,0.310000,-0.310000,0.000022,0.000000,0.000000,0.000000,0.000000,819,819,819,819
8335,0,2.000000,0.700000,-0.062592,-0.00,0.00,-0.002885,-1.000000,-600.000000,-600.000000,0.000000,0.000000,0.000000,0.000000,0.310000,-0.310000,0.000039,0.000000,0.000000,0.000000,0.000000,819,819,819,819
8345,0,2.000000,0.700000,-0.062592,-0.00,0.00,-0.003440,-1.000000,-600.000000,-600.000000,0.000000,0.000000,0.000000,0.000000,0.310000,-0.310000,0.000046,0.000000,0.000000,0.000000,0.000000,819,819,819,819
8355,0,2.000000,0.700000,-0.062592,-0.00,0.00,-0.003010,-1.000000,-600.000000,-600.000000,0.000000,0.000000,0.000000,0.000000,0.310000,-0.310000,0.000043,0.000000,0.000000,0.000000,0.000000,819,819,819,819
8365,0,2.000000,0.700000,-0.062592,-0.00,0.00,-0.001895,-1.000000,-600.000000,-600.000000,0.000000,0.000000,0.000000,0.000000,0.310000,-0.310000,0.000032,0.000000,0.000000,0.000000,0.000000,819,819,819,819
8382,0,2.000000,0.700000,-0.062592,-0.00,-0.00,-0.000575,-1.000000,-600.000000,-600.000000,0.000000,0.000000,0.000000,0.000000,0.310000,-0.310000,0.000019,0.000000,0.000000,0.000000,0.000000,819,819,819,819
8392,0,2.000000,0.700000,-0.062592,-0.00,0.00,0.000516,-1.000000,-600.000000,-600.000000,0.000000,0.000000,0.000000,0.000000,0.310000,-0.310000,0.000008,0.000000,0.000000,0.000000,0.000000,819,819,819,819
8404,0,2.000000,0.700000,-0.062592,-0.00,0.00,0.000674,-1.000000,-600.000000,-600.000000,0.000000,0.000000,0.000000,0.000000,0.310000,-0.310000,0.000006,0.000000,0.000000,0.000000,0.000000,819,819,819,819
8415,0,2.000000,0.700000,-0.062592,-0.00,0.00,0.000299,-1.000000,-600.000000,-600.000000,0.000000,0.000000,0.000000,0.000000,0.310000,-0.310000,0.000009,0.000000,0.000000,0.000000,0.000000,819,819,819,819
8425,0,2.000000,0.700000,-0.062592,-0.00,0.00,-0.000144,-1.000000,-600.000000,-600.000000,0.000000,0.000000,0.000000,0.000000,0.310000,-0.310000,0.000014,0.000000,0.000000,0.000000,0.000000,819,819,819,819
8435,0,2.000000,0.700000,-0.062592,-0.00,0.00,-0.000544,-1.000000,-600.000000,-600.000000,0.000000,0.000000,0.000000,0.000000,0.310000,-0.310000,0.000018,0.000000,0.000000,0.000000,0.000000,819,819,819,819
8445,0,2.000000,0.700000,-0.062592,-0.00,0.00,-0.000907,-1.000000,-600.000000,-600.000000,0.000000,0.000000,0.000000,0.000000,0.310000,-0.310000,0.000022,0.000000,0.000000,0.000000,0.000000,819,819,819,819
8455,0,2.000000,0.700000,-0.062592,-0.00,0.00,-0.000821,-1.000000,-600.000000,-600.000000,0.000000,0.000000,0.000000,0.000000,0.310000,-0.310000,0.000022,0.000000,0.000000,0.000000,0.000000,819,819,819,819
8465,0,2.000000,0.700000,-0.062592,-0.00,0.00,-0.000639,-1.000000,-600.000000,-600.000000,0.000000,0.000000,0.000000,0.000000,0.310000,-0.310000,0.000020,0.000000,0.000000,0.000000,0.000000,819,819,819,819
8475,0,2.000000,0.700000,-0.062592,-0.00,0.00,-0.000371,-1.000000,-600.000000,-600.000000,0.000000,0.000000,0.000000,0.000000,0.310000,-0.310000,0.000018,0.000000,0.000000,0.000000,0.000000,819,819,819,819
8485,0,2.000000,0.700000,-0.062592,-0.00,0.00,-0.000025,-1.000000,-600.000000,-600.000000,0.000000,0.000000,0.000000,0.000000,0.310000,-0.310000,0.000014,0.000000,0.000000,0.000000,0.000000,819,819,819,819
8495,0,2.000000,0.700000,-0.062592,-0.00,0.00,0.000599,-1.000000,-600.000000,-600.000000,0.000000,0.000000,0.000000,0.000000,0.310000,-0.310000,0.000008,0.000000,0.000000,0.000000,0.000000,819,819,819,819
8505,0,2.000000,0.700000,-0.062592,-0.00,0.00,0.000957,-1.000000,-600.000000,-600.000000,0.000000,0.000000,0.000000,0.000000,0.310000,-0.310000,0.000004,0.000000,0.000000,0.000000,0.000000,819,819,819,819
8516,0,2.000000,0.700000,-0.062592,-0.00,0.00,0.000658,0.005000,0.000000,0.000000,0.000000,0.000000,0.000000,0.000000,0.250000,-0.250000,0.000006,0.000000,0.000000,0.000000,0.000000,819,819,819,819
8525,0,2.000000,0.700000,-0.062592,-0.00,0.00,-0.000026,0.005000,0.000000,0.000000,0.000000,0.000000,0.000000,0.000000,0.250000,-0.250000,0.000013,0.000000,0.000000,0.000000,0.000000,819,819,819,819
8536,0,2.000000,0.700000,-0.062592,-0.00,0.00,-0.000749,0.005000,0.000000,0.000000,0.000000,0.000000,0.000000,0.000000,0.250000,-0.250000,0.000021,0.000000,0.000000,0.000000,0.000000,819,819,819,819
8546,0,2.000000,0.700000,-0.062592,-0.00,0.00,-0.001299,0.005000,0.000000,0.000000,0.000000,0.000000,0.000000,0.000000,0.250000,-0.250000,0.000027,0.000000,0.000000,0.000000,0.000000,819,819,819,819
8556,0,2.000000,0.700000,-0.062592,-0.00,0.00,-0.001383,0.005000,0.000000,0.000000,0.000000,0.000000,0.000000,0.000000,0.250000,-0.250000,0.000029,0.000000,0.000000,0.000000,0.000000,819,819,819,819
8566,0,2.000000,0.700000,-0.062592,-0.00,0.00,-0.001148,0.005000,0.000000,0.000000,0.000000,0.000000,0.000000,0.000000,0.250000,-0.250000,0.000027,0.000000,0.000000,0.000000,0.000000,819,819,819,819
8576,0,2.000000,0.700000,-0.062592,-0.00,0.00,-0.000728,0.005000,0.000000,0.000000,0.000000,0.000000,0.000000,0.000000,0.250000,-0.250000,0.000023,0.000000,0.000000,0.000000,0.000000,819,819,819,819
8586,0,2.000000,0.700000,-0.062592,-0.00,0.00,-0.000141,0.005000,0.000000,0.000000,0.000000,0.000000,0.000000,0.000000,0.250000,-0.250000,0.000017,0.000000,0.000000,0.000000,0.000000,819,819,819,819
8596,0,2.000000,0.700000,-0.062592,-0.00,0.00,0.000183,0.005000,0.000000,0.000000,0.000000,0.000000,0.000000,0.000000,0.250000,-0.250000,0.000013,0.000000,0.000000,0.000000,0.000000,819,819,819,819
8606,0,2.000000,0.700000,-0.062592,-0.00,0.00,0.000166,0.005000,0.000000,0.000000,0.000000,0.000000,0.000000,0.000000,0.250000,-0.250000,0.000014,0.000000,0.000000,0.000000,0.000000,819,819,819,819
8616,0,2.000000,0.700000,-0.062592,-0.00,0.00,0.000254,0.005000,0.000000,0.000000,0.000000,0.000000,0.000000,0.000000,0.250000,-0.250000,0.000013,0.000000,0.000000,0.000000,0.000000,819,819,819,819
8626,0,2.000000,0.700000,-0.062592,-0.00,0.00,0.000126,0.005000,0.000000,0.000000,0.000000,0.000000,0.000000,0.000000,0.250000,-0.250000,0.000014,0.000000,0.000000,0.000000,0.000000,819,819,819,819
8636,0,2.000000,0.700000,-0.062592,-0.00,0.00,-0.000197,0.005000,0.000000,0.000000,0.000000,0.000000,0.000000,0.000000,0.250000,-0.250000,0.000017,0.000000,0.000000,0.000000,0.000000,819,819,819,819
8646,0,2.000000,0.700000,-0.062592,-0.00,0.00,-0.000489,0.005000,0.000000,0.000000,0.000000,0.000000,0.000000,0.000000,0.250000,-0.250000,0.000020,0.000000,0.000000,0.000000,0.000000,819,819,819,819
8656,0,2.000000,0.700000,-0.062592,-0.00,0.00,-0.000753,0.005000,0.000000,0.000000,0.000000,0.000000,0.000000,0.000000,0.250000,-0.250000,0.000023,0.000000,0.000000,0.000000,0.000000,819,819,819,819
8666,0,2.000000,0.700000,-0.062592,0.00,0.00,-0.000993,0.005000,0.000000,0.000000,0.000000,0.000000,0.000000,0.000000,0.250000,-0.250000,0.000026,0.000000,0.000000,0.000000,0.000000,819,819,819,819
8676,0,2.000000,0.700000,-0.062592,0.00,0.00,-0.001209,0.005000,0.000000,0.000000,0.000000,0.000000,0.000000,0.000000,0.250000,-0.250000,0.000029,0.000000,0.000000,0.000000,0.000000,819,819,819,819
8686,0,2.000000,0.700000,-0.062592,0.00,0.00,-0.000991,0.005000,0.000000,0.000000,0.000000,0.000000,0.000000,0.000000,0.250000,-0.250000,0.000027,0.000000,0.000000,0.000000,0.000000,819,819,819,819
8703,0,2.000000,0.700000,-0.062592,0.00,0.00,-0.000482,0.005000,0.000000,0.000000,0.000000,0.000000,0.000000,0.000000,0.250000,-0.250000,0.000022,0.000000,0.000000,0.000000,0.000000,819,819,819,819
8716,0,2.000000,0.700000,-0.062592,0.00,0.00,-0.000229,0.005000,0.000000,0.000000,0.000000,0.000000,0.000000,0.000000,0.250000,-0.250000,0.000020,0.000000,0.000000,0.000000,0.000000,819,819,819,819
8726,0,2.000000,0.700000,-0.062592,-0.00,0.00,-0.000207,0.005000,0.000000,0.000000,0.000000,0.000000,0.000000,0.000000,0.250000,-0.250000,0.000020,0.000000,0.000000,0.000000,0.000000,819,819,819,819
8736,0,2.000000,0.700000,-0.062592,-0.00,0.00,-0.000291,0.005000,0.000000,0.000000,0.000000,0.000000,0.000000,0.000000,0.250000,-0.250000,0.000021,0.000000,0.000000,0.000000,0.000000,819,819,819,819
8746,0,2.000000,0.700000,-0.062592,-0.00,0.00,-0.000782,0.005000,0.000000,0.000000,0.000000,0.000000,0.000000,0.000000,0.250000,-0.250000,0.000026,0.000000,0.000000,0.000000,0.000000,819,819,819,819
8756,0,2.000000,0.700000,-0.062592,-0.00,0.00,-0.001329,0.005000,0.000000,0.000000,0.000000,0.000000,0.000000,0.000000,0.250000,-0.250000,0.000032,0.000000,0.000000,0.000000,0.000000,819,819,819,819
8766,0,2.000000,0.700000,-0.062592,-0.00,0.00,-0.001307,0.005000,0.000000,0.000000,0.000000,0.000000,0.000000,0.000000,0.250000,-0.250000,0.000032,0.000000,0.000000,0.000000,0.000000,819,819,819,819
8776,0,2.000000,0.700000,-0.062592,-0.00,0.00,-0.001390,0.005000,0.000000,0.000000,0.000000,0.000000,0.000000,0.000000,0.250000,-0.250000,0.000034,0.000000,0.000000,0.000000,0.000000,819,819,819,819
8786,0,2.000000,0.700000,-0.062592,-0.00,0.00,-0.001154,0.005000,0.000000,0.000000,0.000000,0.000000,0.000000,0.000000,0.250000,-0.250000,0.000032,0.000000,0.000000,0.000000,0.000000,819,819,819,819
8796,0,2.000000,0.700000,-0.062592,-0.00,0.00,-0.000941,0.005000,0.000000,0.000000,0.000000,0.000000,0.000000,0.000000,0.250000,-0.250000,0.000030,0.000000,0.000000,0.000000,0.000000,819,819,819,819
8806,0,2.000000,0.700000,-0.062592,-0.00,0.00,-0.000541,0.005000,0.000000,0.000000,0.000000,0.000000,0.000000,0.000000,0.250000,-0.250000,0.000026,0.000000,0.000000,0.000000,0.000000,819,819,819,819
8816,0,2.000000,0.700000,-0.062592,-0.00,0.00,-0.000282,0.005000,0.000000,0.000000,0.000000,0.000000,0.000000,0.000000,0.250000,-0.250000,0.000024,0.000000,0.000000,0.000000,0.000000,819,819,819,819
8826,0,2.000000,0.700000,-0.062592,-0.00,0.00,-0.000255,0.005000,0.000000,0.000000,0.000000,0.000000,0.000000,0.000000,0.250000,-0.250000,0.000024,0.000000,0.000000,0.000000,0.000000,819,819,819,819
8836,0,2.000000,0.700000,-0.062592,-0.00,0.00,-0.000542,0.005000,0.000000,0.000000,0.000000,0.000000,0.000000,0.000000,0.250000,-0.250000,0.000027,0.000000,0.000000,0.000000,0.000000,819,819,819,819
8846,0,2.000000,0.700000,-0.062592,-0.00,0.00,-0.000594,0.005000,0.000000,0.000000,0.000000,0.000000,0.000000,0.000000,0.250000,-0.250000,0.000028,0.000000,0.000000,0.000000,0.000000,819,819,819,819
8856,0,2.000000,0.700000,-0.062592,-0.00,0.00,-0.000952,0.005000,0.000000,0.000000,0.000000,0.000000,0.000000,0.000000,0.250000,-0.250000,0.000032,0.000000,0.000000,0.000000,0.000000,819,819,819,819
8866,0,2.000000,0.700000,-0.062592,-0.00,0.00,-0.001276,0.005000,0.000000,0.000000,0.000000,0.000000,0.000000,0.000000,0.250000,-0.250000,0.000036,0.000000,0.000000,0.000000,0.000000,819,819,819,819
8876,0,2.000000,0.700000,-0.062592,0.00,0.00,-0.001362,0.005000,0.000000,0.000000,0.000000,0.000000,0.000000,0.000000,0.250000,-0.250000,0.000037,0.000000,0.000000,0.000000,0.000000,819,819,819,819
8886,0,2.000000,0.700000,-0.062592,0.00,0.00,-0.001233,0.005000,0.000000,0.000000,0.000000,0.000000,0.000000,0.000000,0.250000,-0.250000,0.000036,0.000000,0.000000,0.000000,0.000000,819,819,819,819
8896,0,2.000000,0.700000,-0.062592,0.00,0.00,-0.001012,0.005000,0.000000,0.000000,0.000000,0.000000,0.000000,0.000000,0.250000,-0.250000,0.000035,0.000000,0.000000,0.000000,0.000000,819,819,819,819
8906,0,2.000000,0.700000,-0.062592,-0.00,0.00,-0.000605,0.005000,0.000000,0.000000,0.000000,0.000000,0.000000,0.000000,0.250000,-0.250000,0.000031,0.000000,0.000000,0.000000,0.000000,819,819,819,819
8916,0,2.000000,0.700000,-0.062592,-0.00,0.00,-0.000340,0.005000,0.000000,0.000000,0.000000,0.000000,0.000000,0.000000,0.250000,-0.250000,0.000028,0.000000,0.000000,0.000000,0.000000,819,819,819,819
8926,0,2.000000,0.700000,-0.062592,-0.00,0.00,-0.000412,0.005000,0.000000,0.000000,0.000000,0.000000,0.000000,0.000000,0.250000,-0.250000,0.000029,0.000000,0.000000,0.000000,0.000000,819,819,819,819
8936,0,2.000000,0.700000,-0.062592,-0.00,0.00,-0.000476,0.005000,0.000000,0.000000,0.000000,0.000000,0.000000,0.000000,0.250000,-0.250000,0.000030,0.000000,0.000000,0.000000,0.000000,819,819,819,819
8946,0,2.000000,0.700000,-0.062592,-0.00,0.00,-0.000534,0.005000,0.000000,0.000000,0.000000,0.000000,0.000000,0.000000,0.250000,-0.250000,0.000031,0.000000,0.000000,0.000000,0.000000,819,819,819,819
8956,0,2.000000,0.700000,-0.062592,-0.00,0.00,-0.000795,0.005000,0.000000,0.000000,0.000000,0.000000,0.000000,0.000000,0.250000,-0.250000,0.000034,0.000000,0.000000,0.000000,0.000000,819,819,819,819
8966,0,2.000000,0.700000,-0.062592,-0.00,0.00,-0.001134,0.005000,0.000000,0.000000,0.000000,0.000000,0.000000,0.000000,0.250000,-0.250000,0.000038,0.000000,0.000000,0.000000,0.000000,819,819,819,819
8976,0,2.000000,0.700000,-0.062592,-0.00,0.00,-0.001440,0.005000,0.000000,0.000000,0.000000,0.000000,0.000000,0.000000,0.250000,-0.250000,0.000041,0.000000,0.000000,0.000000,0.000000,819,819,819,819
8987,0,2.000000,0.700000,-0.062592,-0.00,0.00,-0.001304,0.005000,0.000000,0.000000,0.000000,0.000000,0.000000,0.000000,0.250000,-0.250000,0.000041,0.000000,0.000000,0.000000,0.000000,819,819,819,819
8997,0,2.000000,0.700000,-0.062592,-0.00,0.00,-0.001076,0.005000,0.000000,0.000000,0.000000,0.000000,0.000000,0.000000,0.250000,-0.250000,0.000039,0.000000,0.000000,0.000000,0.000000,819,819,819,819
9006,0,2.000000,0.700000,-0.062592,-0.00,0.00,-0.000663,0.005000,0.000000,0.000000,0.000000,0.000000,0.000000,0.000000,0.250000,-0.250000,0.000035,0.000000,0.000000,0.000000,0.000000,819,819,819,819
9024,0,2.000000,0.700000,-0.062592,-0.00,0.00,-0.000496,0.005000,0.000000,0.000000,0.000000,0.000000,0.000000,0.000000,0.250000,-0.250000,0.000033,0.000000,0.000000,0.000000,0.000000,819,819,819,819
9036,0,2.000000,0.700000,-0.062592,-0.00,0.00,-0.000346,0.005000,0.000000,0.000000,0.000000,0.000000,0.000000,0.000000,0.250000,-0.250000,0.000032,0.000000,0.000000,0.000000,0.000000,819,819,819,819
9046,0,2.000000,0.700000,-0.062592,-0.00,0.00,-0.000520,0.005000,0.000000,0.000000,0.000000,0.000000,0.000000,0.000000,0.250000,-0.250000,0.000034,0.000000,0.000000,0.000000,0.000000,819,819,819,819
9056,0,2.000000,0.700000,-0.062592,-0.00,0.00,-0.000574,0.005000,0.000000,0.000000,0.000000,0.000000,0.000000,0.000000,0.250000,-0.250000,0.000035,0.000000,0.000000,0.000000,0.000000,819,819,819,819
9066,0,2.000000,0.700000,-0.062592,-0.00,0.00,-0.000831,0.005000,0.000000,0.000000,0.000000,0.000000,0.000000,0.000000,0.250000,-0.250000,0.000038,0.000000,0.000000,0.000000,0.000000,819,819,819,819
9078,0,2.000000,0.700000,-0.062592,-0.00,0.00,-0.000855,0.005000,0.000000,0.000000,0.000000,0.000000,0.000000,0.000000,0.250000,-0.250000,0.000039,0.000000,0.000000,0.000000,0.000000,819,819,819,819
9089,0,2.000000,0.700000,-0.062592,-0.00,0.00,-0.000878,0.005000,0.000000,0.000000,0.000000,0.000000,0.000000,0.000000,0.250000,-0.250000,0.000039,0.000000,0.000000,0.000000,0.000000,819,819,819,819
9099,0,2.000000,0.700000,-0.062592,-0.00,0.00,-0.000898,0.005000,0.000000,0.000000,0.000000,0.000000,0.000000,0.000000,0.250000,-0.250000,0.000040,0.000000,0.000000,0.000000,0.000000,819,819,819,819
9108,0,2.000000,0.700000,-0.062592,-0.00,0.00,-0.000813,0.005000,0.000000,0.000000,0.000000,0.000000,0.000000,0.000000,0.250000,-0.250000,0.000039,0.000000,0.000000,0.000000,0.000000,819,819,819,819
9117,0,2.000000,0.700000,-0.062592,-0.00,0.00,-0.000632,0.005000,0.000000,0.000000,0.000000,0.000000,0.000000,0.000000,0.250000,-0.250000,0.000038,0.000000,0.000000,0.000000,0.000000,819,819,819,819
9127,0,2.000000,0.700000,-0.062592,-0.00,0.00,-0.000261,0.005000,0.000000,0.000000,0.000000,0.000000,0.000000,0.000000,0.250000,-0.250000,0.000034,0.000000,0.000000,0.000000,0.000000,819,819,819,819
9137,0,2.000000,0.700000,-0.062592,-0.00,0.00,-0.000132,0.005000,0.000000,0.000000,0.000000,0.000000,0.000000,0.000000,0.250000,-0.250000,0.000033,0.000000,0.000000,0.000000,0.000000,819,819,819,819
9147,0,2.000000,0.700000,-0.062592,-0.00,0.00,-0.000016,0.005000,0.000000,0.000000,0.000000,0.000000,0.000000,0.000000,0.250000,-0.250000,0.000032,0.000000,0.000000,0.000000,0.000000,819,819,819,819
9157,0,2.000000,0.700000,-0.062592,-0.00,0.00,-0.000015,0.005000,0.000000,0.000000,0.000000,0.000000,0.000000,0.000000,0.250000,-0.250000,0.000032,0.000000,0.000000,0.000000,0.000000,819,819,819,819
9167,0,2.000000,0.700000,-0.062592,-0.00,0.00,-0.000117,0.005000,0.000000,0.000000,0.000000,0.000000,0.000000,0.000000,0.250000,-0.250000,0.000033,0.000000,0.000000,0.000000,0.000000,819,819,819,819
9177,0,2.000000,0.700000,-0.062592,-0.00,0.00,-0.000209,0.005000,0.000000,0.000000,0.000000,0.000000,0.000000,0.000000,0.250000,-0.250000,0.000034,0.000000,0.000000,0.000000,0.000000,819,819,819,819
9187,0,2.000000,0.700000,-0.062592,-0.00,0.00,-0.000500,0.005000,0.000000,0.000000,0.000000,0.000000,0.000000,0.000000,0.250000,-0.250000,0.000037,0.000000,0.000000,0.000000,0.000000,819,819,819,819
9197,0,2.000000,0.700000,-0.062592,-0.00,0.00,-0.000453,0.005000,0.000000,0.000000,0.000000,0.000000,0.000000,0.000000,0.250000,-0.250000,0.000037,0.000000,0.000000,0.000000,0.000000,819,819,819,819
9207,0,2.000000,0.700000,-0.062592,-0.00,0.00,-0.000410,0.005000,0.000000,0.000000,0.000000,0.000000,0.000000,0.000000,0.250000,-0.250000,0.000036,0.000000,0.000000,0.000000,0.000000,819,819,819,819
9217,0,2.000000,0.700000,-0.062592,-0.00,0.00,-0.000164,0.005000,0.000000,0.000000,0.000000,0.000000,0.000000,0.000000,0.250000,-0.250000,0.000034,0.000000,0.000000,0.000000,0.000000,819,819,819,819
9227,0,2.000000,0.700000,-0.062592,-0.00,0.00,0.000370,0.005000,0.000000,0.000000,0.000000,0.000000,0.000000,0.000000,0.250000,-0.250000,0.000028,0.000000,0.000000,0.000000,0.000000,819,819,819,819
9237,0,2.000000,0.700000,-0.062592,-0.00,0.00,0.000542,0.005000,0.000000,0.000000,0.000000,0.000000,0.000000,0.000000,0.250000,-0.250000,0.000026,0.000000,0.000000,0.000000,0.000000,819,819,819,819
9247,0,2.000000,0.700000,-0.062592,-0.00,-0.00,0.000801,0.005000,0.000000,0.000000,0.000000,0.000000,0.000000,0.000000,0.250000,-0.250000,0.000023,0.000000,0.000000,0.000000,0.000000,819,819,819,819
9257,0,2.000000,0.700000,-0.062592,-0.00,-0.00,0.000829,0.005000,0.000000,0.000000,0.000000,0.000000,0.000000,0.000000,0.250000,-0.250000,0.000023,0.000000,0.000000,0.000000,0.000000,819,819,819,819
9267,0,2.000000,0.700000,-0.062592,-0.00,-0.00,0.000750,0.005000,0.000000,0.000000,0.000000,0.000000,0.000000,0.000000,0.250000,-0.250000,0.000023,0.000000,0.000000,0.000000,0.000000,819,819,819,819
9277,0,2.000000,0.700000,-0.062592,-0.00,0.00,0.000575,0.005000,0.000000,0.000000,0.000000,0.000000,0.000000,0.000000,0.250000,-0.250000,0.000025,0.000000,0.000000,0.000000,0.000000,819,819,819,819
9287,0,2.000000,0.700000,-0.062592,-0.00,0.00,0.000521,0.005000,0.000000,0.000000,0.000000,0.000000,0.000000,0.000000,0.250000,-0.250000,0.000025,0.000000,0.000000,0.000000,0.000000,819,819,819,819
9297,0,2.000000,0.700000,-0.062592,-0.00,0.00,0.000368,0.005000,0.000000,0.000000,0.000000,0.000000,0.000000,0.000000,0.250000,-0.250000,0.000026,0.000000,0.000000,0.000000,0.000000,819,819,819,819
9307,0,2.000000,0.700000,-0.062592,-0.00,0.00,0.000229,0.005000,0.000000,0.000000,0.000000,0.000000,0.000000,0.000000,0.250000,-0.250000,0.000028,0.000000,0.000000,0.000000,0.000000,819,819,819,819
9317,0,2.000000,0.700000,-0.062592,-0.00,0.00,0.000207,0.005000,0.000000,0.000000,0.000000,0.000000,0.000000,0.000000,0.250000,-0.250000,0.000028,0.000000,0.000000,0.000000,0.000000,819,819,819,819
9334,0,2.000000,0.700000,-0.062592,-0.00,0.00,0.000498,0.005000,0.000000,0.000000,0.000000,0.000000,0.000000,0.000000,0.250000,-0.250000,0.000025,0.000000,0.000000,0.000000,0.000000,819,819,819,819
9346,0,2.000000,0.700000,-0.062592,-0.00,0.00,0.000762,0.005000,0.000000,0.000000,0.000000,0.000000,0.000000,0.000000,0.250000,-0.250000,0.000022,0.000000,0.000000,0.000000,0.000000,819,819,819,819
9357,0,2.000000,0.700000,-0.062592,-0.00,0.00,0.000586,0.005000,0.000000,0.000000,0.000000,0.000000,0.000000,0.000000,0.250000,-0.250000,0.000023,0.000000,0.000000,0.000000,0.000000,819,819,819,819
9367,0,2.000000,0.700000,-0.062592,-0.00,0.00,0.000738,0.005000,0.000000,0.000000,0.000000,0.000000,0.000000,0.000000,0.250000,-0.250000,0.000021,0.000000,0.000000,0.000000,0.000000,819,819,819,819
9377,0,2.000000,0.700000,-0.062592,-0.00,-0.00,0.000875,0.005000,0.000000,0.000000,0.000000,0.000000,0.000000,0.000000,0.250000,-0.250000,0.000019,0.000000,0.000000,0.000000,0.000000,819,819,819,819
9387,0,2.000000,0.700000,-0.062592,-0.00,-0.00,0.000895,0.005000,0.000000,0.000000,0.000000,0.000000,0.000000,0.000000,0.250000,-0.250000,0.000019,0.000000,0.000000,0.000000,0.000000,819,819,819,819
9397,0,2.000000,0.700000,-0.062592,-0.00,-0.00,0.000603,0.005000,0.000000,0.000000,0.000000,0.000000,0.000000,0.000000,0.250000,-0.250000,0.000021,0.000000,0.000000,0.000000,0.000000,819,819,819,819
9407,0,2.000000,0.700000,-0.062592,-0.00,-0.00,0.000235,0.005000,0.000000,0.000000,0.000000,0.000000,0.000000,0.000000,0.250000,-0.250000,0.000025,0.000000,0.000000,0.000000,0.000000,819,819,819,819
9417,0,2.000000,0.700000,-0.062592,-0.00,-0.00,0.000213,0.005000,0.000000,0.000000,0.000000,0.000000,0.000000,0.000000,0.250000,-0.250000,0.000025,0.000000,0.000000,0.000000,0.000000,819,819,819,819
9427,0,2.000000,0.700000,-0.062592,-0.00,-0.00,0.000296,0.005000,0.000000,0.000000,0.000000,0.000000,0.000000,0.000000,0.250000,-0.250000,0.000024,0.000000,0.000000,0.000000,0.000000,819,819,819,819
9437,0,2.000000,0.700000,-0.062592,-0.00,-0.00,0.000475,0.005000,0.000000,0.000000,0.000000,0.000000,0.000000,0.000000,0.250000,-0.250000,0.000022,0.000000,0.000000,0.000000,0.000000,819,819,819,819
9447,0,2.000000,0.700000,-0.062592,-0.00,0.00,0.000637,0.005000,0.000000,0.000000,0.000000,0.000000,0.000000,0.000000,0.250000,-0.250000,0.000020,0.000000,0.000000,0.000000,0.000000,819,819,819,819
9457,0,2.000000,0.700000,-0.062592,-0.00,0.00,0.000991,0.005000,0.000000,0.000000,0.000000,0.000000,0.000000,0.000000,0.250000,-0.250000,0.000016,0.000000,0.000000,0.000000,0.000000,819,819,819,819
9467,0,2.000000,0.700000,-0.062592,-0.00,-0.00,0.001104,0.005000,0.000000,0.000000,0.000000,0.000000,0.000000,0.000000,0.250000,-0.250000,0.000014,0.000000,0.000000,0.000000,0.000000,819,819,819,819
9477,0,2.000000,0.700000,-0.062592,-0.00,-0.00,0.001103,0.005000,0.000000,0.000000,0.000000,0.000000,0.000000,0.000000,0.250000,-0.250000,0.000014,0.000000,0.000000,0.000000,0.000000,819,819,819,819
9487,0,2.000000,0.700000,-0.062592,-0.00,-0.00,0.000895,0.005000,0.000000,0.000000,0.000000,0.000000,0.000000,0.000000,0.250000,-0.250000,0.000016,0.000000,0.000000,0.000000,0.000000,819,819,819,819
9497,0,2.000000,0.700000,-0.062592,-0.00,-0.00,0.000810,0.005000,0.000000,0.000000,0.000000,0.000000,0.000000,0.000000,0.250000,-0.250000,0.000016,0.000000,0.000000,0.000000,0.000000,819,819,819,819
9507,0,2.000000,0.700000,-0.062592,-0.00,-0.00,0.000733,0.005000,0.000000,0.000000,0.000000,0.000000,0.000000,0.000000,0.250000,-0.250000,0.000017,0.000000,0.000000,0.000000,0.000000,819,819,819,819
9517,0,2.000000,0.700000,-0.062592,-0.00,-0.00,0.000870,0.005000,0.000000,0.000000,0.000000,0.000000,0.000000,0.000000,0.250000,-0.250000,0.000015,0.000000,0.000000,0.000000,0.000000,819,819,819,819
9527,0,2.000000,0.700000,-0.062592,-0.00,-0.00,0.000580,0.005000,0.000000,0.000000,0.000000,0.000000,0.000000,0.000000,0.250000,-0.250000,0.000017,0.000000,0.000000,0.000000,0.000000,819,819,819,819
9537,0,2.000000,0.700000,-0.062592,-0.00,-0.00,0.000733,0.005000,0.000000,0.000000,0.000000,0.000000,0.000000,0.000000,0.250000,-0.250000,0.000015,0.000000,0.000000,0.000000,0.000000,819,819,819,819
9548,0,2.000000,0.700000,-0.062592,-0.00,-0.00,0.000663,0.005000,0.000000,0.000000,0.000000,0.000000,0.000000,0.000000,0.250000,-0.250000,0.000016,0.000000,0.000000,0.000000,0.000000,819,819,819,819
9557,0,2.000000,0.700000,-0.062592,-0.00,-0.00,0.000911,0.005000,0.000000,0.000000,0.000000,0.000000,0.000000,0.000000,0.250000,-0.250000,0.000013,0.000000,0.000000,0.000000,0.000000,819,819,819,819
9568,0,2.000000,0.700000,-0.062592,-0.00,-0.00,0.001032,0.005000,0.000000,0.000000,0.000000,0.000000,0.000000,0.000000,0.250000,-0.250000,0.000011,0.000000,0.000000,0.000000,0.000000,819,819,819,819
9578,0,2.000000,0.700000,-0.062592,-0.00,-0.00,0.001141,0.005000,0.000000,0.000000,0.000000,0.000000,0.000000,0.000000,0.250000,-0.250000,0.000010,0.000000,0.000000,0.000000,0.000000,819,819,819,819
9588,0,2.000000,0.700000,-0.062592,0.00,-0.00,0.001032,0.005000,0.000000,0.000000,0.000000,0.000000,0.000000,0.000000,0.250000,-0.250000,0.000010,0.000000,0.000000,0.000000,0.000000,819,819,819,819
9598,0,2.000000,0.700000,-0.062592,-0.00,-0.00,0.000831,0.005000,0.000000,0.000000,0.000000,0.000000,0.000000,0.000000,0.250000,-0.250000,0.000012,0.000000,0.000000,0.000000,0.000000,819,819,819,819
9608,0,2.000000,0.700000,-0.062592,-0.00,-0.00,0.000648,0.005000,0.000000,0.000000,0.000000,0.000000,0.000000,0.000000,0.250000,-0.250000,0.000013,0.000000,0.000000,0.000000,0.000000,819,819,819,819
9618,0,2.000000,0.700000,-0.062592,-0.00,-0.00,0.000587,0.005000,0.000000,0.000000,0.000000,0.000000,0.000000,0.000000,0.250000,-0.250000,0.000014,0.000000,0.000000,0.000000,0.000000,819,819,819,819
9628,0,2.000000,0.700000,-0.062592,-0.00,-0.00,0.000427,0.005000,0.000000,0.000000,0.000000,0.000000,0.000000,0.000000,0.250000,-0.250000,0.000015,0.000000,0.000000,0.000000,0.000000,819,819,819,819
9638,0,2.000000,0.700000,-0.062592,-0.00,-0.00,0.000283,0.005000,0.000000,0.000000,0.000000,0.000000,0.000000,0.000000,0.250000,-0.250000,0.000016,0.000000,0.000000,0.000000,0.000000,819,819,819,819
9655,0,2.000000,0.700000,-0.062592,-0.00,0.00,0.000153,0.005000,0.000000,0.000000,0.000000,0.000000,0.000000,0.000000,0.250000,-0.250000,0.000018,0.000000,0.000000,0.000000,0.000000,819,819,819,819
9667,0,2.000000,0.700000,-0.062592,-0.00,0.00,-0.000173,0.005000,0.000000,0.000000,0.000000,0.000000,0.000000,0.000000,0.250000,-0.250000,0.000021,0.000000,0.000000,0.000000,0.000000,819,819,819,819
9677,0,2.000000,0.700000,-0.062592,-0.00,0.00,-0.000467,0.005000,0.000000,0.000000,0.000000,0.000000,0.000000,0.000000,0.250000,-0.250000,0.000024,0.000000,0.000000,0.000000,0.000000,819,819,819,819
9688,0,2.000000,0.700000,-0.062592,-0.00,0.00,-0.000630,0.005000,0.000000,0.000000,0.000000,0.000000,0.000000,0.000000,0.250000,-0.250000,0.000026,0.000000,0.000000,0.000000,0.000000,819,819,819,819
9698,0,2.000000,0.700000,-0.062592,-0.00,0.00,-0.000778,0.005000,0.000000,0.000000,0.000000,0.000000,0.000000,0.000000,0.250000,-0.250000,0.000028,0.000000,0.000000,0.000000,0.000000,819,819,819,819
9708,0,2.000000,0.700000,-0.062592,-0.00,-0.00,-0.000807,0.005000,0.000000,0.000000,0.000000,0.000000,0.000000,0.000000,0.250000,-0.250000,0.000029,0.000000,0.000000,0.000000,0.000000,819,819,819,819
9718,0,2.000000,0.700000,-0.062592,-0.00,-0.00,-0.000731,0.005000,0.000000,0.000000,0.000000,0.000000,0.000000,0.000000,0.250000,-0.250000,0.000028,0.000000,0.000000,0.000000,0.000000,819,819,819,819
9728,0,2.000000,0.700000,-0.062592,-0.00,-0.00,-0.000661,0.005000,0.000000,0.000000,0.000000,0.000000,0.000000,0.000000,0.250000,-0.250000,0.000028,0.000000,0.000000,0.000000,0.000000,819,819,819,819
9738,0,2.000000,0.700000,-0.062592,-0.00,-0.00,-0.000598,0.005000,0.000000,0.000000,0.000000,0.000000,0.000000,0.000000,0.250000,-0.250000,0.000028,0.000000,0.000000,0.000000,0.000000,819,819,819,819
9748,0,2.000000,0.700000,-0.062592,-0.00,0.00,-0.000438,0.005000,0.000000,0.000000,0.000000,0.000000,0.000000,0.000000,0.250000,-0.250000,0.000026,0.000000,0.000000,0.000000,0.000000,819,819,819,819
9758,0,2.000000,0.700000,-0.062592,-0.00,0.00,-0.000707,0.005000,0.000000,0.000000,0.000000,0.000000,0.000000,0.000000,0.250000,-0.250000,0.000029,0.000000,0.000000,0.000000,0.000000,819,819,819,819
9768,0,2.000000,0.700000,-0.062592,-0.00,0.00,-0.000847,0.005000,0.000000,0.000000,0.000000,0.000000,0.000000,0.000000,0.250000,-0.250000,0.000031,0.000000,0.000000,0.000000,0.000000,819,819,819,819
9778,0,2.000000,0.700000,-0.062592,-0.00,0.00,-0.001078,0.005000,0.000000,0.000000,0.000000,0.000000,0.000000,0.000000,0.250000,-0.250000,0.000034,0.000000,0.000000,0.000000,0.000000,819,819,819,819
9788,0,2.000000,0.700000,-0.062592,-0.00,0.00,-0.000872,0.005000,0.000000,0.000000,0.000000,0.000000,0.000000,0.000000,0.250000,-0.250000,0.000032,0.000000,0.000000,0.000000,0.000000,819,819,819,819
9798,0,2.000000,0.700000,-0.062592,-0.00,0.00,-0.000582,0.005000,0.000000,0.000000,0.000000,0.000000,0.000000,0.000000,0.250000,-0.250000,0.000030,0.000000,0.000000,0.000000,0.000000,819,819,819,819
9808,0,2.000000,0.700000,-0.062592,-0.00,0.00,-0.000319,0.005000,0.000000,0.000000,0.000000,0.000000,0.000000,0.000000,0.250000,-0.250000,0.000027,0.000000,0.000000,0.000000,0.000000,819,819,819,819
9818,0,2.000000,0.700000,-0.062592,-0.00,0.00,-0.000185,0.005000,0.000000,0.000000,0.000000,0.000000,0.000000,0.000000,0.250000,-0.250000,0.000026,0.000000,0.000000,0.000000,0.000000,819,819,819,819
9828,0,2.000000,0.700000,-0.062592,-0.00,0.00,-0.000168,0.005000,0.000000,0.000000,0.000000,0.000000,0.000000,0.000000,0.250000,-0.250000,0.000026,0.000000,0.000000,0.000000,0.000000,819,819,819,819
9838,0,2.000000,0.700000,-0.062592,-0.00,0.00,-0.000048,0.005000,0.000000,0.000000,0.000000,0.000000,0.000000,0.000000,0.250000,-0.250000,0.000025,0.000000,0.000000,0.000000,0.000000,819,819,819,819
9848,0,2.000000,0.700000,-0.062592,-0.00,0.00,-0.000043,0.005000,0.000000,0.000000,0.000000,0.000000,0.000000,0.000000,0.250000,-0.250000,0.000025,0.000000,0.000000,0.000000,0.000000,819,819,819,819
9858,0,2.000000,0.700000,-0.062592,-0.00,0.00,-0.000247,0.005000,0.000000,0.000000,0.000000,0.000000,0.000000,0.000000,0.250000,-0.250000,0.000027,0.000000,0.000000,0.000000,0.000000,819,819,819,819
9868,0,2.000000,0.700000,-0.062592,-0.00,0.00,-0.000534,0.005000,0.000000,0.000000,0.000000,0.000000,0.000000,0.000000,0.250000,-0.250000,0.000030,0.000000,0.000000,0.000000,0.000000,819,819,819,819
9878,0,2.000000,0.700000,-0.062592,-0.00,0.00,-0.000691,0.005000,0.000000,0.000000,0.000000,0.000000,0.000000,0.000000,0.250000,-0.250000,0.000032,0.000000,0.000000,0.000000,0.000000,819,819,819,819
9890,0,2.000000,0.700000,-0.062592,-0.00,0.00,-0.000625,0.005000,0.000000,0.000000,0.000000,0.000000,0.000000,0.000000,0.250000,-0.250000,0.000032,0.000000,0.000000,0.000000,0.000000,819,819,819,819
9899,0,2.000000,0.700000,-0.062592,0.00,0.00,-0.000358,0.005000,0.000000,0.000000,0.000000,0.000000,0.000000,0.000000,0.250000,-0.250000,0.000029,0.000000,0.000000,0.000000,0.000000,819,819,819,819
9908,0,2.000000,0.700000,-0.062592,0.00,0.00,0.000194,0.005000,0.000000,0.000000,0.000000,0.000000,0.000000,0.000000,0.250000,-0.250000,0.000023,0.000000,0.000000,0.000000,0.000000,819,819,819,819
9918,0,2.000000,0.700000,-0.062592,0.00,0.00,0.000279,0.005000,0.000000,0.000000,0.000000,0.000000,0.000000,0.000000,0.250000,-0.250000,0.000022,0.000000,0.000000,0.000000,0.000000,819,819,819,819
9930,0,2.000000,0.700000,-0.062592,0.00,0.00,0.000253,0.005000,0.000000,0.000000,0.000000,0.000000,0.000000,0.000000,0.250000,-0.250000,0.000022,0.000000,0.000000,0.000000,0.000000,819,819,819,819
9939,0,2.000000,0.700000,-0.062592,-0.00,0.00,-0.000082,0.005000,0.000000,0.000000,0.000000,0.000000,0.000000,0.000000,0.250000,-0.250000,0.000026,0.000000,0.000000,0.000000,0.000000,819,819,819,819
9948,0,2.000000,0.700000,-0.062592,-0.00,0.00,-0.000282,0.005000,0.000000,0.000000,0.000000,0.000000,0.000000,0.000000,0.250000,-0.250000,0.000028,0.000000,0.000000,0.000000,0.000000,819,819,819,819
9965,0,2.000000,0.700000,-0.062592,-0.00,0.00,-0.000462,0.005000,0.000000,0.000000,0.000000,0.000000,0.000000,0.000000,0.250000,-0.250000,0.000030,0.000000,0.000000,0.000000,0.000000,819,819,819,819
9978,0,2.000000,0.700000,-0.062592,-0.00,0.00,-0.000315,0.005000,0.000000,0.000000,0.000000,0.000000,0.000000,0.000000,0.250000,-0.250000,0.000029,0.000000,0.000000,0.000000,0.000000,819,819,819,819
9988,0,2.000000,0.700000,-0.062592,0.00,0.00,-0.000181,0.005000,0.000000,0.000000,0.000000,0.000000,0.000000,0.000000,0.250000,-0.250000,0.000028,0.000000,0.000000,0.000000,0.000000,819,819,819,819
9998,0,2.000000,0.700000,-0.062592,-0.00,0.00,0.000043,0.005000,0.000000,0.000000,0.000000,0.000000,0.000000,0.000000,0.250000,-0.250000,0.000025,0.000000,0.000000,0.000000,0.000000,819,819,819,819
10008,0,2.000000,0.700000,-0.062592,-0.00,0.00,0.000143,0.005000,0.000000,0.000000,0.000000,0.000000,0.000000,0.000000,0.250000,-0.250000,0.000024,0.000000,0.000000,0.000000,0.000000,819,819,819,819
10018,0,2.000000,0.700000,-0.062592,-0.00,0.00,0.000026,0.005000,0.000000,0.000000,0.000000,0.000000,0.000000,0.000000,0.250000,-0.250000,0.000025,0.000000,0.000000,0.000000,0.000000,819,819,819,819
10028,0,2.000000,0.700000,-0.062592,-0.00,0.00,0.000023,0.005000,0.000000,0.000000,0.000000,0.000000,0.000000,0.000000,0.250000,-0.250000,0.000025,0.000000,0.000000,0.000000,0.000000,819,819,819,819
10038,0,2.000000,0.700000,-0.062592,-0.00,0.00,0.000021,0.005000,0.000000,0.000000,0.000000,0.000000,0.000000,0.000000,0.250000,-0.250000,0.000025,0.000000,0.000000,0.000000,0.000000,819,819,819,819
10048,0,2.000000,0.700000,-0.062592,-0.00,0.00,0.000123,0.005000,0.000000,0.000000,0.000000,0.000000,0.000000,0.000000,0.250000,-0.250000,0.000024,0.000000,0.000000,0.000000,0.000000,819,819,819,819
10058,0,2.000000,0.700000,-0.062592,-0.00,0.00,0.000215,0.005000,0.000000,0.000000,0.000000,0.000000,0.000000,0.000000,0.250000,-0.250000,0.000023,0.000000,0.000000,0.000000,0.000000,819,819,819,819
10068,0,2.000000,0.700000,-0.062592,-0.00,0.00,0.000401,0.005000,0.000000,0.000000,0.000000,0.000000,0.000000,0.000000,0.250000,-0.250000,0.000021,0.000000,0.000000,0.000000,0.000000,819,819,819,819
10078,0,2.000000,0.700000,-0.062592,-0.00,0.00,0.000363,0.005000,0.000000,0.000000,0.000000,0.000000,0.000000,0.000000,0.250000,-0.250000,0.000021,0.000000,0.000000,0.000000,0.000000,819,819,819,819
10088,0,2.000000,0.700000,-0.062592,-0.00,0.00,0.000122,0.005000,0.000000,0.000000,0.000000,0.000000,0.000000,0.000000,0.250000,-0.250000,0.000024,0.000000,0.000000,0.000000,0.000000,819,819,819,819
10098,0,2.000000,0.700000,-0.062592,-0.00,0.00,-0.000201,0.005000,0.000000,0.000000,0.000000,0.000000,0.000000,0.000000,0.250000,-0.250000,0.000027,0.000000,0.000000,0.000000,0.000000,819,819,819,819
10108,0,2.000000,0.700000,-0.062592,-0.00,0.00,-0.000285,0.005000,0.000000,0.000000,0.000000,0.000000,0.000000,0.000000,0.250000,-0.250000,0.000028,0.000000,0.000000,0.000000,0.000000,819,819,819,819
10118,0,2.000000,0.700000,-0.062592,-0.00,0.00,-0.000362,0.005000,0.000000,0.000000,0.000000,0.000000,0.000000,0.000000,0.250000,-0.250000,0.000029,0.000000,0.000000,0.000000,0.000000,819,819,819,819
10128,0,2.000000,0.700000,-0.062592,-0.00,0.00,-0.000224,0.005000,0.000000,0.000000,0.000000,0.000000,0.000000,0.000000,0.250000,-0.250000,0.000028,0.000000,0.000000,0.000000,0.000000,819,819,819,819
10139,0,2.000000,0.700000,-0.062592,-0.00,0.00,-0.000306,0.005000,0.000000,0.000000,0.000000,0.000000,0.000000,0.000000,0.250000,-0.250000,0.000029,0.000000,0.000000,0.000000,0.000000,819,819,819,819
10148,0,2.000000,0.700000,-0.062592,-0.00,0.00,-0.000484,0.005000,0.000000,0.000000,0.000000,0.000000,0.000000,0.000000,0.250000,-0.250000,0.000031,0.000000,0.000000,0.000000,0.000000,819,819,819,819
10158,0,2.000000,0.700000,-0.062592,-0.00,0.00,-0.000542,0.005000,0.000000,0.000000,0.000000,0.000000,0.000000,0.000000,0.250000,-0.250000,0.000032,0.000000,0.000000,0.000000,0.000000,819,819,819,819
10168,0,2.000000,0.700000,-0.062592,-0.00,0.00,-0.000387,0.005000,0.000000,0.000000,0.000000,0.000000,0.000000,0.000000,0.250000,-0.250000,0.000030,0.000000,0.000000,0.000000,0.000000,819,819,819,819
10178,0,2.000000,0.700000,-0.062592,-0.00,0.00,-0.000350,0.005000,0.000000,0.000000,0.000000,0.000000,0.000000,0.000000,0.250000,-0.250000,0.000030,0.000000,0.000000,0.000000,0.000000,819,819,819,819
10189,0,2.000000,0.700000,-0.062592,-0.00,0.00,-0.000628,0.005000,0.000000,0.000000,0.000000,0.000000,0.000000,0.000000,0.250000,-0.250000,0.000033,0.000000,0.000000,0.000000,0.000000,819,819,819,819
10199,0,2.000000,0.700000,-0.062592,-0.00,0.00,-0.000775,0.005000,0.000000,0.000000,0.000000,0.000000,0.000000,0.000000,0.250000,-0.250000,0.000035,0.000000,0.000000,0.000000,0.000000,819,819,819,819
10208,0,2.000000,0.700000,-0.062592,-0.00,0.00,-0.000702,0.005000,0.000000,0.000000,0.000000,0.000000,0.000000,0.000000,0.250000,-0.250000,0.000035,0.000000,0.000000,0.000000,0.000000,819,819,819,819
10218,0,2.000000,0.700000,-0.062592,-0.00,0.00,-0.000531,0.005000,0.000000,0.000000,0.000000,0.000000,0.000000,0.000000,0.250000,-0.250000,0.000033,0.000000,0.000000,0.000000,0.000000,819,819,819,819
10229,0,2.000000,0.700000,-0.062592,-0.00,0.00,-0.000585,0.005000,0.000000,0.000000,0.000000,0.000000,0.000000,0.000000,0.250000,-0.250000,0.000034,0.000000,0.000000,0.000000,0.000000,819,819,819,819
10239,0,2.000000,0.700000,-0.062592,-0.00,0.00,-0.000425,0.005000,0.000000,0.000000,0.000000,0.000000,0.000000,0.000000,0.250000,-0.250000,0.000033,0.000000,0.000000,0.000000,0.000000,819,819,819,819
10249,0,2.000000,0.700000,-0.062592,-0.00,-0.00,-0.000281,0.005000,0.000000,0.000000,0.000000,0.000000,0.000000,0.000000,0.250000,-0.250000,0.000031,0.000000,0.000000,0.000000,0.000000,819,819,819,819
10258,0,2.000000,0.700000,-0.062592,-0.00,-0.00,-0.000566,0.005000,0.000000,0.000000,0.000000,0.000000,0.000000,0.000000,0.250000,-0.250000,0.000035,0.000000,0.000000,0.000000,0.000000,819,819,819,819
10269,0,2.000000,0.700000,-0.062592,-0.00,-0.00,-0.000305,0.005000,0.000000,0.000000,0.000000,0.000000,0.000000,0.000000,0.250000,-0.250000,0.000032,0.000000,0.000000,0.000000,0.000000,819,819,819,819
10286,0,2.000000,0.700000,-0.062592,-0.00,0.00,-0.000172,0.005000,0.000000,0.000000,0.000000,0.000000,0.000000,0.000000,0.250000,-0.250000,0.000031,0.000000,0.000000,0.000000,0.000000,819,819,819,819
10297,0,2.000000,0.700000,-0.062592,-0.00,0.00,0.000052,0.005000,0.000000,0.000000,0.000000,0.000000,0.000000,0.000000,0.250000,-0.250000,0.000029,0.000000,0.000000,0.000000,0.000000,819,819,819,819
10308,0,2.000000,0.700000,-0.062592,-0.00,0.00,-0.000057,0.005000,0.000000,0.000000,0.000000,0.000000,0.000000,0.000000,0.250000,-0.250000,0.000030,0.000000,0.000000,0.000000,0.000000,819,819,819,819
10318,0,2.000000,0.700000,-0.062592,-0.00,0.00,-0.000777,0.005000,0.000000,0.000000,0.000000,0.000000,0.000000,0.000000,0.250000,-0.250000,0.000037,0.000000,0.000000,0.000000,0.000000,819,819,819,819
10328,0,2.000000,0.700000,-0.062592,-0.00,0.00,-0.001014,0.005000,0.000000,0.000000,0.000000,0.000000,0.000000,0.000000,0.250000,-0.250000,0.000040,0.000000,0.000000,0.000000,0.000000,819,819,819,819
10339,0,2.000000,0.700000,-0.062592,-0.00,0.00,-0.001021,0.005000,0.000000,0.000000,0.000000,0.000000,0.000000,0.000000,0.250000,-0.250000,0.000041,0.000000,0.000000,0.000000,0.000000,819,819,819,819
10349,0,2.000000,0.700000,-0.062592,-0.00,0.00,-0.000613,0.005000,0.000000,0.000000,0.000000,0.000000,0.000000,0.000000,0.250000,-0.250000,0.000037,0.000000,0.000000,0.000000,0.000000,819,819,819,819
10359,0,2.000000,0.700000,-0.062592,-0.00,0.00,-0.000141,0.005000,0.000000,0.000000,0.000000,0.000000,0.000000,0.000000,0.250000,-0.250000,0.000032,0.000000,0.000000,0.000000,0.000000,819,819,819,819
10369,0,2.000000,0.700000,-0.062592,-0.00,0.00,0.000080,0.005000,0.000000,0.000000,0.000000,0.000000,0.000000,0.000000,0.250000,-0.250000,0.000030,0.000000,0.000000,0.000000,0.000000,819,819,819,819
10379,0,2.000000,0.700000,-0.062592,-0.00,0.00,-0.000135,0.005000,0.000000,0.000000,0.000000,0.000000,0.000000,0.000000,0.250000,-0.250000,0.000032,0.000000,0.000000,0.000000,0.000000,819,819,819,819
10389,0,2.000000,0.700000,-0.062592,-0.00,-0.00,-0.000640,0.005000,0.000000,0.000000,0.000000,0.000000,0.000000,0.000000,0.250000,-0.250000,0.000038,0.000000,0.000000,0.000000,0.000000,819,819,819,819
10399,0,2.000000,0.700000,-0.062592,-0.00,-0.00,-0.001098,0.005000,0.000000,0.000000,0.000000,0.000000,0.000000,0.000000,0.250000,-0.250000,0.000043,0.000000,0.000000,0.000000,0.000000,819,819,819,819
10409,0,2.000000,0.700000,-0.062592,-0.00,0.00,-0.001097,0.005000,0.000000,0.000000,0.000000,0.000000,0.000000,0.000000,0.250000,-0.250000,0.000044,0.000000,0.000000,0.000000,0.000000,819,819,819,819
10419,0,2.000000,0.700000,-0.062592,-0.00,0.00,-0.001096,0.005000,0.000000,0.000000,0.000000,0.000000,0.000000,0.000000,0.250000,-0.250000,0.000044,0.000000,0.000000,0.000000,0.000000,819,819,819,819
10429,0,2.000000,0.700000,-0.062592,-0.00,0.00,-0.001303,0.005000,0.000000,0.000000,0.000000,0.000000,0.000000,0.000000,0.250000,-0.250000,0.000047,0.000000,0.000000,0.000000,0.000000,819,819,819,819
10439,0,2.000000,0.700000,-0.062592,-0.00,-0.00,-0.001283,0.005000,0.000000,0.000000,0.000000,0.000000,0.000000,0.000000,0.250000,-0.250000,0.000047,0.000000,0.000000,0.000000,0.000000,819,819,819,819
10449,0,2.000000,0.700000,-0.062592,-0.00,-0.00,-0.001265,0.005000,0.000000,0.000000,0.000000,0.000000,0.000000,0.000000,0.250000,-0.250000,0.000048,0.000000,0.000000,0.000000,0.000000,819,819,819,819
10459,0,2.000000,0.700000,-0.062592,-0.00,-0.00,-0.001144,0.005000,0.000000,0.000000,0.000000,0.000000,0.000000,0.000000,0.250000,-0.250000,0.000047,0.000000,0.000000,0.000000,0.000000,819,819,819,819
10469,0,2.000000,0.700000,-0.062592,-0.00,-0.00,-0.001036,0.005000,0.000000,0.000000,0.000000,0.000000,0.000000,0.000000,0.250000,-0.250000,0.000047,0.000000,0.000000,0.000000,0.000000,819,819,819,819
