t,is_crashed,roll,pitch,yaw,p,q,r,throttle,p_cmd,q_cmd,r_cmd,roll_cmd,pitch_cmd,yaw_cmd,roll_pid_out,pitch_pid_out,yaw_pid_out,motor_fl,motor_bl,motor_fr,motor_br,pwm_fl,pwm_bl,pwm_fr,pwm_br
7054,0,2.062500,0.437500,-0.062500,-0.06,0.18,0.237500,-1.000000,0.000000,0.000000,0.000000,0.000000,0.000000,0.000000,-0.000036,0.000000,0.000000,0.000000,0.000000,0.000000,0.000000,0,0,0,0
7066,0,0.000000,0.000000,-0.062500,-8.53,-1.88,0.071250,-1.000000,0.000000,0.000000,0.000000,0.000000,0.000000,0.000000,-0.005157,0.000000,0.000000,0.000000,0.000000,0.000000,0.000000,819,819,819,819
7075,0,0.000000,0.000000,-0.062500,0.00,0.06,0.003563,-1.000000,0.000000,0.000000,0.000000,0.000000,0.000000,0.000000,-0.000000,0.000000,0.000000,0.000000,0.000000,0.000000,0.000000,819,819,819,819
7093,0,0.000000,0.000000,-0.062500,-0.06,-0.30,0.000178,-1.000000,0.000000,0.000000,0.000000,0.000000,0.000000,0.000000,-0.000036,0.000000,0.000000,0.000000,0.000000,0.000000,0.000000,819,819,819,819
7105,0,0.000000,0.000000,-0.062500,0.00,0.00,0.059384,-1.000000,0.000000,0.000000,0.000000,0.000000,0.000000,0.000000,-0.000000,0.000000,0.000000,0.000000,0.000000,0.000000,0.000000,819,819,819,819
7115,0,0.000000,0.000000,-0.062500,0.00,0.06,0.537344,-1.000000,0.000000,0.000000,0.000000,0.000000,0.000000,0.000000,-0.000000,0.000000,0.000000,0.000000,0.000000,0.000000,0.000000,819,819,819,819
7125,0,0.000000,0.000000,-0.062500,0.00,0.06,0.620617,-1.000000,0.000000,0.000000,0.000000,0.000000,0.000000,0.000000,-0.000000,0.000000,0.000000,0.000000,0.000000,0.000000,0.000000,819,819,819,819
7135,0,0.000000,0.000000,-0.062500,0.06,0.18,0.624781,-1.000000,0.000000,0.000000,0.000000,0.000000,0.000000,0.000000,0.000036,0.000000,0.000000,0.000000,0.000000,0.000000,0.000000,819,819,819,819
7146,0,0.000000,0.000000,-0.062500,0.12,0.06,0.506239,-1.000000,0.000000,0.000000,0.000000,0.000000,0.000000,0.000000,0.000072,0.000000,0.000000,0.000000,0.000000,0.000000,0.000000,819,819,819,819
7155,0,0.000000,0.000000,-0.062500,0.00,0.06,0.203437,-1.000000,0.000000,0.000000,0.000000,0.000000,0.000000,0.000000,-0.000000,0.000000,0.000000,0.000000,0.000000,0.000000,0.000000,819,819,819,819
7165,0,0.000000,0.000000,-0.062500,0.00,0.24,-0.167953,-1.000000,0.000000,0.000000,0.000000,0.000000,0.000000,0.000000,-0.000000,0.000000,0.000000,0.000000,0.000000,0.000000,0.000000,819,819,819,819
7211,0,0.000000,0.000000,-0.062500,-0.06,-0.06,-0.067773,-1.000000,0.000000,0.000000,0.000000,0.000000,0.000000,0.000000,-0.000036,0.000000,0.000000,0.000000,0.000000,0.000000,0.000000,819,819,819,819
7223,0,0.000000,0.000000,-0.062500,-0.06,-0.06,0.115361,-1.000000,0.000000,0.000000,0.000000,0.000000,0.000000,0.000000,-0.000036,0.000000,0.000000,0.000000,0.000000,0.000000,0.000000,819,819,819,819
7234,0,0.000000,0.000000,-0.062500,0.00,0.12,0.362018,-1.000000,0.000000,0.000000,0.000000,0.000000,0.000000,0.000000,-0.000000,0.000000,0.000000,0.000000,0.000000,0.000000,0.000000,819,819,819,819
7246,0,0.000000,0.000000,-0.062500,0.00,0.06,0.730601,-1.000000,0.000000,0.000000,0.000000,0.000000,0.000000,0.000000,-0.000000,0.000000,0.000000,0.000000,0.000000,0.000000,0.000000,819,819,819,819
7256,0,0.000000,0.000000,-0.062500,-0.06,-0.18,0.689655,-1.000000,0.000000,0.000000,0.000000,0.000000,0.000000,0.000000,-0.000036,0.000000,0.000000,0.000000,0.000000,0.000000,0.000000,819,819,819,819
7266,0,0.000000,0.000000,-0.062500,0.00,0.06,0.865733,-1.000000,0.000000,0.000000,0.000000,0.000000,0.000000,0.000000,-0.000000,0.000000,0.000000,0.000000,0.000000,0.000000,0.000000,819,819,819,819
7276,0,0.000000,0.000000,-0.062500,-0.06,-0.06,0.993287,-1.000000,0.000000,0.000000,0.000000,0.000000,0.000000,0.000000,-0.000036,0.000000,0.000000,0.000000,0.000000,0.000000,0.000000,819,819,819,819
7286,0,-0.062500,0.000000,-0.062500,-0.31,-0.06,0.702789,-1.000000,0.000000,0.000000,0.000000,0.000000,0.000000,0.000000,-0.000189,0.000000,0.000000,0.000000,0.000000,0.000000,0.000000,819,819,819,819
7296,0,-0.062500,0.000000,-0.062500,0.00,0.00,0.391389,-1.000000,0.000000,0.000000,0.000000,0.000000,0.000000,0.000000,-0.000000,0.000000,0.000000,0.000000,0.000000,0.000000,0.000000,819,819,819,819
7306,0,-0.062500,0.000000,-0.062500,0.06,-0.12,-0.158556,-1.000000,0.000000,0.000000,0.000000,0.000000,0.000000,0.000000,0.000036,0.000000,0.000000,0.000000,0.000000,0.000000,0.000000,819,819,819,819
7316,0,-0.062500,0.000000,-0.062500,0.00,0.06,-0.186053,-1.000000,0.000000,0.000000,0.000000,0.000000,0.000000,0.000000,-0.000000,0.000000,0.000000,0.000000,0.000000,0.000000,0.000000,819,819,819,819
7326,0,-0.062500,0.000000,-0.062500,-0.06,0.06,-0.187428,-1.000000,0.000000,0.000000,0.000000,0.000000,0.000000,0.000000,-0.000036,0.000000,0.000000,0.000000,0.000000,0.000000,0.000000,819,819,819,819
7336,0,-0.062500,0.000000,-0.062500,-0.12,0.24,0.168754,-1.000000,0.000000,0.000000,0.000000,0.000000,0.000000,0.000000,-0.000072,0.000000,0.000000,0.000000,0.000000,0.000000,0.000000,819,819,819,819
7346,0,-0.062500,0.000000,-0.062500,0.00,0.00,0.186563,-1.000000,0.000000,0.000000,0.000000,0.000000,0.000000,0.000000,-0.000000,0.000000,0.000000,0.000000,0.000000,0.000000,0.000000,819,819,819,819
7356,0,-0.062500,0.000000,-0.062500,-0.06,-0.36,0.068703,-1.000000,0.000000,0.000000,0.000000,0.000000,0.000000,0.000000,-0.000036,0.000000,0.000000,0.000000,0.000000,0.000000,0.000000,819,819,819,819
7366,0,-0.062500,0.000000,-0.062500,-0.06,-0.36,0.062810,-1.000000,0.000000,0.000000,0.000000,0.000000,0.000000,0.000000,-0.000036,0.000000,0.000000,0.000000,0.000000,0.000000,0.000000,819,819,819,819
7376,0,-0.062500,0.000000,-0.062500,0.00,0.59,-0.353109,-1.000000,0.000000,0.000000,0.000000,0.000000,0.000000,0.000000,-0.000000,0.000000,0.000000,0.000000,0.000000,0.000000,0.000000,819,819,819,819
7386,0,-0.062500,0.000000,-0.062500,0.00,-0.24,-0.195780,-1.000000,0.000000,0.000000,0.000000,0.000000,0.000000,0.000000,-0.000000,0.000000,0.000000,0.000000,0.000000,0.000000,0.000000,819,819,819,819
7396,0,-0.062500,0.000000,-0.062500,0.12,-0.06,0.108961,-1.000000,0.000000,0.000000,0.000000,0.000000,0.000000,0.000000,0.000072,0.000000,0.000000,0.000000,0.000000,0.000000,0.000000,819,819,819,819
7406,0,-0.062500,0.000000,-0.062500,0.00,0.42,0.539823,-1.000000,0.000000,0.000000,0.000000,0.000000,0.000000,0.000000,-0.000000,0.000000,0.000000,0.000000,0.000000,0.000000,0.000000,819,819,819,819
7416,0,-0.062500,0.000000,-0.062500,0.00,-0.47,0.323866,-1.000000,0.000000,0.000000,0.000000,0.000000,0.000000,0.000000,-0.000000,0.000000,0.000000,0.000000,0.000000,0.000000,0.000000,819,819,819,819
7426,0,-0.062500,0.000000,-0.062500,-0.06,-0.24,-0.221307,-1.000000,0.000000,0.000000,0.000000,0.000000,0.000000,0.000000,-0.000036,0.000000,0.000000,0.000000,0.000000,0.000000,0.000000,819,819,819,819
7436,0,-0.062500,0.000000,-0.062500,0.00,-0.18,0.048310,-1.000000,0.000000,0.000000,0.000000,0.000000,0.000000,0.000000,-0.000000,0.000000,0.000000,0.000000,0.000000,0.000000,0.000000,819,819,819,819
7446,0,-0.062500,0.000000,-0.062500,0.00,-0.18,-0.650709,-1.000000,0.000000,0.000000,0.000000,0.000000,0.000000,0.000000,-0.000000,0.000000,0.000000,0.000000,0.000000,0.000000,0.000000,819,819,819,819
7456,0,-0.062500,0.000000,-0.062500,0.06,0.59,-0.626285,-1.000000,0.000000,0.000000,0.000000,0.000000,0.000000,0.000000,0.000036,0.000000,0.000000,0.000000,0.000000,0.000000,0.000000,819,819,819,819
7466,0,0.000000,0.000000,-0.062500,0.19,0.06,-1.040689,-1.000000,0.000000,0.000000,0.000000,0.000000,0.000000,0.000000,0.000117,0.000000,0.000000,0.000000,0.000000,0.000000,0.000000,819,819,819,819
7476,0,0.000000,0.000000,-0.062500,-0.12,-0.42,-0.645784,-1.000000,0.000000,0.000000,0.000000,0.000000,0.000000,0.000000,-0.000072,0.000000,0.000000,0.000000,0.000000,0.000000,0.000000,819,819,819,819
7486,0,0.000000,0.000000,-0.062500,0.06,0.59,0.086461,-1.000000,0.000000,0.000000,0.000000,0.000000,0.000000,0.000000,0.000036,0.000000,0.000000,0.000000,0.000000,0.000000,0.000000,819,819,819,819
7496,0,0.000000,0.000000,-0.062500,-0.06,0.77,1.073073,-1.000000,0.000000,0.000000,0.000000,0.000000,0.000000,0.000000,-0.000036,0.000000,0.000000,0.000000,0.000000,0.000000,0.000000,819,819,819,819
7506,0,-0.062500,0.000000,-0.062500,-0.31,-0.24,1.419279,-1.000000,0.000000,0.000000,0.000000,0.000000,0.000000,0.000000,-0.000189,0.000000,0.000000,0.000000,0.000000,0.000000,0.000000,819,819,819,819
7516,0,-0.062500,0.000000,-0.062500,0.00,-0.42,1.377214,-1.000000,0.000000,0.000000,0.000000,0.000000,0.000000,0.000000,-0.000000,0.000000,0.000000,0.000000,0.000000,0.000000,0.000000,819,819,819,819
7533,0,-0.062500,0.000000,-0.062500,0.12,0.59,0.603236,-1.000000,0.000000,0.000000,0.000000,0.000000,0.000000,0.000000,0.000072,0.000000,0.000000,0.000000,0.000000,0.000000,0.000000,819,819,819,819
7546,0,-0.062500,0.000000,-0.062500,-0.18,-0.06,-1.335463,-1.000000,0.000000,0.000000,0.000000,0.000000,0.000000,0.000000,-0.000108,0.000000,0.000000,0.000000,0.000000,0.000000,0.000000,819,819,819,819
7556,0,-0.062500,0.000000,-0.062500,-0.18,-0.06,-1.432398,-1.000000,0.000000,0.000000,0.000000,0.000000,0.000000,0.000000,-0.000108,0.000000,0.000000,0.000000,0.000000,0.000000,0.000000,819,819,819,819
7566,0,0.000000,0.000000,-0.062500,0.31,-0.89,-1.674745,-1.000000,0.000000,0.000000,0.000000,0.000000,0.000000,0.000000,0.000189,0.000000,0.000000,0.000000,0.000000,0.000000,0.000000,819,819,819,819
7576,0,0.000000,0.000000,-0.062500,0.06,-0.47,-1.983737,-1.000000,0.000000,0.000000,0.000000,0.000000,0.000000,0.000000,0.000036,0.000000,0.000000,0.000000,0.000000,0.000000,0.000000,819,819,819,819
7586,0,0.000000,0.000000,-0.062500,0.06,-0.42,-1.761687,-1.000000,0.000000,0.000000,0.000000,0.000000,0.000000,0.000000,0.000036,0.000000,0.000000,0.000000,0.000000,0.000000,0.000000,819,819,819,819
7597,0,0.000000,0.000000,-0.062500,-0.06,-0.36,-0.800584,-1.000000,0.000000,0.000000,0.000000,0.000000,0.000000,0.000000,-0.000036,0.000000,0.000000,0.000000,0.000000,0.000000,0.000000,819,819,819,819
7606,0,0.062500,0.000000,-0.062500,0.41,1.25,0.019346,-1.000000,0.000000,0.000000,0.000000,0.000000,0.000000,0.000000,0.000246,0.000000,0.000000,0.000000,0.000000,0.000000,0.000000,819,819,819,819
7616,0,0.062500,0.000000,-0.062500,0.12,0.36,1.485342,-1.000000,0.000000,0.000000,0.000000,0.000000,0.000000,0.000000,0.000072,0.000000,0.000000,0.000000,0.000000,0.000000,0.000000,819,819,819,819
7626,0,0.000000,0.000000,-0.062500,-0.31,-0.42,1.914892,-1.000000,0.000000,0.000000,0.000000,0.000000,0.000000,0.000000,-0.000189,0.000000,0.000000,0.000000,0.000000,0.000000,0.000000,819,819,819,819
7636,0,0.000000,0.000000,-0.062500,0.00,0.00,2.114495,-1.000000,0.000000,0.000000,0.000000,0.000000,0.000000,0.000000,-0.000000,0.000000,0.000000,0.000000,0.000000,0.000000,0.000000,819,819,819,819
7647,0,0.000000,0.000000,-0.062500,-0.12,-0.06,0.818225,-1.000000,0.000000,0.000000,0.000000,0.000000,0.000000,0.000000,-0.000072,0.000000,0.000000,0.000000,0.000000,0.000000,0.000000,819,819,819,819
7657,0,0.000000,0.000000,-0.062500,0.06,0.77,-0.255964,-1.000000,0.000000,0.000000,0.000000,0.000000,0.000000,0.000000,0.000036,0.000000,0.000000,0.000000,0.000000,0.000000,0.000000,819,819,819,819
7667,0,0.000000,0.000000,-0.062500,0.06,0.65,-1.319048,-1.000000,0.000000,0.000000,0.000000,0.000000,0.000000,0.000000,0.000036,0.000000,0.000000,0.000000,0.000000,0.000000,0.000000,819,819,819,819
7677,0,0.000000,0.000000,-0.062500,0.06,-0.42,-2.084702,-1.000000,0.000000,0.000000,0.000000,0.000000,0.000000,0.000000,0.000036,0.000000,0.000000,0.000000,0.000000,0.000000,0.000000,819,819,819,819
7687,0,0.000000,0.000000,-0.062500,-0.06,-1.25,-0.876110,-1.000000,0.000000,0.000000,0.000000,0.000000,0.000000,0.000000,-0.000036,0.000000,0.000000,0.000000,0.000000,0.000000,0.000000,819,819,819,819
7697,0,0.000000,0.000000,-0.062500,-0.18,-0.36,-0.103181,-1.000000,0.000000,0.000000,0.000000,0.000000,0.000000,0.000000,-0.000108,0.000000,0.000000,0.000000,0.000000,0.000000,0.000000,819,819,819,819
7707,0,0.000000,0.000000,-0.062500,0.00,-0.53,0.707341,-1.000000,0.000000,0.000000,0.000000,0.000000,0.000000,0.000000,-0.000000,0.000000,0.000000,0.000000,0.000000,0.000000,0.000000,819,819,819,819
7717,0,0.000000,0.000000,-0.062500,0.00,0.18,0.807242,-1.000000,0.000000,0.000000,0.000000,0.000000,0.000000,0.000000,-0.000000,0.000000,0.000000,0.000000,0.000000,0.000000,0.000000,819,819,819,819
7727,0,0.000000,0.000000,-0.062500,0.06,0.06,0.871612,-1.000000,0.000000,0.000000,0.000000,0.000000,0.000000,0.000000,0.000036,0.000000,0.000000,0.000000,0.000000,0.000000,0.000000,819,819,819,819
7737,0,0.000000,0.000000,-0.062500,-0.06,1.07,0.815455,-1.000000,0.000000,0.000000,0.000000,0.000000,0.000000,0.000000,-0.000036,0.000000,0.000000,0.000000,0.000000,0.000000,0.000000,819,819,819,819
7747,0,0.000000,0.000000,-0.062500,0.12,0.30,0.040773,-1.000000,0.000000,0.000000,0.000000,0.000000,0.000000,0.000000,0.000072,0.000000,0.000000,0.000000,0.000000,0.000000,0.000000,819,819,819,819
7757,0,0.000000,0.000000,-0.062500,0.00,-0.30,-0.591711,-1.000000,0.000000,0.000000,0.000000,0.000000,0.000000,0.000000,-0.000000,0.000000,0.000000,0.000000,0.000000,0.000000,0.000000,819,819,819,819
7767,0,0.000000,0.000000,-0.062500,0.06,-0.47,-0.623336,-1.000000,0.000000,0.000000,0.000000,0.000000,0.000000,0.000000,0.000036,0.000000,0.000000,0.000000,0.000000,0.000000,0.000000,819,819,819,819
7777,0,0.000000,0.000000,-0.062500,0.00,-0.30,-0.803042,-1.000000,0.000000,0.000000,0.000000,0.000000,0.000000,0.000000,-0.000000,0.000000,0.000000,0.000000,0.000000,0.000000,0.000000,819,819,819,819
7787,0,0.000000,0.000000,-0.062500,-0.12,-0.53,-0.693277,-1.000000,0.000000,0.000000,0.000000,0.000000,0.000000,0.000000,-0.000072,0.000000,0.000000,0.000000,0.000000,0.000000,0.000000,819,819,819,819
7797,0,0.000000,0.000000,-0.062500,-0.06,0.00,0.262211,-1.000000,0.000000,0.000000,0.000000,0.000000,0.000000,0.000000,-0.000036,0.000000,0.000000,0.000000,0.000000,0.000000,0.000000,819,819,819,819
7807,0,0.000000,0.000000,-0.062500,0.12,0.53,0.784985,-1.000000,0.000000,0.000000,0.000000,0.000000,0.000000,0.000000,0.000072,0.000000,0.000000,0.000000,0.000000,0.000000,0.000000,819,819,819,819
7817,0,0.000000,0.000000,-0.062500,0.00,1.42,1.107999,-1.000000,0.000000,0.000000,0.000000,0.000000,0.000000,0.000000,-0.000000,0.000000,0.000000,0.000000,0.000000,0.000000,0.000000,819,819,819,819
7827,0,0.000000,-0.062500,-0.062500,0.06,0.22,1.539775,-1.000000,0.000000,0.000000,0.000000,0.000000,0.000000,0.000000,0.000036,0.000000,0.000000,0.000000,0.000000,0.000000,0.000000,819,819,819,819
7837,0,0.000000,-0.062500,-0.062500,0.00,0.18,1.264489,-1.000000,0.000000,0.000000,0.000000,0.000000,0.000000,0.000000,-0.000000,0.000000,0.000000,0.000000,0.000000,0.000000,0.000000,819,819,819,819
7852,0,-0.062500,-0.062500,-0.062500,-0.21,0.65,0.953849,-1.000000,0.000000,0.000000,0.000000,0.000000,0.000000,0.000000,-0.000126,0.000000,0.000000,0.000000,0.000000,0.000000,0.000000,819,819,819,819
7864,0,-0.062500,-0.062500,-0.062500,-0.06,0.12,0.641442,-1.000000,0.000000,0.000000,0.000000,0.000000,0.000000,0.000000,-0.000036,0.000000,0.000000,0.000000,0.000000,0.000000,0.000000,819,819,819,819
7876,0,-0.062500,-0.062500,-0.062500,-0.18,-1.13,-0.442928,-1.000000,0.000000,0.000000,0.000000,0.000000,0.000000,0.000000,-0.000108,0.000000,0.000000,0.000000,0.000000,0.000000,0.000000,819,819,819,819
7887,0,-0.062500,0.000000,-0.062500,0.00,-0.16,-1.150271,-1.000000,0.000000,0.000000,0.000000,0.000000,0.000000,0.000000,-0.000000,0.000000,0.000000,0.000000,0.000000,0.000000,0.000000,819,819,819,819
7897,0,-0.062500,0.000000,-0.062500,0.00,-0.18,-1.423138,-1.000000,0.000000,0.000000,0.000000,0.000000,0.000000,0.000000,-0.000000,0.000000,0.000000,0.000000,0.000000,0.000000,0.000000,819,819,819,819
7907,0,0.000000,0.000000,-0.062500,0.25,-0.36,-1.139907,-1.000000,0.000000,0.000000,0.000000,0.000000,0.000000,0.000000,0.000153,0.000000,0.000000,0.000000,0.000000,0.000000,0.000000,819,819,819,819
7917,0,0.000000,0.000000,-0.062500,0.00,-0.06,-0.650745,-1.000000,0.000000,0.000000,0.000000,0.000000,0.000000,0.000000,-0.000000,0.000000,0.000000,0.000000,0.000000,0.000000,0.000000,819,819,819,819
7927,0,0.000000,0.000000,-0.062500,-0.18,0.00,0.086213,-1.000000,0.000000,0.000000,0.000000,0.000000,0.000000,0.000000,-0.000108,0.000000,0.000000,0.000000,0.000000,0.000000,0.000000,819,819,819,819
7940,0,0.000000,0.000000,-0.062500,0.06,0.42,0.182436,-1.000000,0.000000,0.000000,0.000000,0.000000,0.000000,0.000000,0.000036,0.000000,0.000000,0.000000,0.000000,0.000000,0.000000,819,819,819,819
7949,0,0.000000,-0.062500,-0.062500,0.00,0.42,0.305997,-1.000000,0.000000,0.000000,0.000000,0.000000,0.000000,0.000000,-0.000000,0.000000,0.000000,0.000000,0.000000,0.000000,0.000000,819,819,819,819
7958,0,0.000000,-0.062500,-0.062500,0.00,0.53,0.134050,-1.000000,0.000000,0.000000,0.000000,0.000000,0.000000,0.000000,-0.000000,0.000000,0.000000,0.000000,0.000000,0.000000,0.000000,819,819,819,819
7968,0,0.000000,-0.062500,-0.062500,0.06,0.30,-0.171422,-1.000000,0.000000,0.000000,0.000000,0.000000,0.000000,0.000000,0.000036,0.000000,0.000000,0.000000,0.000000,0.000000,0.000000,819,819,819,819
7978,0,0.000000,0.000000,-0.062500,-0.12,-0.34,-0.721071,-1.000000,0.000000,0.000000,0.000000,0.000000,0.000000,0.000000,-0.000072,0.000000,0.000000,0.000000,0.000000,0.000000,0.000000,819,819,819,819
7987,0,0.000000,0.000000,-0.062500,0.06,-1.07,-1.104804,-1.000000,0.000000,0.000000,0.000000,0.000000,0.000000,0.000000,0.000036,0.000000,0.000000,0.000000,0.000000,0.000000,0.000000,819,819,819,819
7998,0,0.000000,0.000000,-0.062500,0.06,-0.65,-1.183365,-1.000000,0.000000,0.000000,0.000000,0.000000,0.000000,0.000000,0.000036,0.000000,0.000000,0.000000,0.000000,0.000000,0.000000,819,819,819,819
8008,0,0.062500,0.000000,-0.062500,0.25,-0.18,-0.890418,-1.000000,0.000000,0.000000,0.000000,0.000000,0.000000,0.000000,0.000153,0.000000,0.000000,0.000000,0.000000,0.000000,0.000000,819,819,819,819
8018,0,0.062500,0.000000,-0.062500,-0.06,0.18,0.014854,-1.000000,0.000000,0.000000,0.000000,0.000000,0.000000,0.000000,-0.000036,0.000000,0.000000,0.000000,0.000000,0.000000,0.000000,819,819,819,819
8028,0,0.062500,0.000000,-0.062500,0.12,0.36,1.010118,-1.000000,0.000000,0.000000,0.000000,0.000000,0.000000,0.000000,0.000072,0.000000,0.000000,0.000000,0.000000,0.000000,0.000000,819,819,819,819
8038,0,0.000000,0.000000,-0.062500,-0.35,0.30,1.713006,-1.000000,0.000000,0.000000,0.000000,0.000000,0.000000,0.000000,-0.000210,0.000000,0.000000,0.000000,0.000000,0.000000,0.000000,819,819,819,819
8048,0,0.000000,0.000000,-0.062500,-0.06,0.42,1.807525,-1.000000,0.000000,0.000000,0.000000,0.000000,0.000000,0.000000,-0.000036,0.000000,0.000000,0.000000,0.000000,0.000000,0.000000,819,819,819,819
8058,0,0.000000,0.000000,-0.062500,0.00,0.59,1.277876,-1.000000,0.000000,0.000000,0.000000,0.000000,0.000000,0.000000,-0.000000,0.000000,0.000000,0.000000,0.000000,0.000000,0.000000,819,819,819,819
8068,0,0.000000,0.000000,-0.062500,-0.12,0.30,0.538894,-1.000000,0.000000,0.000000,0.000000,0.000000,0.000000,0.000000,-0.000072,0.000000,0.000000,0.000000,0.000000,0.000000,0.000000,819,819,819,819
8078,0,0.000000,0.000000,-0.062500,0.18,-0.06,-0.269930,-1.000000,0.000000,0.000000,0.000000,0.000000,0.000000,0.000000,0.000108,0.000000,0.000000,0.000000,0.000000,0.000000,0.000000,819,819,819,819
8088,0,0.000000,0.000000,-0.062500,0.00,-0.12,-0.725996,-1.000000,0.000000,0.000000,0.000000,0.000000,0.000000,0.000000,-0.000000,0.000000,0.000000,0.000000,0.000000,0.000000,0.000000,819,819,819,819
8098,0,0.000000,0.000000,-0.062500,0.00,-0.12,-0.867550,-1.000000,0.000000,0.000000,0.000000,0.000000,0.000000,0.000000,-0.000000,0.000000,0.000000,0.000000,0.000000,0.000000,0.000000,819,819,819,819
8108,0,0.000000,0.000000,-0.062500,0.06,0.00,-0.340252,-1.000000,0.000000,0.000000,0.000000,0.000000,0.000000,0.000000,0.000036,0.000000,0.000000,0.000000,0.000000,0.000000,0.000000,819,819,819,819
8118,0,0.000000,0.000000,-0.062500,0.00,-0.42,0.042362,-1.000000,0.000000,0.000000,0.000000,0.000000,0.000000,0.000000,-0.000000,0.000000,0.000000,0.000000,0.000000,0.000000,0.000000,819,819,819,819
8128,0,0.000000,0.000000,-0.062500,-0.06,-0.36,0.180243,-1.000000,0.000000,0.000000,0.000000,0.000000,0.000000,0.000000,-0.000036,0.000000,0.000000,0.000000,0.000000,0.000000,0.000000,819,819,819,819
8138,0,0.000000,0.000000,-0.062500,0.00,-0.12,0.365262,-1.000000,0.000000,0.000000,0.000000,0.000000,0.000000,0.000000,-0.000000,0.000000,0.000000,0.000000,0.000000,0.000000,0.000000,819,819,819,819
8148,0,0.000000,0.000000,-0.062500,-0.06,-0.24,0.196388,-1.000000,0.000000,0.000000,0.000000,0.000000,0.000000,0.000000,-0.000036,0.000000,0.000000,0.000000,0.000000,0.000000,0.000000,819,819,819,819
8163,0,0.000000,0.000000,-0.062500,0.06,0.00,0.009819,-1.000000,0.000000,0.000000,0.000000,0.000000,0.000000,0.000000,0.000036,0.000000,0.000000,0.000000,0.000000,0.000000,0.000000,819,819,819,819
8176,0,0.000000,0.000000,-0.062500,-0.06,0.18,-0.058884,-1.000000,0.000000,0.000000,0.000000,0.000000,0.000000,0.000000,-0.000036,0.000000,0.000000,0.000000,0.000000,0.000000,0.000000,819,819,819,819
8187,0,0.000000,0.000000,-0.062500,0.00,0.59,-0.537319,-1.000000,0.000000,0.000000,0.000000,0.000000,0.000000,0.000000,-0.000000,0.000000,0.000000,0.000000,0.000000,0.000000,0.000000,819,819,819,819
8198,0,0.000000,0.000000,-0.062500,-0.06,0.42,-0.501866,-1.000000,0.000000,0.000000,0.000000,0.000000,0.000000,0.000000,-0.000036,0.000000,0.000000,0.000000,0.000000,0.000000,0.000000,819,819,819,819
8208,0,0.000000,0.000000,-0.062500,0.00,0.24,-1.034468,-1.000000,0.000000,0.000000,0.000000,0.000000,0.000000,0.000000,-0.000000,0.000000,0.000000,0.000000,0.000000,0.000000,0.000000,819,819,819,819
8218,0,0.000000,0.000000,-0.062500,0.00,-0.24,-1.179848,-1.000000,0.000000,0.000000,0.000000,0.000000,0.000000,0.000000,-0.000000,0.000000,0.000000,0.000000,0.000000,0.000000,0.000000,819,819,819,819
8228,0,0.000000,0.000000,-0.062500,0.18,-0.06,-1.246492,-1.000000,0.000000,0.000000,0.000000,0.000000,0.000000,0.000000,0.000108,0.000000,0.000000,0.000000,0.000000,0.000000,0.000000,819,819,819,819
8238,0,0.000000,0.000000,-0.062500,-0.12,1.25,-0.715450,-1.000000,0.000000,0.000000,0.000000,0.000000,0.000000,0.000000,-0.000072,0.000000,0.000000,0.000000,0.000000,0.000000,0.000000,819,819,819,819
8248,0,0.062500,-0.062500,-0.062500,0.31,0.58,0.201728,-1.000000,0.000000,0.000000,0.000000,0.000000,0.000000,0.000000,0.000189,0.000000,0.000000,0.000000,0.000000,0.000000,0.000000,819,819,819,819
8258,0,0.000000,-0.062500,-0.062500,-0.43,-0.24,0.960086,-1.000000,0.000000,0.000000,0.000000,0.000000,0.000000,0.000000,-0.000260,0.000000,0.000000,0.000000,0.000000,0.000000,0.000000,819,819,819,819
8268,0,0.000000,-0.062500,-0.062500,-0.18,-0.36,0.998004,-1.000000,0.000000,0.000000,0.000000,0.000000,0.000000,0.000000,-0.000108,0.000000,0.000000,0.000000,0.000000,0.000000,0.000000,819,819,819,819
8278,0,0.000000,-0.062500,-0.062500,0.06,-0.47,1.059275,-1.000000,0.000000,0.000000,0.000000,0.000000,0.000000,0.000000,0.000036,0.000000,0.000000,0.000000,0.000000,0.000000,0.000000,819,819,819,819
8288,0,0.000000,-0.062500,-0.062500,0.00,-0.12,0.706089,-1.000000,0.000000,0.000000,0.000000,0.000000,0.000000,0.000000,-0.000000,0.000000,0.000000,0.000000,0.000000,0.000000,0.000000,819,819,819,819
8298,0,0.000000,-0.062500,-0.062500,0.00,-0.06,-0.083446,-1.000000,0.000000,0.000000,0.000000,0.000000,0.000000,0.000000,-0.000000,0.000000,0.000000,0.000000,0.000000,0.000000,0.000000,819,819,819,819
8308,0,0.000000,-0.062500,-0.062500,0.06,0.24,-0.479172,-1.000000,0.000000,0.000000,0.000000,0.000000,0.000000,0.000000,0.000036,0.000000,0.000000,0.000000,0.000000,0.000000,0.000000,819,819,819,819
8318,0,0.000000,-0.062500,-0.062500,-0.06,0.06,-0.914584,-1.000000,0.000000,0.000000,0.000000,0.000000,0.000000,0.000000,-0.000036,0.000000,0.000000,0.000000,0.000000,0.000000,0.000000,819,819,819,819
8328,0,0.000000,-0.062500,-0.062500,0.12,-0.06,-0.936354,-1.000000,0.000000,0.000000,0.000000,0.000000,0.000000,0.000000,0.000072,0.000000,0.000000,0.000000,0.000000,0.000000,0.000000,819,819,819,819
8338,0,0.000000,-0.062500,-0.062500,0.00,-0.24,-0.224943,-1.000000,0.000000,0.000000,0.000000,0.000000,0.000000,0.000000,-0.000000,0.000000,0.000000,0.000000,0.000000,0.000000,0.000000,819,819,819,819
8348,0,0.000000,-0.062500,-0.062500,-0.06,-0.36,0.166878,-1.000000,0.000000,0.000000,0.000000,0.000000,0.000000,0.000000,-0.000036,0.000000,0.000000,0.000000,0.000000,0.000000,0.000000,819,819,819,819
8358,0,0.000000,-0.062500,-0.062500,-0.12,-0.12,0.305219,-1.000000,0.000000,0.000000,0.000000,0.000000,0.000000,0.000000,-0.000072,0.000000,0.000000,0.000000,0.000000,0.000000,0.000000,819,819,819,819
8368,0,0.000000,-0.062500,-0.062500,0.06,0.06,0.490261,-1.000000,0.000000,0.000000,0.000000,0.000000,0.000000,0.000000,0.000036,0.000000,0.000000,0.000000,0.000000,0.000000,0.000000,819,819,819,819
8378,0,0.000000,-0.062500,-0.062500,0.00,-0.18,0.380763,-1.000000,0.000000,0.000000,0.000000,0.000000,0.000000,0.000000,-0.000000,0.000000,0.000000,0.000000,0.000000,0.000000,0.000000,819,819,819,819
8388,0,0.000000,-0.062500,-0.062500,-0.06,0.12,0.256538,-1.000000,0.000000,0.000000,0.000000,0.000000,0.000000,0.000000,-0.000036,0.000000,0.000000,0.000000,0.000000,0.000000,0.000000,819,819,819,819
8399,0,0.000000,-0.062500,-0.062500,0.12,-0.18,0.250327,-1.000000,0.000000,0.000000,0.000000,0.000000,0.000000,0.000000,0.000072,0.000000,0.000000,0.000000,0.000000,0.000000,0.000000,819,819,819,819
8409,0,0.000000,-0.062500,-0.062500,0.06,-0.36,-0.343734,-1.000000,0.000000,0.000000,0.000000,0.000000,0.000000,0.000000,0.000036,0.000000,0.000000,0.000000,0.000000,0.000000,0.000000,819,819,819,819
8419,0,0.000000,-0.062500,-0.062500,0.00,-0.12,-0.432812,-1.000000,0.000000,0.000000,0.000000,0.000000,0.000000,0.000000,-0.000000,0.000000,0.000000,0.000000,0.000000,0.000000,0.000000,819,819,819,819
8429,0,0.000000,-0.062500,-0.062500,-0.06,-0.06,-0.199766,-1.000000,0.000000,0.000000,0.000000,0.000000,0.000000,0.000000,-0.000036,0.000000,0.000000,0.000000,0.000000,0.000000,0.000000,819,819,819,819
8439,0,0.000000,-0.062500,-0.062500,-0.06,-0.18,-0.188113,-1.000000,0.000000,0.000000,0.000000,0.000000,0.000000,0.000000,-0.000036,0.000000,0.000000,0.000000,0.000000,0.000000,0.000000,819,819,819,819
8449,0,0.000000,-0.062500,-0.062500,0.00,-0.12,-0.009406,-1.000000,0.000000,0.000000,0.000000,0.000000,0.000000,0.000000,-0.000000,0.000000,0.000000,0.000000,0.000000,0.000000,0.000000,819,819,819,819
8459,0,0.000000,-0.062500,-0.062500,0.06,0.00,0.296405,-1.000000,0.000000,0.000000,0.000000,0.000000,0.000000,0.000000,0.000036,0.000000,0.000000,0.000000,0.000000,0.000000,0.000000,819,819,819,819
8469,0,0.000000,-0.062500,-0.062500,0.06,-0.12,0.549195,-1.000000,0.000000,0.000000,0.000000,0.000000,0.000000,0.000000,0.000036,0.000000,0.000000,0.000000,0.000000,0.000000,0.000000,819,819,819,819
8486,0,0.000000,-0.062500,-0.062500,0.12,-0.30,0.739960,-1.000000,0.000000,0.000000,0.000000,0.000000,0.000000,0.000000,0.000072,0.000000,0.000000,0.000000,0.000000,0.000000,0.000000,819,819,819,819
8499,0,0.000000,-0.062500,-0.062500,-0.12,-0.47,-0.141127,-1.000000,0.000000,0.000000,0.000000,0.000000,0.000000,0.000000,-0.000072,0.000000,0.000000,0.000000,0.000000,0.000000,0.000000,819,819,819,819
8509,0,0.000000,-0.062500,-0.062500,0.00,-0.12,-0.066431,-1.000000,0.000000,0.000000,0.000000,0.000000,0.000000,0.000000,-0.000000,0.000000,0.000000,0.000000,0.000000,0.000000,0.000000,819,819,819,819
8519,0,0.000000,-0.062500,-0.062500,-0.06,0.06,-0.240822,-1.000000,0.000000,0.000000,0.000000,0.000000,0.000000,0.000000,-0.000036,0.000000,0.000000,0.000000,0.000000,0.000000,0.000000,819,819,819,819
8529,0,0.000000,-0.062500,-0.062500,0.00,0.36,-0.368291,-1.000000,0.000000,0.000000,0.000000,0.000000,0.000000,0.000000,-0.000000,0.000000,0.000000,0.000000,0.000000,0.000000,0.000000,819,819,819,819
8539,0,0.000000,-0.062500,-0.062500,0.12,0.24,-0.018415,-1.000000,0.000000,0.000000,0.000000,0.000000,0.000000,0.000000,0.000072,0.000000,0.000000,0.000000,0.000000,0.000000,0.000000,819,819,819,819
8549,0,0.000000,-0.062500,-0.062500,0.00,-0.18,-0.060296,-1.000000,0.000000,0.000000,0.000000,0.000000,0.000000,0.000000,-0.000000,0.000000,0.000000,0.000000,0.000000,0.000000,0.000000,819,819,819,819
8559,0,0.000000,-0.062500,-0.062500,0.00,0.06,-0.181140,-1.000000,0.000000,0.000000,0.000000,0.000000,0.000000,0.000000,-0.000000,0.000000,0.000000,0.000000,0.000000,0.000000,0.000000,819,819,819,819
8569,0,0.000000,-0.062500,-0.062500,-0.06,0.06,-0.127807,-1.000000,0.000000,0.000000,0.000000,0.000000,0.000000,0.000000,-0.000036,0.000000,0.000000,0.000000,0.000000,0.000000,0.000000,819,819,819,819
8579,0,0.000000,-0.062500,-0.062500,0.00,-0.06,-0.125140,-1.000000,0.000000,0.000000,0.000000,0.000000,0.000000,0.000000,-0.000000,0.000000,0.000000,0.000000,0.000000,0.000000,0.000000,819,819,819,819
8589,0,0.000000,-0.062500,-0.062500,-0.06,-0.06,-0.243757,-1.000000,0.000000,0.000000,0.000000,0.000000,0.000000,0.000000,-0.000036,0.000000,0.000000,0.000000,0.000000,0.000000,0.000000,819,819,819,819
8599,0,0.000000,-0.062500,-0.062500,0.00,-0.18,-0.012188,-1.000000,0.000000,0.000000,0.000000,0.000000,0.000000,0.000000,-0.000000,0.000000,0.000000,0.000000,0.000000,0.000000,0.000000,819,819,819,819
8609,0,0.000000,-0.062500,-0.062500,-0.06,0.36,-0.119359,-1.000000,0.000000,0.000000,0.000000,0.000000,0.000000,0.000000,-0.000036,0.000000,0.000000,0.000000,0.000000,0.000000,0.000000,819,819,819,819
8619,0,0.000000,-0.062500,-0.062500,-0.12,0.83,-0.184093,-1.000000,0.000000,0.000000,0.000000,0.000000,0.000000,0.000000,-0.000072,0.000000,0.000000,0.000000,0.000000,0.000000,0.000000,819,819,819,819
8629,0,0.000000,-0.062500,-0.062500,-0.06,1.31,-0.306080,-1.000000,0.000000,0.000000,0.000000,0.000000,0.000000,0.000000,-0.000036,0.000000,0.000000,0.000000,0.000000,0.000000,0.000000,819,819,819,819
8639,0,0.000000,-0.062500,-0.062500,-0.12,0.30,-0.430929,-1.000000,0.000000,0.000000,0.000000,0.000000,0.000000,0.000000,-0.000072,0.000000,0.000000,0.000000,0.000000,0.000000,0.000000,819,819,819,819
8649,0,0.000000,-0.062500,-0.062500,0.00,-0.42,-0.377796,-1.000000,0.000000,0.000000,0.000000,0.000000,0.000000,0.000000,-0.000000,0.000000,0.000000,0.000000,0.000000,0.000000,0.000000,819,819,819,819
8659,0,0.000000,-0.062500,-0.062500,-0.12,-0.65,-0.197015,-1.000000,0.000000,0.000000,0.000000,0.000000,0.000000,0.000000,-0.000072,0.000000,0.000000,0.000000,0.000000,0.000000,0.000000,819,819,819,819
8669,0,0.000000,-0.062500,-0.062500,0.00,-0.18,-0.306726,-1.000000,0.000000,0.000000,0.000000,0.000000,0.000000,0.000000,-0.000000,0.000000,0.000000,0.000000,0.000000,0.000000,0.000000,819,819,819,819
8679,0,0.000000,-0.062500,-0.062500,-0.12,0.24,-0.134086,-1.000000,0.000000,0.000000,0.000000,0.000000,0.000000,0.000000,-0.000072,0.000000,0.000000,0.000000,0.000000,0.000000,0.000000,819,819,819,819
8689,0,0.000000,-0.062500,-0.062500,0.06,0.42,-0.125454,-1.000000,0.000000,0.000000,0.000000,0.000000,0.000000,0.000000,0.000036,0.000000,0.000000,0.000000,0.000000,0.000000,0.000000,819,819,819,819
8699,0,0.000000,-0.062500,-0.062500,-0.06,0.00,0.171852,-1.000000,0.000000,0.000000,0.000000,0.000000,0.000000,0.000000,-0.000036,0.000000,0.000000,0.000000,0.000000,0.000000,0.000000,819,819,819,819
8709,0,0.000000,-0.062500,-0.062500,-0.06,-0.36,0.186718,-1.000000,0.000000,0.000000,0.000000,0.000000,0.000000,0.000000,-0.000036,0.000000,0.000000,0.000000,0.000000,0.000000,0.000000,819,819,819,819
8719,0,0.000000,-0.062500,-0.062500,-0.06,-0.30,0.009336,-1.000000,0.000000,0.000000,0.000000,0.000000,0.000000,0.000000,-0.000036,0.000000,0.000000,0.000000,0.000000,0.000000,0.000000,819,819,819,819
8729,0,0.000000,-0.062500,-0.062500,0.00,0.00,-0.296408,-1.000000,0.000000,0.000000,0.000000,0.000000,0.000000,0.000000,-0.000000,0.000000,0.000000,0.000000,0.000000,0.000000,0.000000,819,819,819,819
8739,0,0.000000,-0.062500,-0.062500,0.00,0.18,-0.192945,-1.000000,0.000000,0.000000,0.000000,0.000000,0.000000,0.000000,-0.000000,0.000000,0.000000,0.000000,0.000000,0.000000,0.000000,819,819,819,819
8749,0,0.000000,-0.062500,-0.062500,-0.06,0.18,-0.187772,-1.000000,0.000000,0.000000,0.000000,0.000000,0.000000,0.000000,-0.000036,0.000000,0.000000,0.000000,0.000000,0.000000,0.000000,819,819,819,819
8759,0,0.000000,-0.062500,-0.062500,0.00,0.00,-0.246889,-1.000000,0.000000,0.000000,0.000000,0.000000,0.000000,0.000000,-0.000000,0.000000,0.000000,0.000000,0.000000,0.000000,0.000000,819,819,819,819
8769,0,0.000000,-0.062500,-0.062500,0.00,-0.18,-0.190469,-1.000000,0.000000,0.000000,0.000000,0.000000,0.000000,0.000000,-0.000000,0.000000,0.000000,0.000000,0.000000,0.000000,0.000000,819,819,819,819
8782,0,0.000000,-0.062500,-0.062500,-0.06,-0.47,0.168602,-1.000000,0.000000,0.000000,0.000000,0.000000,0.000000,0.000000,-0.000036,0.000000,0.000000,0.000000,0.000000,0.000000,0.000000,819,819,819,819
8799,0,0.000000,-0.062500,-0.062500,0.06,-0.36,0.186555,-1.000000,0.000000,0.000000,0.000000,0.000000,0.000000,0.000000,0.000036,0.000000,0.000000,0.000000,0.000000,0.000000,0.000000,819,819,819,819
8809,0,0.000000,-0.062500,-0.062500,-0.06,-0.12,0.128078,-1.000000,0.000000,0.000000,0.000000,0.000000,0.000000,0.000000,-0.000036,0.000000,0.000000,0.000000,0.000000,0.000000,0.000000,819,819,819,819
8820,0,0.000000,-0.062500,-0.062500,0.12,0.06,0.125154,-1.000000,0.000000,0.000000,0.000000,0.000000,0.000000,0.000000,0.000072,0.000000,0.000000,0.000000,0.000000,0.000000,0.000000,819,819,819,819
8830,0,0.000000,-0.062500,-0.062500,-0.06,-0.18,0.184383,-1.000000,0.000000,0.000000,0.000000,0.000000,0.000000,0.000000,-0.000036,0.000000,0.000000,0.000000,0.000000,0.000000,0.000000,819,819,819,819
8840,0,0.000000,-0.062500,-0.062500,0.12,0.00,0.246719,-1.000000,0.000000,0.000000,0.000000,0.000000,0.000000,0.000000,0.000072,0.000000,0.000000,0.000000,0.000000,0.000000,0.000000,819,819,819,819
8850,0,0.000000,-0.062500,-0.062500,-0.06,-0.06,0.131086,-1.000000,0.000000,0.000000,0.000000,0.000000,0.000000,0.000000,-0.000036,0.000000,0.000000,0.000000,0.000000,0.000000,0.000000,819,819,819,819
8860,0,0.000000,-0.062500,-0.062500,0.00,-0.12,0.065929,-1.000000,0.000000,0.000000,0.000000,0.000000,0.000000,0.000000,-0.000000,0.000000,0.000000,0.000000,0.000000,0.000000,0.000000,819,819,819,819
8870,0,0.000000,-0.062500,-0.062500,0.00,0.00,0.240796,-1.000000,0.000000,0.000000,0.000000,0.000000,0.000000,0.000000,-0.000000,0.000000,0.000000,0.000000,0.000000,0.000000,0.000000,819,819,819,819
8880,0,0.000000,-0.062500,-0.062500,0.00,-0.47,0.902665,-1.000000,0.000000,0.000000,0.000000,0.000000,0.000000,0.000000,-0.000000,0.000000,0.000000,0.000000,0.000000,0.000000,0.000000,819,819,819,819
8890,0,0.000000,-0.062500,-0.062500,0.00,-0.24,-0.073617,-1.000000,0.000000,0.000000,0.000000,0.000000,0.000000,0.000000,-0.000000,0.000000,0.000000,0.000000,0.000000,0.000000,0.000000,819,819,819,819
8900,0,0.000000,-0.062500,-0.062500,0.00,0.06,-0.953681,-1.000000,0.000000,0.000000,0.000000,0.000000,0.000000,0.000000,-0.000000,0.000000,0.000000,0.000000,0.000000,0.000000,0.000000,819,819,819,819
8910,0,0.000000,-0.062500,-0.062500,0.00,0.77,-0.641434,-1.000000,0.000000,0.000000,0.000000,0.000000,0.000000,0.000000,-0.000000,0.000000,0.000000,0.000000,0.000000,0.000000,0.000000,819,819,819,819
8920,0,0.000000,-0.062500,-0.062500,0.06,0.71,0.027303,-1.000000,0.000000,0.000000,0.000000,0.000000,0.000000,0.000000,0.000036,0.000000,0.000000,0.000000,0.000000,0.000000,0.000000,819,819,819,819
8930,0,0.000000,-0.062500,-0.062500,0.00,-0.12,-0.058010,-1.000000,0.000000,0.000000,0.000000,0.000000,0.000000,0.000000,-0.000000,0.000000,0.000000,0.000000,0.000000,0.000000,0.000000,819,819,819,819
8940,0,0.000000,-0.062500,-0.062500,-0.06,-0.24,0.353350,-1.000000,0.000000,0.000000,0.000000,0.000000,0.000000,0.000000,-0.000036,0.000000,0.000000,0.000000,0.000000,0.000000,0.000000,819,819,819,819
8950,0,0.000000,-0.062500,-0.062500,0.00,-0.83,0.492667,-1.000000,0.000000,0.000000,0.000000,0.000000,0.000000,0.000000,-0.000000,0.000000,0.000000,0.000000,0.000000,0.000000,0.000000,819,819,819,819
8960,0,0.000000,-0.062500,-0.062500,-0.12,-0.12,-0.153492,-1.000000,0.000000,0.000000,0.000000,0.000000,0.000000,0.000000,-0.000072,0.000000,0.000000,0.000000,0.000000,0.000000,0.000000,819,819,819,819
8970,0,0.000000,-0.062500,-0.062500,0.00,0.30,-0.007675,-1.000000,0.000000,0.000000,0.000000,0.000000,0.000000,0.000000,-0.000000,0.000000,0.000000,0.000000,0.000000,0.000000,0.000000,819,819,819,819
8980,0,0.000000,-0.062500,-0.062500,0.00,0.00,-0.059759,-1.000000,0.000000,0.000000,0.000000,0.000000,0.000000,0.000000,-0.000000,0.000000,0.000000,0.000000,0.000000,0.000000,0.000000,819,819,819,819
8990,0,0.000000,-0.062500,-0.062500,-0.18,-0.53,-0.299863,-1.000000,0.000000,0.000000,0.000000,0.000000,0.000000,0.000000,-0.000107,0.000000,0.000000,0.000000,0.000000,0.000000,0.000000,819,819,819,819
9000,0,0.000000,-0.062500,-0.062500,0.12,-0.18,-0.014993,-1.000000,0.000000,0.000000,0.000000,0.000000,0.000000,0.000000,0.000072,0.000000,0.000000,0.000000,0.000000,0.000000,0.000000,819,819,819,819
9010,0,0.000000,-0.062500,-0.062500,0.00,-0.06,-0.119500,-1.000000,0.000000,0.000000,0.000000,0.000000,0.000000,0.000000,-0.000000,0.000000,0.000000,0.000000,0.000000,0.000000,0.000000,819,819,819,819
9020,0,0.000000,-0.062500,-0.062500,-0.06,0.53,-0.184100,-1.000000,0.000000,0.000000,0.000000,0.000000,0.000000,0.000000,-0.000036,0.000000,0.000000,0.000000,0.000000,0.000000,0.000000,819,819,819,819
9030,0,0.000000,-0.062500,-0.062500,0.00,0.47,0.168920,-1.000000,0.000000,0.000000,0.000000,0.000000,0.000000,0.000000,-0.000000,0.000000,0.000000,0.000000,0.000000,0.000000,0.000000,819,819,819,819
9040,0,0.000000,-0.062500,-0.062500,-0.12,0.00,0.186571,-1.000000,0.000000,0.000000,0.000000,0.000000,0.000000,0.000000,-0.000072,0.000000,0.000000,0.000000,0.000000,0.000000,0.000000,819,819,819,819
9050,0,0.000000,-0.062500,-0.062500,0.06,-0.47,0.128079,-1.000000,0.000000,0.000000,0.000000,0.000000,0.000000,0.000000,0.000036,0.000000,0.000000,0.000000,0.000000,0.000000,0.000000,819,819,819,819
9060,0,0.000000,-0.062500,-0.062500,0.00,-0.36,0.065779,-1.000000,0.000000,0.000000,0.000000,0.000000,0.000000,0.000000,-0.000000,0.000000,0.000000,0.000000,0.000000,0.000000,0.000000,819,819,819,819
9070,0,0.000000,-0.062500,-0.062500,0.00,0.00,-0.056086,-1.000000,0.000000,0.000000,0.000000,0.000000,0.000000,0.000000,-0.000000,0.000000,0.000000,0.000000,0.000000,0.000000,0.000000,819,819,819,819
9080,0,0.000000,-0.062500,-0.062500,0.00,0.18,-0.062179,-1.000000,0.000000,0.000000,0.000000,0.000000,0.000000,0.000000,-0.000000,0.000000,0.000000,0.000000,0.000000,0.000000,0.000000,819,819,819,819
9090,0,0.000000,-0.062500,-0.062500,0.00,0.42,0.115641,-1.000000,0.000000,0.000000,0.000000,0.000000,0.000000,0.000000,-0.000000,0.000000,0.000000,0.000000,0.000000,0.000000,0.000000,819,819,819,819
9100,0,0.000000,-0.062500,-0.062500,0.00,0.06,0.005782,-1.000000,0.000000,0.000000,0.000000,0.000000,0.000000,0.000000,-0.000000,0.000000,0.000000,0.000000,0.000000,0.000000,0.000000,819,819,819,819
9118,0,0.000000,-0.062500,-0.062500,0.06,0.00,0.000289,-1.000000,0.000000,0.000000,0.000000,0.000000,0.000000,0.000000,0.000036,0.000000,0.000000,0.000000,0.000000,0.000000,0.000000,819,819,819,819
9129,0,0.000000,-0.062500,-0.062500,0.18,-0.24,0.178139,-1.000000,0.000000,0.000000,0.000000,0.000000,0.000000,0.000000,0.000107,0.000000,0.000000,0.000000,0.000000,0.000000,0.000000,819,819,819,819
9140,0,0.000000,-0.062500,-0.062500,0.00,0.18,-0.525468,-1.000000,0.000000,0.000000,0.000000,0.000000,0.000000,0.000000,-0.000000,0.000000,0.000000,0.000000,0.000000,0.000000,0.000000,819,819,819,819
9150,0,0.000000,-0.062500,-0.062500,0.00,-0.24,-0.085648,-1.000000,0.000000,0.000000,0.000000,0.000000,0.000000,0.000000,-0.000000,0.000000,0.000000,0.000000,0.000000,0.000000,0.000000,819,819,819,819
9160,0,0.000000,-0.062500,-0.062500,-0.06,-0.18,0.055093,-1.000000,0.000000,0.000000,0.000000,0.000000,0.000000,0.000000,-0.000036,0.000000,0.000000,0.000000,0.000000,0.000000,0.000000,819,819,819,819
9170,0,0.000000,-0.062500,-0.062500,0.00,-0.12,0.062130,-1.000000,0.000000,0.000000,0.000000,0.000000,0.000000,0.000000,-0.000000,0.000000,0.000000,0.000000,0.000000,0.000000,0.000000,819,819,819,819
9180,0,0.000000,-0.062500,-0.062500,-0.18,0.06,0.240606,-1.000000,0.000000,0.000000,0.000000,0.000000,0.000000,0.000000,-0.000107,0.000000,0.000000,0.000000,0.000000,0.000000,0.000000,819,819,819,819
9190,0,0.000000,-0.062500,-0.062500,0.12,0.12,0.308905,-1.000000,0.000000,0.000000,0.000000,0.000000,0.000000,0.000000,0.000072,0.000000,0.000000,0.000000,0.000000,0.000000,0.000000,819,819,819,819
9200,0,0.000000,-0.062500,-0.062500,0.00,0.18,0.134195,-1.000000,0.000000,0.000000,0.000000,0.000000,0.000000,0.000000,-0.000000,0.000000,0.000000,0.000000,0.000000,0.000000,0.000000,819,819,819,819
9211,0,0.000000,-0.062500,-0.062500,0.00,0.12,0.125460,-1.000000,0.000000,0.000000,0.000000,0.000000,0.000000,0.000000,-0.000000,0.000000,0.000000,0.000000,0.000000,0.000000,0.000000,819,819,819,819
9220,0,0.000000,-0.062500,-0.062500,0.00,-0.06,0.006273,-1.000000,0.000000,0.000000,0.000000,0.000000,0.000000,0.000000,-0.000000,0.000000,0.000000,0.000000,0.000000,0.000000,0.000000,819,819,819,819
9230,0,0.000000,-0.062500,-0.062500,-0.06,-0.18,-0.237186,-1.000000,0.000000,0.000000,0.000000,0.000000,0.000000,0.000000,-0.000036,0.000000,0.000000,0.000000,0.000000,0.000000,0.000000,819,819,819,819
9241,0,0.000000,-0.062500,-0.062500,0.00,-0.18,-0.308734,-1.000000,0.000000,0.000000,0.000000,0.000000,0.000000,0.000000,-0.000000,0.000000,0.000000,0.000000,0.000000,0.000000,0.000000,819,819,819,819
9251,0,0.000000,-0.062500,-0.062500,-0.06,-0.36,-0.371687,-1.000000,0.000000,0.000000,0.000000,0.000000,0.000000,0.000000,-0.000036,0.000000,0.000000,0.000000,0.000000,0.000000,0.000000,819,819,819,819
9261,0,0.000000,-0.062500,-0.062500,-0.12,-0.30,-0.196709,-1.000000,0.000000,0.000000,0.000000,0.000000,0.000000,0.000000,-0.000072,0.000000,0.000000,0.000000,0.000000,0.000000,0.000000,819,819,819,819
9271,0,0.000000,-0.062500,-0.062500,0.00,0.06,0.227665,-1.000000,0.000000,0.000000,0.000000,0.000000,0.000000,0.000000,-0.000000,0.000000,0.000000,0.000000,0.000000,0.000000,0.000000,819,819,819,819
9281,0,0.000000,-0.062500,-0.062500,0.00,0.30,0.664508,-1.000000,0.000000,0.000000,0.000000,0.000000,0.000000,0.000000,-0.000000,0.000000,0.000000,0.000000,0.000000,0.000000,0.000000,819,819,819,819
9291,0,0.000000,-0.062500,-0.062500,0.00,0.12,0.805100,-1.000000,0.000000,0.000000,0.000000,0.000000,0.000000,0.000000,-0.000000,0.000000,0.000000,0.000000,0.000000,0.000000,0.000000,819,819,819,819
9301,0,0.000000,-0.062500,-0.062500,-0.12,-0.36,0.396505,-1.000000,0.000000,0.000000,0.000000,0.000000,0.000000,0.000000,-0.000072,0.000000,0.000000,0.000000,0.000000,0.000000,0.000000,819,819,819,819
9311,0,0.000000,-0.062500,-0.062500,-0.18,-0.53,0.019825,-1.000000,0.000000,0.000000,0.000000,0.000000,0.000000,0.000000,-0.000107,0.000000,0.000000,0.000000,0.000000,0.000000,0.000000,819,819,819,819
9321,0,0.000000,-0.062500,-0.062500,-0.06,0.18,-0.533384,-1.000000,0.000000,0.000000,0.000000,0.000000,0.000000,0.000000,-0.000036,0.000000,0.000000,0.000000,0.000000,0.000000,0.000000,819,819,819,819
9331,0,0.000000,-0.062500,-0.062500,0.06,0.36,-0.798544,-1.000000,0.000000,0.000000,0.000000,0.000000,0.000000,0.000000,0.000036,0.000000,0.000000,0.000000,0.000000,0.000000,0.000000,819,819,819,819
9341,0,0.000000,-0.062500,-0.062500,0.06,0.24,-0.752427,-1.000000,0.000000,0.000000,0.000000,0.000000,0.000000,0.000000,0.000036,0.000000,0.000000,0.000000,0.000000,0.000000,0.000000,819,819,819,819
9351,0,0.000000,-0.062500,-0.062500,0.00,-0.24,-0.453246,-1.000000,0.000000,0.000000,0.000000,0.000000,0.000000,0.000000,-0.000000,0.000000,0.000000,0.000000,0.000000,0.000000,0.000000,819,819,819,819
9361,0,0.000000,-0.062500,-0.062500,0.00,-0.71,0.274213,-1.000000,0.000000,0.000000,0.000000,0.000000,0.000000,0.000000,-0.000000,0.000000,0.000000,0.000000,0.000000,0.000000,0.000000,819,819,819,819
9371,0,0.000000,-0.062500,-0.062500,-0.06,-1.01,0.429336,-1.000000,0.000000,0.000000,0.000000,0.000000,0.000000,0.000000,-0.000036,0.000000,0.000000,0.000000,0.000000,0.000000,0.000000,819,819,819,819
9381,0,0.000000,-0.062500,-0.062500,0.00,-0.53,0.555842,-1.000000,0.000000,0.000000,0.000000,0.000000,0.000000,0.000000,-0.000000,0.000000,0.000000,0.000000,0.000000,0.000000,0.000000,819,819,819,819
9391,0,0.000000,-0.062500,-0.062500,0.12,0.47,0.799667,-1.000000,0.000000,0.000000,0.000000,0.000000,0.000000,0.000000,0.000072,0.000000,0.000000,0.000000,0.000000,0.000000,0.000000,819,819,819,819
9401,0,0.000000,-0.062500,-0.062500,0.00,0.83,0.633733,-1.000000,0.000000,0.000000,0.000000,0.000000,0.000000,0.000000,-0.000000,0.000000,0.000000,0.000000,0.000000,0.000000,0.000000,819,819,819,819
9411,0,0.000000,-0.062500,-0.062500,-0.06,0.47,-0.146438,-1.000000,0.000000,0.000000,0.000000,0.000000,0.000000,0.000000,-0.000036,0.000000,0.000000,0.000000,0.000000,0.000000,0.000000,819,819,819,819
9421,0,0.000000,-0.062500,-0.062500,0.00,-0.18,-0.779197,-1.000000,0.000000,0.000000,0.000000,0.000000,0.000000,0.000000,-0.000000,0.000000,0.000000,0.000000,0.000000,0.000000,0.000000,819,819,819,819
9438,0,0.000000,-0.062500,-0.062500,-0.06,-0.42,-0.810835,-1.000000,0.000000,0.000000,0.000000,0.000000,0.000000,0.000000,-0.000036,0.000000,0.000000,0.000000,0.000000,0.000000,0.000000,819,819,819,819
9450,0,0.000000,-0.062500,-0.062500,0.00,0.06,-0.693667,-1.000000,0.000000,0.000000,0.000000,0.000000,0.000000,0.000000,-0.000000,0.000000,0.000000,0.000000,0.000000,0.000000,0.000000,819,819,819,819
9461,0,0.000000,-0.062500,-0.062500,-0.06,0.47,0.024692,-1.000000,0.000000,0.000000,0.000000,0.000000,0.000000,0.000000,-0.000036,0.000000,0.000000,0.000000,0.000000,0.000000,0.000000,819,819,819,819
9471,0,0.000000,-0.062500,-0.062500,-0.06,0.00,0.535610,-1.000000,0.000000,0.000000,0.000000,0.000000,0.000000,0.000000,-0.000036,0.000000,0.000000,0.000000,0.000000,0.000000,0.000000,819,819,819,819
9481,0,0.000000,-0.062500,-0.062500,0.00,-0.65,0.976780,-1.000000,0.000000,0.000000,0.000000,0.000000,0.000000,0.000000,-0.000000,0.000000,0.000000,0.000000,0.000000,0.000000,0.000000,819,819,819,819
9491,0,0.000000,-0.062500,-0.062500,-0.06,-0.53,0.701964,-1.000000,0.000000,0.000000,0.000000,0.000000,0.000000,0.000000,-0.000036,0.000000,0.000000,0.000000,0.000000,0.000000,0.000000,819,819,819,819
9501,0,0.000000,-0.062500,-0.062500,0.06,-0.06,0.391348,-1.000000,0.000000,0.000000,0.000000,0.000000,0.000000,0.000000,0.000036,0.000000,0.000000,0.000000,0.000000,0.000000,0.000000,819,819,819,819
9511,0,0.000000,-0.062500,-0.062500,0.00,0.47,-0.099183,-1.000000,0.000000,0.000000,0.000000,0.000000,0.000000,0.000000,-0.000000,0.000000,0.000000,0.000000,0.000000,0.000000,0.000000,819,819,819,819
9521,0,0.000000,-0.062500,-0.062500,0.00,0.65,-0.479959,-1.000000,0.000000,0.000000,0.000000,0.000000,0.000000,0.000000,-0.000000,0.000000,0.000000,0.000000,0.000000,0.000000,0.000000,819,819,819,819
9531,0,0.000000,-0.062500,-0.062500,0.00,0.30,-0.617748,-1.000000,0.000000,0.000000,0.000000,0.000000,0.000000,0.000000,-0.000000,0.000000,0.000000,0.000000,0.000000,0.000000,0.000000,819,819,819,819
9541,0,0.000000,-0.062500,-0.062500,0.00,-0.30,-0.624637,-1.000000,0.000000,0.000000,0.000000,0.000000,0.000000,0.000000,-0.000000,0.000000,0.000000,0.000000,0.000000,0.000000,0.000000,819,819,819,819
9551,0,0.000000,-0.062500,-0.062500,0.00,-0.77,-0.328107,-1.000000,0.000000,0.000000,0.000000,0.000000,0.000000,0.000000,-0.000000,0.000000,0.000000,0.000000,0.000000,0.000000,0.000000,819,819,819,819
9561,0,0.000000,-0.062500,-0.062500,0.00,-0.71,-0.016405,-1.000000,0.000000,0.000000,0.000000,0.000000,0.000000,0.000000,-0.000000,0.000000,0.000000,0.000000,0.000000,0.000000,0.000000,819,819,819,819
9571,0,0.000000,-0.062500,-0.062500,-0.06,-0.06,0.117930,-1.000000,0.000000,0.000000,0.000000,0.000000,0.000000,0.000000,-0.000036,0.000000,0.000000,0.000000,0.000000,0.000000,0.000000,819,819,819,819
9581,0,0.000000,-0.062500,-0.062500,-0.06,0.53,0.243396,-1.000000,0.000000,0.000000,0.000000,0.000000,0.000000,0.000000,-0.000036,0.000000,0.000000,0.000000,0.000000,0.000000,0.000000,819,819,819,819
9592,0,0.000000,-0.062500,-0.062500,0.18,0.95,0.190295,-1.000000,0.000000,0.000000,0.000000,0.000000,0.000000,0.000000,0.000107,0.000000,0.000000,0.000000,0.000000,0.000000,0.000000,819,819,819,819
9602,0,0.000000,-0.062500,-0.062500,-0.12,0.36,0.247015,-1.000000,0.000000,0.000000,0.000000,0.000000,0.000000,0.000000,-0.000072,0.000000,0.000000,0.000000,0.000000,0.000000,0.000000,819,819,819,819
9611,0,0.000000,-0.062500,-0.062500,-0.06,-0.24,0.071726,-1.000000,0.000000,0.000000,0.000000,0.000000,0.000000,0.000000,-0.000036,0.000000,0.000000,0.000000,0.000000,0.000000,0.000000,819,819,819,819
9624,0,0.000000,-0.062500,-0.062500,0.00,-0.47,0.062961,-1.000000,0.000000,0.000000,0.000000,0.000000,0.000000,0.000000,-0.000000,0.000000,0.000000,0.000000,0.000000,0.000000,0.000000,819,819,819,819
9633,0,0.000000,-0.062500,-0.062500,0.00,-0.36,-0.056227,-1.000000,0.000000,0.000000,0.000000,0.000000,0.000000,0.000000,-0.000000,0.000000,0.000000,0.000000,0.000000,0.000000,0.000000,819,819,819,819
9643,0,0.000000,-0.062500,-0.062500,0.00,0.18,-0.299686,-1.000000,0.000000,0.000000,0.000000,0.000000,0.000000,0.000000,-0.000000,0.000000,0.000000,0.000000,0.000000,0.000000,0.000000,819,819,819,819
9652,0,0.000000,-0.062500,-0.062500,-0.06,0.06,-0.193109,-1.000000,0.000000,0.000000,0.000000,0.000000,0.000000,0.000000,-0.000036,0.000000,0.000000,0.000000,0.000000,0.000000,0.000000,819,819,819,819
9662,0,0.000000,-0.062500,-0.062500,-0.06,0.18,-0.187780,-1.000000,0.000000,0.000000,0.000000,0.000000,0.000000,0.000000,-0.000036,0.000000,0.000000,0.000000,0.000000,0.000000,0.000000,819,819,819,819
9672,0,0.000000,-0.062500,-0.062500,0.06,-0.12,0.049986,-1.000000,0.000000,0.000000,0.000000,0.000000,0.000000,0.000000,0.000036,0.000000,0.000000,0.000000,0.000000,0.000000,0.000000,819,819,819,819
9682,0,0.000000,-0.062500,-0.062500,0.00,-0.06,0.002499,-1.000000,0.000000,0.000000,0.000000,0.000000,0.000000,0.000000,-0.000000,0.000000,0.000000,0.000000,0.000000,0.000000,0.000000,819,819,819,819
9692,0,0.000000,-0.062500,-0.062500,-0.12,0.00,0.059500,-1.000000,0.000000,0.000000,0.000000,0.000000,0.000000,0.000000,-0.000072,0.000000,0.000000,0.000000,0.000000,0.000000,0.000000,819,819,819,819
9702,0,0.000000,-0.062500,-0.062500,0.06,0.24,-0.115775,-1.000000,0.000000,0.000000,0.000000,0.000000,0.000000,0.000000,0.000036,0.000000,0.000000,0.000000,0.000000,0.000000,0.000000,819,819,819,819
9712,0,0.000000,-0.062500,-0.062500,-0.06,0.12,-0.065164,-1.000000,0.000000,0.000000,0.000000,0.000000,0.000000,0.000000,-0.000036,0.000000,0.000000,0.000000,0.000000,0.000000,0.000000,819,819,819,819
9722,0,0.000000,-0.062500,-0.062500,0.00,0.00,-0.122008,-1.000000,0.000000,0.000000,0.000000,0.000000,0.000000,0.000000,-0.000000,0.000000,0.000000,0.000000,0.000000,0.000000,0.000000,819,819,819,819
9732,0,0.000000,-0.062500,-0.062500,-0.06,-0.30,-0.006100,-1.000000,0.000000,0.000000,0.000000,0.000000,0.000000,0.000000,-0.000036,0.000000,0.000000,0.000000,0.000000,0.000000,0.000000,819,819,819,819
9749,0,0.000000,-0.062500,-0.062500,-0.06,-0.24,-0.059680,-1.000000,0.000000,0.000000,0.000000,0.000000,0.000000,0.000000,-0.000036,0.000000,0.000000,0.000000,0.000000,0.000000,0.000000,819,819,819,819
9761,0,0.000000,-0.062500,-0.062500,0.00,-0.18,-0.121734,-1.000000,0.000000,0.000000,0.000000,0.000000,0.000000,0.000000,-0.000000,0.000000,0.000000,0.000000,0.000000,0.000000,0.000000,819,819,819,819
9771,0,0.000000,-0.062500,-0.062500,-0.06,0.30,-0.006087,-1.000000,0.000000,0.000000,0.000000,0.000000,0.000000,0.000000,-0.000036,0.000000,0.000000,0.000000,0.000000,0.000000,0.000000,819,819,819,819
9782,0,0.000000,-0.062500,-0.062500,0.06,0.12,-0.059679,-1.000000,0.000000,0.000000,0.000000,0.000000,0.000000,0.000000,0.000036,0.000000,0.000000,0.000000,0.000000,0.000000,0.000000,819,819,819,819
9792,0,0.000000,-0.062500,-0.062500,0.00,0.18,0.056391,-1.000000,0.000000,0.000000,0.000000,0.000000,0.000000,0.000000,-0.000000,0.000000,0.000000,0.000000,0.000000,0.000000,0.000000,819,819,819,819
9802,0,0.000000,-0.062500,-0.062500,-0.12,-0.06,0.002820,-1.000000,0.000000,0.000000,0.000000,0.000000,0.000000,0.000000,-0.000072,0.000000,0.000000,0.000000,0.000000,0.000000,0.000000,819,819,819,819
9812,0,0.000000,-0.062500,-0.062500,0.00,-0.30,0.000141,-1.000000,0.000000,0.000000,0.000000,0.000000,0.000000,0.000000,-0.000000,0.000000,0.000000,0.000000,0.000000,0.000000,0.000000,819,819,819,819
9822,0,0.000000,-0.062500,-0.062500,0.06,-0.06,-0.118743,-1.000000,0.000000,0.000000,0.000000,0.000000,0.000000,0.000000,0.000036,0.000000,0.000000,0.000000,0.000000,0.000000,0.000000,819,819,819,819
9832,0,0.000000,-0.062500,-0.062500,0.06,-0.06,-0.243437,-1.000000,0.000000,0.000000,0.000000,0.000000,0.000000,0.000000,0.000036,0.000000,0.000000,0.000000,0.000000,0.000000,0.000000,819,819,819,819
9842,0,0.000000,-0.062500,-0.062500,0.06,0.00,-0.309047,-1.000000,0.000000,0.000000,0.000000,0.000000,0.000000,0.000000,0.000036,0.000000,0.000000,0.000000,0.000000,0.000000,0.000000,819,819,819,819
9852,0,0.000000,-0.062500,-0.062500,-0.06,-0.12,-0.134202,-1.000000,0.000000,0.000000,0.000000,0.000000,0.000000,0.000000,-0.000036,0.000000,0.000000,0.000000,0.000000,0.000000,0.000000,819,819,819,819
9862,0,0.000000,-0.062500,-0.062500,0.00,-0.12,-0.006710,-1.000000,0.000000,0.000000,0.000000,0.000000,0.000000,0.000000,-0.000000,0.000000,0.000000,0.000000,0.000000,0.000000,0.000000,819,819,819,819
9872,0,0.000000,-0.062500,-0.062500,0.00,0.12,0.177789,-1.000000,0.000000,0.000000,0.000000,0.000000,0.000000,0.000000,-0.000000,0.000000,0.000000,0.000000,0.000000,0.000000,0.000000,819,819,819,819
9882,0,0.000000,-0.062500,-0.062500,0.06,0.24,0.187014,-1.000000,0.000000,0.000000,0.000000,0.000000,0.000000,0.000000,0.000036,0.000000,0.000000,0.000000,0.000000,0.000000,0.000000,819,819,819,819
9892,0,0.000000,-0.062500,-0.062500,0.00,-0.06,0.068726,-1.000000,0.000000,0.000000,0.000000,0.000000,0.000000,0.000000,-0.000000,0.000000,0.000000,0.000000,0.000000,0.000000,0.000000,819,819,819,819
9902,0,0.000000,-0.062500,-0.062500,0.00,-0.18,0.062811,-1.000000,0.000000,0.000000,0.000000,0.000000,0.000000,0.000000,-0.000000,0.000000,0.000000,0.000000,0.000000,0.000000,0.000000,819,819,819,819
9912,0,0.000000,-0.062500,-0.062500,0.00,-0.30,0.062516,-1.000000,0.000000,0.000000,0.000000,0.000000,0.000000,0.000000,-0.000000,0.000000,0.000000,0.000000,0.000000,0.000000,0.000000,819,819,819,819
9922,0,0.000000,-0.062500,-0.062500,0.00,-0.18,-0.056249,-1.000000,0.000000,0.000000,0.000000,0.000000,0.000000,0.000000,-0.000000,0.000000,0.000000,0.000000,0.000000,0.000000,0.000000,819,819,819,819
9932,0,0.000000,-0.062500,-0.062500,0.00,0.06,-0.002812,-1.000000,0.000000,0.000000,0.000000,0.000000,0.000000,0.000000,-0.000000,0.000000,0.000000,0.000000,0.000000,0.000000,0.000000,819,819,819,819
9942,0,0.000000,-0.062500,-0.062500,0.12,0.06,-0.059516,-1.000000,0.000000,0.000000,0.000000,0.000000,0.000000,0.000000,0.000072,0.000000,0.000000,0.000000,0.000000,0.000000,0.000000,819,819,819,819
9953,0,0.000000,-0.062500,-0.062500,0.00,0.00,-0.121726,-1.000000,0.000000,0.000000,0.000000,0.000000,0.000000,0.000000,-0.000000,0.000000,0.000000,0.000000,0.000000,0.000000,0.000000,819,819,819,819
9962,0,0.000000,-0.062500,-0.062500,-0.12,0.00,-0.006086,-1.000000,0.000000,0.000000,0.000000,0.000000,0.000000,0.000000,-0.000072,0.000000,0.000000,0.000000,0.000000,0.000000,0.000000,819,819,819,819
9973,0,0.000000,-0.062500,-0.062500,0.00,0.12,-0.000304,-1.000000,0.000000,0.000000,0.000000,0.000000,0.000000,0.000000,-0.000000,0.000000,0.000000,0.000000,0.000000,0.000000,0.000000,819,819,819,819
9983,0,0.000000,-0.062500,-0.062500,0.00,0.06,-0.059390,-1.000000,0.000000,0.000000,0.000000,0.000000,0.000000,0.000000,-0.000000,0.000000,0.000000,0.000000,0.000000,0.000000,0.000000,819,819,819,819
9992,0,0.000000,-0.062500,-0.062500,0.00,-0.12,0.056405,-1.000000,0.000000,0.000000,0.000000,0.000000,0.000000,0.000000,-0.000000,0.000000,0.000000,0.000000,0.000000,0.000000,0.000000,819,819,819,819
10003,0,0.000000,-0.062500,-0.062500,0.00,-0.24,-0.115930,-1.000000,0.000000,0.000000,0.000000,0.000000,0.000000,0.000000,-0.000000,0.000000,0.000000,0.000000,0.000000,0.000000,0.000000,819,819,819,819
10013,0,0.000000,-0.062500,-0.062500,-0.18,-0.36,-0.124546,-1.000000,0.000000,0.000000,0.000000,0.000000,0.000000,0.000000,-0.000107,0.000000,0.000000,0.000000,0.000000,0.000000,0.000000,819,819,819,819
10022,0,0.000000,-0.062500,-0.062500,0.00,0.00,-0.065602,-1.000000,0.000000,0.000000,0.000000,0.000000,0.000000,0.000000,-0.000000,0.000000,0.000000,0.000000,0.000000,0.000000,0.000000,819,819,819,819
10032,0,0.000000,-0.062500,-0.062500,-0.06,0.18,0.234220,-1.000000,0.000000,0.000000,0.000000,0.000000,0.000000,0.000000,-0.000036,0.000000,0.000000,0.000000,0.000000,0.000000,0.000000,819,819,819,819
10043,0,0.000000,-0.062500,-0.062500,-0.06,0.12,0.249211,-1.000000,0.000000,0.000000,0.000000,0.000000,0.000000,0.000000,-0.000036,0.000000,0.000000,0.000000,0.000000,0.000000,0.000000,819,819,819,819
10053,0,0.000000,-0.062500,-0.062500,0.00,0.12,0.131211,-1.000000,0.000000,0.000000,0.000000,0.000000,0.000000,0.000000,-0.000000,0.000000,0.000000,0.000000,0.000000,0.000000,0.000000,819,819,819,819
10068,0,0.000000,-0.062500,-0.062500,-0.18,-0.18,0.125311,-1.000000,0.000000,0.000000,0.000000,0.000000,0.000000,0.000000,-0.000107,0.000000,0.000000,0.000000,0.000000,0.000000,0.000000,819,819,819,819
10081,0,0.000000,-0.062500,-0.062500,0.00,-0.30,-0.231234,-1.000000,0.000000,0.000000,0.000000,0.000000,0.000000,0.000000,-0.000000,0.000000,0.000000,0.000000,0.000000,0.000000,0.000000,819,819,819,819
10092,0,0.000000,-0.062500,-0.062500,0.12,0.00,-0.545937,-1.000000,0.000000,0.000000,0.000000,0.000000,0.000000,0.000000,0.000072,0.000000,0.000000,0.000000,0.000000,0.000000,0.000000,819,819,819,819
10104,0,0.000000,-0.062500,-0.062500,-0.06,0.30,-0.502297,-1.000000,0.000000,0.000000,0.000000,0.000000,0.000000,0.000000,-0.000036,0.000000,0.000000,0.000000,0.000000,0.000000,0.000000,819,819,819,819
10113,0,0.000000,-0.062500,-0.062500,0.06,0.53,-0.025115,-1.000000,0.000000,0.000000,0.000000,0.000000,0.000000,0.000000,0.000036,0.000000,0.000000,0.000000,0.000000,0.000000,0.000000,819,819,819,819
10123,0,0.000000,-0.062500,-0.062500,-0.12,0.36,0.414369,-1.000000,0.000000,0.000000,0.000000,0.000000,0.000000,0.000000,-0.000072,0.000000,0.000000,0.000000,0.000000,0.000000,0.000000,819,819,819,819
10133,0,0.000000,-0.062500,-0.062500,0.00,0.06,0.614468,-1.000000,0.000000,0.000000,0.000000,0.000000,0.000000,0.000000,-0.000000,0.000000,0.000000,0.000000,0.000000,0.000000,0.000000,819,819,819,819
10143,0,0.000000,-0.062500,-0.062500,-0.06,-0.42,0.505723,-1.000000,0.000000,0.000000,0.000000,0.000000,0.000000,0.000000,-0.000036,0.000000,0.000000,0.000000,0.000000,0.000000,0.000000,819,819,819,819
10153,0,0.000000,-0.062500,-0.062500,-0.12,-0.24,0.203411,-1.000000,0.000000,0.000000,0.000000,0.000000,0.000000,0.000000,-0.000072,0.000000,0.000000,0.000000,0.000000,0.000000,0.000000,819,819,819,819
10163,0,0.000000,-0.062500,-0.062500,0.00,-0.24,-0.167954,-1.000000,0.000000,0.000000,0.000000,0.000000,0.000000,0.000000,-0.000000,0.000000,0.000000,0.000000,0.000000,0.000000,0.000000,819,819,819,819
