t,is_crashed,roll,pitch,yaw,throttle,roll_pid_out,pitch_pid_out,yaw_pid_out,motor_fl,motor_bl,motor_fr,motor_br,pwm_fl,pwm_bl,pwm_fr,pwm_br
6882,0,0.00,0.00,0.00,0.00,-0.00,0.00,0.00,0.00,0.00,0.00,0.00,819,819,819,819
6893,0,0.03,-0.00,-0.00,0.00,0.03,0.00,0.00,0.00,0.00,0.00,0.00,819,819,819,819
6900,0,0.03,-0.00,-0.00,0.00,0.04,0.00,0.00,0.00,0.00,0.00,0.00,819,819,819,819
6906,0,0.03,-0.00,-0.00,0.00,0.04,0.00,0.00,0.00,0.00,0.00,0.00,819,819,819,819
6912,0,0.03,-0.00,-0.00,0.00,0.04,0.00,0.00,0.00,0.00,0.00,0.00,819,819,819,819
6919,0,0.03,-0.00,-0.00,0.00,0.04,0.00,0.00,0.00,0.00,0.00,0.00,819,819,819,819
6925,0,0.03,-0.00,-0.00,0.00,0.04,0.00,0.00,0.00,0.00,0.00,0.00,819,819,819,819
6932,0,0.03,-0.00,-0.00,0.00,0.04,0.00,0.00,0.00,0.00,0.00,0.00,819,819,819,819
6939,0,0.03,-0.00,-0.00,0.00,0.04,0.00,0.00,0.00,0.00,0.00,0.00,819,819,819,819
6945,0,0.03,-0.00,-0.00,0.00,0.04,0.00,0.00,0.00,0.00,0.00,0.00,819,819,819,819
6952,0,0.03,-0.00,-0.00,0.00,0.04,0.00,0.00,0.00,0.00,0.00,0.00,819,819,819,819
6959,0,0.03,-0.00,-0.00,0.00,0.04,0.00,0.00,0.00,0.00,0.00,0.00,819,819,819,819
6965,0,0.03,-0.00,-0.00,0.00,0.04,0.00,0.00,0.00,0.00,0.00,0.00,819,819,819,819
6972,0,0.03,-0.00,-0.00,0.00,0.04,0.00,0.00,0.00,0.00,0.00,0.00,819,819,819,819
6979,0,0.03,-0.00,-0.00,0.00,0.04,0.00,0.00,0.00,0.00,0.00,0.00,819,819,819,819
6986,0,0.03,-0.00,-0.00,0.00,0.04,0.00,0.00,0.00,0.00,0.00,0.00,819,819,819,819
6993,0,0.03,-0.00,-0.00,0.00,0.04,0.00,0.00,0.00,0.00,0.00,0.00,819,819,819,819
7000,0,0.03,-0.00,-0.00,0.00,0.04,0.00,0.00,0.00,0.00,0.00,0.00,819,819,819,819
7006,0,0.03,-0.00,-0.00,0.00,0.04,0.00,0.00,0.00,0.00,0.00,0.00,819,819,819,819
7013,0,0.03,-0.00,-0.00,0.00,0.04,0.00,0.00,0.00,0.00,0.00,0.00,819,819,819,819
7020,0,0.03,-0.00,-0.00,0.00,0.04,0.00,0.00,0.00,0.00,0.00,0.00,819,819,819,819
7026,0,0.03,-0.00,-0.00,0.00,0.04,0.00,0.00,0.00,0.00,0.00,0.00,819,819,819,819
7033,0,0.03,-0.00,-0.00,0.00,0.04,0.00,0.00,0.00,0.00,0.00,0.00,819,819,819,819
7039,0,0.03,-0.00,-0.00,0.00,0.04,0.00,0.00,0.00,0.00,0.00,0.00,819,819,819,819
7045,0,0.03,-0.00,-0.00,0.00,0.04,0.00,0.00,0.00,0.00,0.00,0.00,819,819,819,819
7052,0,0.03,-0.00,-0.00,0.00,0.04,0.00,0.00,0.00,0.00,0.00,0.00,819,819,819,819
7059,0,0.03,-0.00,-0.00,0.00,0.04,0.00,0.00,0.00,0.00,0.00,0.00,819,819,819,819
7066,0,0.03,-0.00,-0.00,0.00,0.04,0.00,0.00,0.00,0.00,0.00,0.00,819,819,819,819
7073,0,0.03,-0.00,-0.00,0.00,0.04,0.00,0.00,0.00,0.00,0.00,0.00,819,819,819,819
7080,0,0.03,-0.00,-0.00,0.00,0.04,0.00,0.00,0.00,0.00,0.00,0.00,819,819,819,819
7091,0,0.03,-0.00,-0.00,0.00,0.02,0.00,0.00,0.00,0.00,0.00,0.00,819,819,819,819
7099,0,0.03,-0.00,-0.00,0.00,0.03,0.00,0.00,0.00,0.00,0.00,0.00,819,819,819,819
7106,0,0.03,-0.00,-0.00,0.00,0.04,0.00,0.00,0.00,0.00,0.00,0.00,819,819,819,819
7113,0,0.03,-0.00,-0.00,0.00,0.04,0.00,0.00,0.00,0.00,0.00,0.00,819,819,819,819
7120,0,0.03,-0.00,-0.00,0.00,0.04,0.00,0.00,0.00,0.00,0.00,0.00,819,819,819,819
7126,0,0.03,-0.00,-0.00,0.00,0.04,0.00,0.00,0.00,0.00,0.00,0.00,819,819,819,819
7133,0,0.03,-0.00,-0.00,0.00,0.04,0.00,0.00,0.00,0.00,0.00,0.00,819,819,819,819
7139,0,0.03,-0.00,-0.00,0.00,0.04,0.00,0.00,0.00,0.00,0.00,0.00,819,819,819,819
7146,0,0.03,-0.00,-0.00,0.00,0.04,0.00,0.00,0.00,0.00,0.00,0.00,819,819,819,819
7153,0,0.03,-0.00,-0.00,0.00,0.04,0.00,0.00,0.00,0.00,0.00,0.00,819,819,819,819
7160,0,0.03,-0.00,-0.00,0.00,0.04,0.00,0.00,0.00,0.00,0.00,0.00,819,819,819,819
7166,0,0.03,-0.00,-0.00,0.00,0.04,0.00,0.00,0.00,0.00,0.00,0.00,819,819,819,819
7173,0,0.03,-0.00,-0.00,0.00,0.04,0.00,0.00,0.00,0.00,0.00,0.00,819,819,819,819
7180,0,0.03,-0.00,-0.00,0.00,0.04,0.00,0.00,0.00,0.00,0.00,0.00,819,819,819,819
7186,0,0.03,-0.00,-0.00,0.00,0.05,0.00,0.00,0.00,0.00,0.00,0.00,819,819,819,819
7193,0,0.03,-0.00,-0.00,0.00,0.04,0.00,0.00,0.00,0.00,0.00,0.00,819,819,819,819
7199,0,0.03,-0.00,-0.00,0.00,0.04,0.00,0.00,0.00,0.00,0.00,0.00,819,819,819,819
7206,0,0.03,-0.00,-0.00,0.00,0.04,0.00,0.00,0.00,0.00,0.00,0.00,819,819,819,819
7212,0,0.03,-0.00,-0.00,0.00,0.04,0.00,0.00,0.00,0.00,0.00,0.00,819,819,819,819
7220,0,0.03,-0.00,-0.00,0.00,0.04,0.00,0.00,0.00,0.00,0.00,0.00,819,819,819,819
7226,0,0.03,-0.00,-0.00,0.00,0.04,0.00,0.00,0.00,0.00,0.00,0.00,819,819,819,819
7233,0,0.03,-0.00,-0.00,0.00,0.04,0.00,0.00,0.00,0.00,0.00,0.00,819,819,819,819
7239,0,0.03,-0.00,-0.00,0.00,0.04,0.00,0.00,0.00,0.00,0.00,0.00,819,819,819,819
7245,0,0.03,-0.00,-0.00,0.00,0.05,0.00,0.00,0.00,0.00,0.00,0.00,819,819,819,819
7252,0,0.03,-0.00,-0.00,0.00,0.04,0.00,0.00,0.00,0.00,0.00,0.00,819,819,819,819
7258,0,0.03,-0.00,-0.00,0.00,0.04,0.00,0.00,0.00,0.00,0.00,0.00,819,819,819,819
7264,0,0.03,-0.00,-0.00,0.00,0.04,0.00,0.00,0.00,0.00,0.00,0.00,819,819,819,819
7272,0,0.03,-0.00,-0.00,0.00,0.04,0.00,0.00,0.00,0.00,0.00,0.00,819,819,819,819
7279,0,0.03,-0.00,-0.00,0.00,0.04,0.00,0.00,0.00,0.00,0.00,0.00,819,819,819,819
7285,0,0.03,-0.00,-0.00,0.00,0.04,0.00,0.00,0.00,0.00,0.00,0.00,819,819,819,819
7292,0,0.03,-0.00,-0.00,0.00,0.04,0.00,0.00,0.00,0.00,0.00,0.00,819,819,819,819
7303,0,0.03,-0.00,-0.00,0.00,0.02,0.00,0.00,0.00,0.00,0.00,0.00,819,819,819,819
7312,0,0.03,-0.00,-0.00,0.00,0.03,0.00,0.00,0.00,0.00,0.00,0.00,819,819,819,819
7319,0,0.03,-0.00,-0.00,0.00,0.04,0.00,0.00,0.00,0.00,0.00,0.00,819,819,819,819
7325,0,0.03,-0.00,-0.00,0.00,0.04,0.00,0.00,0.00,0.00,0.00,0.00,819,819,819,819
7333,0,0.03,-0.00,-0.00,0.00,0.04,0.00,0.00,0.00,0.00,0.00,0.00,819,819,819,819
7339,0,0.03,-0.00,-0.00,0.00,0.04,0.00,0.00,0.00,0.00,0.00,0.00,819,819,819,819
7345,0,0.03,-0.00,-0.00,0.00,0.04,0.00,0.00,0.00,0.00,0.00,0.00,819,819,819,819
7352,0,0.03,-0.00,-0.00,0.00,0.04,0.00,0.00,0.00,0.00,0.00,0.00,819,819,819,819
7359,0,0.03,-0.00,-0.00,0.00,0.04,0.00,0.00,0.00,0.00,0.00,0.00,819,819,819,819
7366,0,0.03,-0.00,-0.00,0.00,0.04,0.00,0.00,0.00,0.00,0.00,0.00,819,819,819,819
7373,0,0.03,-0.00,-0.00,0.00,0.04,0.00,0.00,0.00,0.00,0.00,0.00,819,819,819,819
7380,0,0.03,-0.00,-0.00,0.00,0.04,0.00,0.00,0.00,0.00,0.00,0.00,819,819,819,819
7386,0,0.03,-0.00,-0.00,0.00,0.04,0.00,0.00,0.00,0.00,0.00,0.00,819,819,819,819
7393,0,0.03,-0.00,-0.00,0.00,0.04,0.00,0.00,0.00,0.00,0.00,0.00,819,819,819,819
7400,0,0.03,-0.00,-0.00,0.00,0.04,0.00,0.00,0.00,0.00,0.00,0.00,819,819,819,819
7407,0,0.03,-0.00,-0.00,0.00,0.04,0.00,0.00,0.00,0.00,0.00,0.00,819,819,819,819
7413,0,0.03,-0.00,-0.00,0.00,0.04,0.00,0.00,0.00,0.00,0.00,0.00,819,819,819,819
7420,0,0.03,-0.00,-0.00,0.00,0.04,0.00,0.00,0.00,0.00,0.00,0.00,819,819,819,819
7427,0,0.03,-0.00,-0.00,0.00,0.04,0.00,0.00,0.00,0.00,0.00,0.00,819,819,819,819
7434,0,0.03,-0.00,-0.00,0.00,0.04,0.00,0.00,0.00,0.00,0.00,0.00,819,819,819,819
7440,0,0.03,-0.00,-0.00,0.00,0.04,0.00,0.00,0.00,0.00,0.00,0.00,819,819,819,819
7446,0,0.03,-0.00,-0.00,0.00,0.04,0.00,0.00,0.00,0.00,0.00,0.00,819,819,819,819
7453,0,0.03,-0.00,-0.00,0.00,0.04,0.00,0.00,0.00,0.00,0.00,0.00,819,819,819,819
7460,0,0.03,-0.00,-0.00,0.00,0.04,0.00,0.00,0.00,0.00,0.00,0.00,819,819,819,819
7466,0,0.03,-0.00,-0.00,0.00,0.04,0.00,0.00,0.00,0.00,0.00,0.00,819,819,819,819
7473,0,0.03,-0.00,-0.00,0.00,0.04,0.00,0.00,0.00,0.00,0.00,0.00,819,819,819,819
7481,0,0.03,-0.00,-0.00,0.00,0.04,0.00,0.00,0.00,0.00,0.00,0.00,819,819,819,819
7487,0,0.03,-0.00,-0.00,0.00,0.04,0.00,0.00,0.00,0.00,0.00,0.00,819,819,819,819
7494,0,0.03,-0.00,-0.00,0.00,0.04,0.00,0.00,0.00,0.00,0.00,0.00,819,819,819,819
7501,0,0.03,-0.00,-0.00,0.00,0.04,0.00,0.00,0.00,0.00,0.00,0.00,819,819,819,819
7507,0,0.03,-0.00,-0.00,0.00,0.04,0.00,0.00,0.00,0.00,0.00,0.00,819,819,819,819
7518,0,0.03,-0.00,-0.00,0.00,0.02,0.00,0.00,0.00,0.00,0.00,0.00,819,819,819,819
7526,0,0.03,-0.00,-0.00,0.00,0.03,0.00,0.00,0.00,0.00,0.00,0.00,819,819,819,819
7534,0,0.03,-0.00,-0.00,0.00,0.04,0.00,0.00,0.00,0.00,0.00,0.00,819,819,819,819
7540,0,0.03,-0.00,-0.00,0.00,0.04,0.00,0.00,0.00,0.00,0.00,0.00,819,819,819,819
7546,0,0.03,-0.00,-0.00,0.00,0.04,0.00,0.00,0.00,0.00,0.00,0.00,819,819,819,819
7553,0,0.03,-0.00,-0.00,0.00,0.04,0.00,0.00,0.00,0.00,0.00,0.00,819,819,819,819
7560,0,0.03,-0.00,-0.00,0.00,0.04,0.00,0.00,0.00,0.00,0.00,0.00,819,819,819,819
7566,0,0.03,-0.00,-0.00,0.00,0.04,0.00,0.00,0.00,0.00,0.00,0.00,819,819,819,819
7573,0,0.03,-0.00,-0.00,0.00,0.04,0.00,0.00,0.00,0.00,0.00,0.00,819,819,819,819
7580,0,0.03,-0.00,-0.00,0.00,0.04,0.00,0.00,0.00,0.00,0.00,0.00,819,819,819,819
7586,0,0.03,-0.00,-0.00,0.00,0.04,0.00,0.00,0.00,0.00,0.00,0.00,819,819,819,819
7593,0,0.03,-0.00,-0.00,0.00,0.04,0.00,0.00,0.00,0.00,0.00,0.00,819,819,819,819
7600,0,0.03,-0.00,-0.00,0.00,0.04,0.00,0.00,0.00,0.00,0.00,0.00,819,819,819,819
7606,0,0.03,-0.00,-0.00,0.00,0.04,0.00,0.00,0.00,0.00,0.00,0.00,819,819,819,819
7613,0,0.03,-0.00,-0.00,0.00,0.04,0.00,0.00,0.00,0.00,0.00,0.00,819,819,819,819
7620,0,0.03,-0.00,-0.00,0.00,0.04,0.00,0.00,0.00,0.00,0.00,0.00,819,819,819,819
7626,0,0.03,-0.00,-0.00,0.00,0.04,0.00,0.00,0.00,0.00,0.00,0.00,819,819,819,819
7634,0,0.03,-0.00,-0.00,0.00,0.04,0.00,0.00,0.00,0.00,0.00,0.00,819,819,819,819
7640,0,0.03,-0.00,-0.00,0.00,0.04,0.00,0.00,0.00,0.00,0.00,0.00,819,819,819,819
7646,0,0.03,-0.00,-0.00,0.00,0.04,0.00,0.00,0.00,0.00,0.00,0.00,819,819,819,819
7653,0,0.03,-0.00,-0.00,0.00,0.04,0.00,0.00,0.00,0.00,0.00,0.00,819,819,819,819
7660,0,0.03,-0.00,-0.00,0.00,0.04,0.00,0.00,0.00,0.00,0.00,0.00,819,819,819,819
7667,0,0.03,-0.00,-0.00,0.00,0.04,0.00,0.00,0.00,0.00,0.00,0.00,819,819,819,819
7674,0,0.03,-0.00,-0.00,0.00,0.04,0.00,0.00,0.00,0.00,0.00,0.00,819,819,819,819
7681,0,0.03,-0.00,-0.00,0.00,0.04,0.00,0.00,0.00,0.00,0.00,0.00,819,819,819,819
7687,0,0.03,-0.00,-0.00,0.00,0.04,0.00,0.00,0.00,0.00,0.00,0.00,819,819,819,819
7694,0,0.03,-0.00,-0.00,0.00,0.04,0.00,0.00,0.00,0.00,0.00,0.00,819,819,819,819
7701,0,0.03,-0.00,-0.00,0.00,0.04,0.00,0.00,0.00,0.00,0.00,0.00,819,819,819,819
7707,0,0.03,-0.00,-0.00,0.00,0.04,0.00,0.00,0.00,0.00,0.00,0.00,819,819,819,819
7714,0,0.03,-0.00,-0.00,0.00,0.04,0.00,0.00,0.00,0.00,0.00,0.00,819,819,819,819
7721,0,0.03,-0.00,-0.00,0.00,0.04,0.00,0.00,0.00,0.00,0.00,0.00,819,819,819,819
7731,0,0.03,-0.00,-0.00,0.00,0.03,0.00,0.00,0.00,0.00,0.00,0.00,819,819,819,819
7737,0,0.03,-0.00,-0.00,0.00,0.04,0.00,0.00,0.00,0.00,0.00,0.00,819,819,819,819
7744,0,0.03,-0.00,-0.00,0.00,0.04,0.00,0.00,0.00,0.00,0.00,0.00,819,819,819,819
7751,0,0.03,-0.00,-0.00,0.00,0.04,0.00,0.00,0.00,0.00,0.00,0.00,819,819,819,819
7757,0,0.03,-0.00,-0.00,0.00,0.04,0.00,0.00,0.00,0.00,0.00,0.00,819,819,819,819
7764,0,0.03,-0.00,-0.00,0.00,0.04,0.00,0.00,0.00,0.00,0.00,0.00,819,819,819,819
7771,0,0.03,-0.00,-0.00,0.00,0.04,0.00,0.00,0.00,0.00,0.00,0.00,819,819,819,819
7778,0,0.03,-0.00,-0.00,0.00,0.04,0.00,0.00,0.00,0.00,0.00,0.00,819,819,819,819
7785,0,0.03,-0.00,-0.00,0.00,0.04,0.00,0.00,0.00,0.00,0.00,0.00,819,819,819,819
7791,0,0.03,-0.00,-0.00,0.00,0.04,0.00,0.00,0.00,0.00,0.00,0.00,819,819,819,819
7797,0,0.03,-0.00,-0.00,0.00,0.04,0.00,0.00,0.00,0.00,0.00,0.00,819,819,819,819
7804,0,0.03,-0.00,-0.00,0.00,0.04,0.00,0.00,0.00,0.00,0.00,0.00,819,819,819,819
7811,0,0.03,-0.00,-0.00,0.00,0.04,0.00,0.00,0.00,0.00,0.00,0.00,819,819,819,819
7817,0,0.03,-0.00,-0.00,0.00,0.04,0.00,0.00,0.00,0.00,0.00,0.00,819,819,819,819
7824,0,0.03,-0.00,-0.00,0.00,0.04,0.00,0.00,0.00,0.00,0.00,0.00,819,819,819,819
7832,0,0.03,-0.00,-0.00,0.00,0.04,0.00,0.00,0.00,0.00,0.00,0.00,819,819,819,819
7838,0,0.03,-0.00,-0.00,0.00,0.04,0.00,0.00,0.00,0.00,0.00,0.00,819,819,819,819
7845,0,0.03,-0.00,-0.00,0.00,0.04,0.00,0.00,0.00,0.00,0.00,0.00,819,819,819,819
7852,0,0.03,-0.00,-0.00,0.00,0.04,0.00,0.00,0.00,0.00,0.00,0.00,819,819,819,819
7859,0,0.03,-0.00,-0.00,0.00,0.04,0.00,0.00,0.00,0.00,0.00,0.00,819,819,819,819
7865,0,0.03,-0.00,-0.00,0.00,0.04,0.00,0.00,0.00,0.00,0.00,0.00,819,819,819,819
7872,0,0.03,-0.00,-0.00,0.00,0.04,0.00,0.00,0.00,0.00,0.00,0.00,819,819,819,819
7878,0,0.03,-0.00,-0.00,0.00,0.04,0.00,0.00,0.00,0.00,0.00,0.00,819,819,819,819
7885,0,0.03,-0.00,-0.00,0.00,0.04,0.00,0.00,0.00,0.00,0.00,0.00,819,819,819,819
7891,0,0.03,-0.00,-0.00,0.00,0.04,0.00,0.00,0.00,0.00,0.00,0.00,819,819,819,819
7897,0,0.03,-0.00,-0.00,0.00,0.04,0.00,0.00,0.00,0.00,0.00,0.00,819,819,819,819
7904,0,0.03,-0.00,-0.00,0.00,0.04,0.00,0.00,0.00,0.00,0.00,0.00,819,819,819,819
7911,0,0.03,-0.00,-0.00,0.00,0.04,0.00,0.00,0.00,0.00,0.00,0.00,819,819,819,819
7917,0,0.03,-0.00,-0.00,0.00,0.04,0.00,0.00,0.00,0.00,0.00,0.00,819,819,819,819
7924,0,0.03,-0.00,-0.00,0.00,0.04,0.00,0.00,0.00,0.00,0.00,0.00,819,819,819,819
7931,0,0.03,-0.00,-0.00,0.00,0.04,0.00,0.00,0.00,0.00,0.00,0.00,819,819,819,819
7942,0,0.03,-0.00,-0.00,0.00,0.03,0.00,0.00,0.00,0.00,0.00,0.00,819,819,819,819
7951,0,0.03,-0.00,-0.00,0.00,0.03,0.00,0.00,0.00,0.00,0.00,0.00,819,819,819,819
7957,0,0.03,-0.00,-0.00,0.00,0.04,0.00,0.00,0.00,0.00,0.00,0.00,819,819,819,819
7964,0,0.03,-0.00,-0.00,0.00,0.04,0.00,0.00,0.00,0.00,0.00,0.00,819,819,819,819
7971,0,0.03,-0.00,-0.00,0.00,0.04,0.00,0.00,0.00,0.00,0.00,0.00,819,819,819,819
7977,0,0.03,-0.00,-0.00,0.00,0.04,0.00,0.00,0.00,0.00,0.00,0.00,819,819,819,819
7984,0,0.03,-0.00,-0.00,0.00,0.04,0.00,0.00,0.00,0.00,0.00,0.00,819,819,819,819
7990,0,0.03,-0.00,-0.00,0.00,0.04,0.00,0.00,0.00,0.00,0.00,0.00,819,819,819,819
7997,0,0.03,-0.00,-0.00,0.00,0.04,0.00,0.00,0.00,0.00,0.00,0.00,819,819,819,819
8004,0,0.03,-0.00,-0.00,0.00,0.04,0.00,0.00,0.00,0.00,0.00,0.00,819,819,819,819
8011,0,0.03,-0.00,-0.00,0.00,0.04,0.00,0.00,0.00,0.00,0.00,0.00,819,819,819,819
8017,0,0.03,-0.00,-0.00,0.00,0.04,0.00,0.00,0.00,0.00,0.00,0.00,819,819,819,819
8024,0,0.03,-0.00,-0.00,0.00,0.04,0.00,0.00,0.00,0.00,0.00,0.00,819,819,819,819
8032,0,0.03,-0.00,-0.00,0.00,0.04,0.00,0.00,0.00,0.00,0.00,0.00,819,819,819,819
8038,0,0.03,-0.00,-0.00,0.00,0.04,0.00,0.00,0.00,0.00,0.00,0.00,819,819,819,819
8045,0,0.03,-0.00,-0.00,0.00,0.04,0.00,0.00,0.00,0.00,0.00,0.00,819,819,819,819
8052,0,0.03,-0.00,-0.00,0.00,0.04,0.00,0.00,0.00,0.00,0.00,0.00,819,819,819,819
8058,0,0.03,-0.00,-0.00,0.00,0.04,0.00,0.00,0.00,0.00,0.00,0.00,819,819,819,819
8065,0,0.03,-0.00,-0.00,0.00,0.04,0.00,0.00,0.00,0.00,0.00,0.00,819,819,819,819
8072,0,0.03,-0.00,-0.00,0.00,0.04,0.00,0.00,0.00,0.00,0.00,0.00,819,819,819,819
8078,0,0.03,-0.00,-0.00,0.00,0.04,0.00,0.00,0.00,0.00,0.00,0.00,819,819,819,819
8085,0,0.03,-0.00,-0.00,0.00,0.04,0.00,0.00,0.00,0.00,0.00,0.00,819,819,819,819
8091,0,0.03,-0.00,-0.00,0.00,0.04,0.00,0.00,0.00,0.00,0.00,0.00,819,819,819,819
8098,0,0.03,-0.00,-0.00,0.00,0.04,0.00,0.00,0.00,0.00,0.00,0.00,819,819,819,819
8105,0,0.03,-0.00,-0.00,0.00,0.04,0.00,0.00,0.00,0.00,0.00,0.00,819,819,819,819
8112,0,0.03,-0.00,-0.00,0.00,0.04,0.00,0.00,0.00,0.00,0.00,0.00,819,819,819,819
8118,0,0.03,-0.00,-0.00,0.00,0.04,0.00,0.00,0.00,0.00,0.00,0.00,819,819,819,819
8125,0,0.03,-0.00,-0.00,0.00,0.04,0.00,0.00,0.00,0.00,0.00,0.00,819,819,819,819
8132,0,0.03,-0.00,-0.00,0.00,0.04,0.00,0.00,0.00,0.00,0.00,0.00,819,819,819,819
8138,0,0.03,-0.00,-0.00,0.00,0.04,0.00,0.00,0.00,0.00,0.00,0.00,819,819,819,819
8145,0,0.03,-0.00,-0.00,0.00,0.04,0.00,0.00,0.00,0.00,0.00,0.00,819,819,819,819
8156,0,0.03,-0.00,-0.00,0.00,0.03,0.00,0.00,0.00,0.00,0.00,0.00,819,819,819,819
8165,0,0.03,-0.00,-0.00,0.00,0.03,0.00,0.00,0.00,0.00,0.00,0.00,819,819,819,819
8172,0,0.03,-0.00,-0.00,0.00,0.04,0.00,0.00,0.00,0.00,0.00,0.00,819,819,819,819
8178,0,0.03,-0.00,-0.00,0.00,0.04,0.00,0.00,0.00,0.00,0.00,0.00,819,819,819,819
8185,0,0.03,-0.00,-0.00,0.00,0.04,0.00,0.00,0.00,0.00,0.00,0.00,819,819,819,819
8191,0,0.03,-0.00,-0.00,0.00,0.04,0.00,0.00,0.00,0.00,0.00,0.00,819,819,819,819
8198,0,0.03,-0.00,-0.00,0.00,0.04,0.00,0.00,0.00,0.00,0.00,0.00,819,819,819,819
8205,0,0.03,-0.00,-0.00,0.00,0.04,0.00,0.00,0.00,0.00,0.00,0.00,819,819,819,819
8212,0,0.03,-0.00,-0.00,0.00,0.04,0.00,0.00,0.00,0.00,0.00,0.00,819,819,819,819
8218,0,0.03,-0.00,-0.00,0.00,0.04,0.00,0.00,0.00,0.00,0.00,0.00,819,819,819,819
8225,0,0.03,-0.00,-0.00,0.00,0.04,0.00,0.00,0.00,0.00,0.00,0.00,819,819,819,819
8232,0,0.03,-0.00,-0.00,0.00,0.04,0.00,0.00,0.00,0.00,0.00,0.00,819,819,819,819
8238,0,0.03,-0.00,-0.00,0.00,0.04,0.00,0.00,0.00,0.00,0.00,0.00,819,819,819,819
8245,0,0.03,-0.00,-0.00,0.00,0.04,0.00,0.00,0.00,0.00,0.00,0.00,819,819,819,819
8252,0,0.03,-0.00,-0.00,0.00,0.04,0.00,0.00,0.00,0.00,0.00,0.00,819,819,819,819
8258,0,0.03,-0.00,-0.00,0.00,0.04,0.00,0.00,0.00,0.00,0.00,0.00,819,819,819,819
8267,0,0.03,-0.00,-0.00,0.00,0.03,0.00,0.00,0.00,0.00,0.00,0.00,819,819,819,819
8274,0,0.03,-0.00,-0.00,0.00,0.04,0.00,0.00,0.00,0.00,0.00,0.00,819,819,819,819
8281,0,0.03,-0.00,-0.00,0.00,0.04,0.00,0.00,0.00,0.00,0.00,0.00,819,819,819,819
8287,0,0.03,-0.00,-0.00,0.00,0.04,0.00,0.00,0.00,0.00,0.00,0.00,819,819,819,819
8293,0,0.03,-0.00,-0.00,0.00,0.04,0.00,0.00,0.00,0.00,0.00,0.00,819,819,819,819
8299,0,0.03,-0.00,-0.00,0.00,0.04,0.00,0.00,0.00,0.00,0.00,0.00,819,819,819,819
8305,0,0.03,-0.00,-0.00,0.00,0.04,0.00,0.00,0.00,0.00,0.00,0.00,819,819,819,819
8313,0,0.03,-0.00,-0.00,0.00,0.04,0.00,0.00,0.00,0.00,0.00,0.00,819,819,819,819
8319,0,0.03,-0.00,-0.00,0.00,0.04,0.00,0.00,0.00,0.00,0.00,0.00,819,819,819,819
8326,0,0.03,-0.00,-0.00,0.00,0.04,0.00,0.00,0.00,0.00,0.00,0.00,819,819,819,819
8333,0,0.03,-0.00,-0.00,0.00,0.04,0.00,0.00,0.00,0.00,0.00,0.00,819,819,819,819
8339,0,0.03,-0.00,-0.00,0.00,0.04,0.00,0.00,0.00,0.00,0.00,0.00,819,819,819,819
8346,0,0.03,-0.00,-0.00,0.00,0.04,0.00,0.00,0.00,0.00,0.00,0.00,819,819,819,819
8353,0,0.03,-0.00,-0.00,0.00,0.04,0.00,0.00,0.00,0.00,0.00,0.00,819,819,819,819
8364,0,0.03,-0.00,-0.00,0.00,0.02,0.00,0.00,0.00,0.00,0.00,0.00,819,819,819,819
8373,0,0.03,-0.00,-0.00,0.00,0.03,0.00,0.00,0.00,0.00,0.00,0.00,819,819,819,819
8379,0,0.03,-0.00,-0.00,0.00,0.04,0.00,0.00,0.00,0.00,0.00,0.00,819,819,819,819
8386,0,0.03,-0.00,-0.00,0.00,0.04,0.00,0.00,0.00,0.00,0.00,0.00,819,819,819,819
8392,0,0.03,-0.00,-0.00,0.00,0.04,0.00,0.00,0.00,0.00,0.00,0.00,819,819,819,819
8399,0,0.03,-0.00,-0.00,0.00,0.04,0.00,0.00,0.00,0.00,0.00,0.00,819,819,819,819
8405,0,0.03,-0.00,-0.00,0.00,0.04,0.00,0.00,0.00,0.00,0.00,0.00,819,819,819,819
8413,0,0.03,-0.00,-0.00,0.00,0.04,0.00,0.00,0.00,0.00,0.00,0.00,819,819,819,819
8419,0,0.03,-0.00,-0.00,0.00,0.04,0.00,0.00,0.00,0.00,0.00,0.00,819,819,819,819
8426,0,0.03,-0.00,-0.00,0.00,0.04,0.00,0.00,0.00,0.00,0.00,0.00,819,819,819,819
8433,0,0.03,-0.00,-0.00,0.00,0.04,0.00,0.00,0.00,0.00,0.00,0.00,819,819,819,819
8439,0,0.03,-0.00,-0.00,0.00,0.04,0.00,0.00,0.00,0.00,0.00,0.00,819,819,819,819
8446,0,0.03,-0.00,-0.00,0.00,0.04,0.00,0.00,0.00,0.00,0.00,0.00,819,819,819,819
8453,0,0.03,-0.00,-0.00,0.00,0.04,0.00,0.00,0.00,0.00,0.00,0.00,819,819,819,819
8459,0,0.03,-0.00,-0.00,0.00,0.04,0.00,0.00,0.00,0.00,0.00,0.00,819,819,819,819
8466,0,0.03,-0.00,-0.00,0.00,0.04,0.00,0.00,0.00,0.00,0.00,0.00,819,819,819,819
8473,0,0.03,-0.00,-0.00,0.00,0.04,0.00,0.00,0.00,0.00,0.00,0.00,819,819,819,819
8479,0,0.03,-0.00,-0.00,0.00,0.04,0.00,0.00,0.00,0.00,0.00,0.00,819,819,819,819
8486,0,0.03,-0.00,-0.00,0.00,0.04,0.00,0.00,0.00,0.00,0.00,0.00,819,819,819,819
8492,0,0.03,-0.00,-0.00,0.00,0.04,0.00,0.00,0.00,0.00,0.00,0.00,819,819,819,819
8499,0,0.03,-0.00,-0.00,0.00,0.04,0.00,0.00,0.00,0.00,0.00,0.00,819,819,819,819
8506,0,0.03,-0.00,-0.00,0.00,0.04,0.00,0.00,0.00,0.00,0.00,0.00,819,819,819,819
8513,0,0.03,-0.00,-0.00,0.00,0.04,0.00,0.00,0.00,0.00,0.00,0.00,819,819,819,819
8519,0,0.03,-0.00,-0.00,0.00,0.04,0.00,0.00,0.00,0.00,0.00,0.00,819,819,819,819
8526,0,0.03,-0.00,-0.00,0.00,0.04,0.00,0.00,0.00,0.00,0.00,0.00,819,819,819,819
8533,0,0.03,-0.00,-0.00,0.00,0.04,0.00,0.00,0.00,0.00,0.00,0.00,819,819,819,819
8539,0,0.03,-0.00,-0.00,0.00,0.04,0.00,0.00,0.00,0.00,0.00,0.00,819,819,819,819
8546,0,0.03,-0.00,-0.00,0.00,0.04,0.00,0.00,0.00,0.00,0.00,0.00,819,819,819,819
8553,0,0.03,-0.00,-0.00,0.00,0.04,0.00,0.00,0.00,0.00,0.00,0.00,819,819,819,819
8560,0,0.03,-0.00,-0.00,0.00,0.04,0.00,0.00,0.00,0.00,0.00,0.00,819,819,819,819
8566,0,0.03,-0.00,-0.00,0.00,0.04,0.00,0.00,0.00,0.00,0.00,0.00,819,819,819,819
8577,0,0.03,-0.00,-0.00,0.00,0.03,0.00,0.00,0.00,0.00,0.00,0.00,819,819,819,819
8585,0,0.03,-0.00,-0.00,0.00,0.03,0.00,0.00,0.00,0.00,0.00,0.00,819,819,819,819
8591,0,0.03,-0.00,-0.00,0.00,0.04,0.00,0.00,0.00,0.00,0.00,0.00,819,819,819,819
8597,0,0.03,-0.00,-0.00,0.00,0.05,0.00,0.00,0.00,0.00,0.00,0.00,819,819,819,819
8604,0,0.03,-0.00,-0.00,0.00,0.04,0.00,0.00,0.00,0.00,0.00,0.00,819,819,819,819
8610,0,0.03,-0.00,-0.00,0.00,0.04,0.00,0.00,0.00,0.00,0.00,0.00,819,819,819,819
8617,0,0.03,-0.00,-0.00,0.00,0.04,0.00,0.00,0.00,0.00,0.00,0.00,819,819,819,819
8623,0,0.03,-0.00,-0.00,0.00,0.04,0.00,0.00,0.00,0.00,0.00,0.00,819,819,819,819
8629,0,0.03,-0.00,-0.00,0.00,0.05,0.00,0.00,0.00,0.00,0.00,0.00,819,819,819,819
8636,0,0.03,-0.00,-0.00,0.00,0.04,0.00,0.00,0.00,0.00,0.00,0.00,819,819,819,819
8642,0,0.03,-0.00,-0.00,0.00,0.04,0.00,0.00,0.00,0.00,0.00,0.00,819,819,819,819
8648,0,0.03,-0.00,-0.00,0.00,0.04,0.00,0.00,0.00,0.00,0.00,0.00,819,819,819,819
8655,0,0.03,-0.00,-0.00,0.00,0.04,0.00,0.00,0.00,0.00,0.00,0.00,819,819,819,819
8662,0,0.03,-0.00,-0.00,0.00,0.04,0.00,0.00,0.00,0.00,0.00,0.00,819,819,819,819
8669,0,0.03,-0.00,-0.00,0.00,0.04,0.00,0.00,0.00,0.00,0.00,0.00,819,819,819,819
8676,0,0.03,-0.00,-0.00,0.00,0.04,0.00,0.00,0.00,0.00,0.00,0.00,819,819,819,819
8683,0,0.03,-0.00,-0.00,0.00,0.04,0.00,0.00,0.00,0.00,0.00,0.00,819,819,819,819
8689,0,0.03,-0.00,-0.00,0.00,0.04,0.00,0.00,0.00,0.00,0.00,0.00,819,819,819,819
8696,0,0.03,-0.00,-0.00,0.00,0.04,0.00,0.00,0.00,0.00,0.00,0.00,819,819,819,819
8703,0,0.03,-0.00,-0.00,0.00,0.04,0.00,0.00,0.00,0.00,0.00,0.00,819,819,819,819
8709,0,0.03,-0.00,-0.00,0.00,0.04,0.00,0.00,0.00,0.00,0.00,0.00,819,819,819,819
8755,0,0.03,-0.00,-0.00,0.00,0.00,0.00,0.00,0.00,0.00,0.00,0.00,819,819,819,819
8763,0,0.03,-0.00,-0.00,0.00,0.04,0.00,0.00,0.00,0.00,0.00,0.00,819,819,819,819
8769,0,0.03,-0.00,-0.00,0.00,0.04,0.00,0.00,0.00,0.00,0.00,0.00,819,819,819,819
8776,0,0.03,-0.00,-0.00,0.00,0.04,0.00,0.00,0.00,0.00,0.00,0.00,819,819,819,819
8783,0,0.03,-0.00,-0.00,0.00,0.04,0.00,0.00,0.00,0.00,0.00,0.00,819,819,819,819
8789,0,0.03,-0.00,-0.00,0.00,0.04,0.00,0.00,0.00,0.00,0.00,0.00,819,819,819,819
8796,0,0.03,-0.00,-0.00,0.00,0.04,0.00,0.00,0.00,0.00,0.00,0.00,819,819,819,819
8803,0,0.03,-0.00,-0.00,0.00,0.04,0.00,0.00,0.00,0.00,0.00,0.00,819,819,819,819
8810,0,0.03,-0.00,-0.00,0.00,0.04,0.00,0.00,0.00,0.00,0.00,0.00,819,819,819,819
8817,0,0.03,-0.00,-0.00,0.00,0.04,0.00,0.00,0.00,0.00,0.00,0.00,819,819,819,819
8824,0,0.03,-0.00,-0.00,0.00,0.04,0.00,0.00,0.00,0.00,0.00,0.00,819,819,819,819
8830,0,0.03,-0.00,-0.00,0.00,0.04,0.00,0.00,0.00,0.00,0.00,0.00,819,819,819,819
8837,0,0.03,-0.00,-0.00,0.00,0.04,0.00,0.00,0.00,0.00,0.00,0.00,819,819,819,819
8843,0,0.03,-0.00,-0.00,0.00,0.04,0.00,0.00,0.00,0.00,0.00,0.00,819,819,819,819
8850,0,0.03,-0.00,-0.00,0.00,0.04,0.00,0.00,0.00,0.00,0.00,0.00,819,819,819,819
8857,0,0.03,-0.00,-0.00,0.00,0.04,0.00,0.00,0.00,0.00,0.00,0.00,819,819,819,819
8864,0,0.03,-0.00,-0.00,0.00,0.04,0.00,0.00,0.00,0.00,0.00,0.00,819,819,819,819
8870,0,0.03,-0.00,-0.00,0.00,0.04,0.00,0.00,0.00,0.00,0.00,0.00,819,819,819,819
8877,0,0.03,-0.00,-0.00,0.00,0.04,0.00,0.00,0.00,0.00,0.00,0.00,819,819,819,819
8884,0,0.03,-0.00,-0.00,0.00,0.04,0.00,0.00,0.00,0.00,0.00,0.00,819,819,819,819
8890,0,0.03,-0.00,-0.00,0.00,0.04,0.00,0.00,0.00,0.00,0.00,0.00,819,819,819,819
8897,0,0.03,-0.00,-0.00,0.00,0.04,0.00,0.00,0.00,0.00,0.00,0.00,819,819,819,819
8904,0,0.03,-0.00,-0.00,0.00,0.04,0.00,0.00,0.00,0.00,0.00,0.00,819,819,819,819
8910,0,0.03,-0.00,-0.00,0.00,0.04,0.00,0.00,0.00,0.00,0.00,0.00,819,819,819,819
8917,0,0.03,-0.00,-0.00,0.00,0.04,0.00,0.00,0.00,0.00,0.00,0.00,819,819,819,819
8924,0,0.03,-0.00,-0.00,0.00,0.04,0.00,0.00,0.00,0.00,0.00,0.00,819,819,819,819
8930,0,0.03,-0.00,-0.00,0.00,0.04,0.00,0.00,0.00,0.00,0.00,0.00,819,819,819,819
8937,0,0.03,-0.00,-0.00,0.00,0.04,0.00,0.00,0.00,0.00,0.00,0.00,819,819,819,819
8944,0,0.03,-0.00,-0.00,0.00,0.04,0.00,0.00,0.00,0.00,0.00,0.00,819,819,819,819
8950,0,0.03,-0.00,-0.00,0.00,0.04,0.00,0.00,0.00,0.00,0.00,0.00,819,819,819,819
8957,0,0.03,-0.00,-0.00,0.00,0.04,0.00,0.00,0.00,0.00,0.00,0.00,819,819,819,819
8968,0,0.03,-0.00,-0.00,0.00,0.02,0.00,0.00,0.00,0.00,0.00,0.00,819,819,819,819
8976,0,0.03,-0.00,-0.00,0.00,0.03,0.00,0.00,0.00,0.00,0.00,0.00,819,819,819,819
8983,0,0.03,-0.00,-0.00,0.00,0.04,0.00,0.00,0.00,0.00,0.00,0.00,819,819,819,819
8989,0,0.03,-0.00,-0.00,0.00,0.04,0.00,0.00,0.00,0.00,0.00,0.00,819,819,819,819
8997,0,0.03,-0.00,-0.00,0.05,0.04,0.00,0.00,0.01,0.01,0.09,0.09,835,835,888,888
9004,0,0.03,-0.00,-0.00,0.05,0.00,0.00,0.00,0.05,0.05,0.05,0.05,859,859,861,861
9010,0,0.03,-0.00,-0.00,0.05,0.00,0.00,0.00,0.05,0.05,0.05,0.05,859,859,861,861
9017,0,0.03,-0.00,-0.00,0.05,0.00,0.00,0.00,0.05,0.05,0.05,0.05,859,859,861,861
9024,0,0.03,-0.00,-0.00,0.05,0.00,0.00,0.00,0.05,0.05,0.05,0.05,859,859,861,861
9030,0,0.03,-0.00,-0.00,0.05,0.00,0.00,0.00,0.05,0.05,0.05,0.05,859,859,861,861
9037,0,0.03,-0.00,-0.00,0.05,0.00,0.00,0.00,0.05,0.05,0.05,0.05,859,859,861,861
9043,0,0.03,-0.00,-0.00,0.05,0.00,0.00,0.00,0.05,0.05,0.05,0.05,859,859,861,861
9049,0,0.03,-0.00,-0.00,0.05,0.00,0.00,0.00,0.05,0.05,0.05,0.05,859,859,861,861
9056,0,0.03,-0.00,-0.00,0.05,0.00,0.00,0.00,0.05,0.05,0.05,0.05,859,859,861,861
9064,0,0.03,-0.00,-0.00,0.05,0.00,0.00,0.00,0.05,0.05,0.05,0.05,859,859,861,861
9070,0,0.03,-0.00,-0.00,0.05,0.00,0.00,0.00,0.05,0.05,0.05,0.05,859,859,861,861
9077,0,0.03,-0.00,-0.00,0.05,0.00,0.00,0.00,0.05,0.05,0.05,0.05,859,859,861,861
9084,0,0.03,-0.00,-0.00,0.05,0.00,0.00,0.00,0.05,0.05,0.05,0.05,859,859,861,861
9091,0,0.03,-0.00,-0.00,0.05,0.00,0.00,0.00,0.05,0.05,0.05,0.05,859,859,861,861
9097,0,0.03,-0.00,-0.00,0.05,0.00,0.00,0.00,0.05,0.05,0.05,0.05,859,859,861,861
9105,0,0.03,-0.00,-0.00,0.05,0.00,0.00,0.00,0.05,0.05,0.05,0.05,859,859,861,861
9112,0,0.03,-0.00,-0.00,0.05,0.00,0.00,0.00,0.05,0.05,0.05,0.05,859,859,861,861
9118,0,0.03,-0.00,-0.00,0.07,0.00,0.00,0.00,0.07,0.07,0.07,0.07,877,877,879,879
9125,0,0.03,-0.00,-0.00,0.08,0.00,0.00,0.00,0.08,0.08,0.08,0.08,881,881,884,884
9133,0,0.03,-0.00,-0.00,0.08,0.00,0.00,0.00,0.08,0.08,0.08,0.08,883,883,885,885
9139,0,0.03,-0.00,-0.00,0.08,0.00,0.00,0.00,0.08,0.08,0.08,0.08,883,883,885,885
9146,0,0.03,-0.00,-0.00,0.08,0.00,0.00,0.00,0.08,0.08,0.08,0.08,883,883,885,885
9153,0,0.03,-0.00,-0.00,0.08,0.00,0.00,0.00,0.08,0.08,0.08,0.08,883,883,885,885
9160,0,0.03,-0.00,-0.00,0.08,0.00,0.00,0.00,0.08,0.08,0.08,0.08,883,883,885,885
9167,0,0.03,-0.00,-0.00,0.08,0.00,0.00,0.00,0.08,0.08,0.08,0.08,883,883,885,885
9174,0,0.03,-0.00,-0.00,0.09,0.00,0.00,0.00,0.09,0.09,0.09,0.09,889,889,891,891
9184,0,0.03,-0.00,-0.00,0.09,0.00,0.00,0.00,0.09,0.09,0.09,0.09,889,889,891,891
9190,0,0.03,-0.00,-0.00,0.09,0.00,0.00,0.00,0.09,0.09,0.09,0.09,889,889,891,891
9197,0,0.03,-0.00,-0.00,0.09,0.00,0.00,0.00,0.09,0.09,0.09,0.09,889,889,891,891
9205,0,0.03,-0.00,-0.00,0.09,0.00,0.00,0.00,0.09,0.09,0.09,0.09,892,892,894,894
9211,0,0.03,-0.00,-0.00,0.09,0.00,0.00,0.00,0.09,0.09,0.09,0.09,893,893,895,895
9218,0,0.03,-0.00,-0.00,0.09,0.00,0.00,0.00,0.09,0.09,0.09,0.09,893,893,895,895
9225,0,0.03,-0.00,-0.00,0.09,0.00,0.00,0.00,0.09,0.09,0.09,0.09,893,893,895,895
9232,0,0.03,-0.00,-0.00,0.09,0.00,0.00,0.00,0.09,0.09,0.09,0.09,893,893,895,895
9238,0,0.03,-0.00,-0.00,0.09,0.00,0.00,0.00,0.09,0.09,0.09,0.09,893,893,895,895
9245,0,0.03,-0.00,-0.00,0.09,0.00,0.00,0.00,0.09,0.09,0.09,0.09,893,893,895,895
9252,0,0.03,-0.00,-0.00,0.09,0.00,0.00,0.00,0.09,0.09,0.09,0.09,893,893,895,895
9259,0,0.03,-0.00,-0.00,0.09,0.00,0.00,0.00,0.09,0.09,0.09,0.09,893,893,895,895
9266,0,0.03,-0.00,-0.00,0.09,0.00,0.00,0.00,0.09,0.09,0.09,0.09,894,894,896,896
9273,0,0.03,-0.00,-0.00,0.09,0.00,0.00,0.00,0.09,0.09,0.10,0.10,895,895,897,897
9280,0,0.03,-0.00,-0.00,0.10,0.00,0.00,0.00,0.10,0.10,0.10,0.10,901,901,903,903
9287,0,0.03,-0.00,-0.00,0.10,0.00,0.00,0.00,0.10,0.10,0.10,0.10,901,901,903,903
9293,0,0.03,-0.00,-0.00,0.12,0.00,0.00,0.00,0.12,0.12,0.12,0.12,915,915,917,917
9299,0,0.03,-0.00,-0.00,0.12,0.00,0.00,0.00,0.12,0.12,0.12,0.12,915,915,917,917
9306,0,0.03,-0.00,-0.00,0.12,0.00,0.00,0.00,0.12,0.12,0.12,0.12,915,915,917,917
9312,0,0.03,-0.00,-0.00,0.14,0.00,0.00,0.00,0.14,0.14,0.14,0.14,931,931,933,933
9318,0,0.03,-0.00,-0.00,0.14,0.00,0.00,0.00,0.14,0.14,0.15,0.15,936,936,938,938
9325,0,0.03,-0.00,-0.00,0.15,0.00,0.00,0.00,0.15,0.15,0.15,0.15,938,938,940,940
9331,0,0.03,-0.00,-0.00,0.15,0.00,0.00,0.00,0.15,0.15,0.15,0.15,943,943,945,945
9338,0,0.03,-0.00,-0.00,0.15,0.00,0.00,0.00,0.15,0.15,0.15,0.15,943,943,945,945
9344,0,0.02,-0.00,-0.00,0.15,-0.00,0.00,0.00,0.15,0.15,0.15,0.15,944,944,944,944
9350,0,0.02,-0.00,-0.00,0.15,0.00,0.00,0.00,0.15,0.15,0.15,0.15,943,943,945,945
9358,0,0.02,-0.00,-0.00,0.16,0.00,0.00,0.00,0.16,0.16,0.16,0.16,949,949,951,951
9365,0,0.02,-0.00,-0.00,0.16,0.00,0.00,0.00,0.16,0.16,0.16,0.16,949,949,951,951
9370,0,0.02,-0.00,-0.00,0.16,0.00,0.00,0.00,0.16,0.16,0.16,0.16,949,949,951,951
9378,0,0.02,-0.00,-0.00,0.16,0.00,0.00,0.00,0.16,0.16,0.16,0.16,949,949,951,951
9385,0,0.02,-0.00,-0.00,0.16,0.00,0.00,0.00,0.16,0.16,0.16,0.16,949,949,951,951
9396,0,0.02,-0.00,-0.00,0.16,0.00,0.00,0.00,0.16,0.16,0.16,0.16,949,949,951,951
9403,0,0.02,-0.00,-0.00,0.16,0.00,0.00,0.00,0.16,0.16,0.16,0.16,949,949,951,951
9409,0,0.03,-0.00,-0.00,0.16,0.00,0.00,0.00,0.16,0.16,0.16,0.16,946,946,951,951
9416,0,0.03,-0.00,-0.00,0.16,0.00,0.00,0.00,0.16,0.16,0.16,0.16,948,948,950,950
9423,0,0.03,-0.00,-0.00,0.16,0.00,0.00,0.00,0.16,0.16,0.16,0.16,948,948,950,950
9429,0,0.03,-0.00,-0.00,0.16,0.00,0.00,0.00,0.16,0.16,0.16,0.16,948,948,950,950
9437,0,0.03,-0.00,-0.00,0.16,0.00,0.00,0.00,0.16,0.16,0.16,0.16,948,948,950,950
9443,0,0.03,-0.00,0.00,0.16,0.00,0.00,0.00,0.16,0.16,0.16,0.16,949,949,951,951
9449,0,0.03,-0.00,0.00,0.16,0.00,0.00,0.00,0.16,0.16,0.16,0.16,947,947,952,952
9455,0,0.03,-0.00,0.00,0.16,0.00,0.00,0.00,0.16,0.16,0.16,0.16,948,948,950,950
9462,0,0.03,-0.00,0.00,0.16,0.00,0.00,0.00,0.16,0.16,0.16,0.16,948,948,950,950
9468,0,0.03,-0.00,0.00,0.16,0.00,0.00,0.00,0.16,0.16,0.16,0.16,948,948,950,950
9476,0,0.03,-0.00,0.00,0.16,0.00,0.00,0.00,0.16,0.16,0.16,0.16,947,947,951,951
9482,0,0.03,-0.00,0.00,0.16,0.00,0.00,0.00,0.16,0.16,0.16,0.16,948,948,950,950
9489,0,0.03,-0.00,0.00,0.16,0.00,0.00,0.00,0.16,0.16,0.16,0.16,948,948,950,950
9495,0,0.03,-0.00,0.00,0.16,0.00,0.00,0.00,0.16,0.16,0.16,0.16,948,948,950,950
9501,0,0.03,-0.00,0.00,0.16,0.00,0.00,0.00,0.16,0.16,0.16,0.16,948,948,950,950
9508,0,0.03,-0.00,0.00,0.16,0.00,0.00,0.00,0.16,0.16,0.16,0.16,948,948,950,950
9515,0,0.03,-0.00,0.00,0.16,0.00,0.00,0.00,0.16,0.16,0.16,0.16,946,946,951,951
9521,0,0.03,-0.00,0.00,0.16,0.00,0.00,0.00,0.16,0.16,0.16,0.16,948,948,950,950
9528,0,0.03,-0.00,0.00,0.16,0.00,0.00,0.00,0.16,0.16,0.16,0.16,948,948,950,950
9535,0,0.03,-0.00,0.00,0.16,0.00,0.00,0.00,0.16,0.16,0.16,0.16,948,948,950,950
9542,0,0.03,-0.00,0.00,0.16,0.00,0.00,0.00,0.16,0.16,0.16,0.16,948,948,950,950
9548,0,0.03,-0.00,0.00,0.16,0.00,0.00,0.00,0.16,0.16,0.16,0.16,948,948,950,950
9556,0,0.03,-0.00,0.00,0.16,0.00,0.00,0.00,0.16,0.16,0.16,0.16,948,948,950,950
9562,0,0.03,-0.00,0.00,0.16,0.00,0.00,0.00,0.16,0.16,0.16,0.16,948,948,950,950
9569,0,0.03,-0.00,0.00,0.16,0.00,0.00,0.00,0.16,0.16,0.16,0.16,948,948,950,950
9576,0,0.03,-0.00,0.00,0.16,0.00,0.00,0.00,0.16,0.16,0.16,0.16,948,948,950,950
9583,0,0.03,-0.00,0.00,0.16,0.00,0.00,0.00,0.16,0.16,0.16,0.16,948,948,950,950
9589,0,0.03,-0.00,0.00,0.16,0.00,0.00,0.00,0.16,0.16,0.16,0.16,948,948,950,950
9595,0,0.03,-0.00,0.00,0.16,0.00,0.00,0.00,0.16,0.16,0.16,0.16,948,948,950,950
9608,0,0.03,-0.00,0.00,0.16,0.00,0.00,0.00,0.16,0.16,0.16,0.16,948,948,950,950
9616,0,0.03,-0.00,0.00,0.16,0.00,0.00,0.00,0.16,0.16,0.16,0.16,948,948,950,950
9622,0,0.03,-0.00,0.00,0.16,0.00,0.00,0.00,0.16,0.16,0.16,0.16,948,948,950,950
9629,0,0.03,-0.00,0.00,0.16,0.00,0.00,0.00,0.16,0.16,0.16,0.16,948,948,950,950
9636,0,0.03,-0.00,0.00,0.16,0.00,0.00,0.00,0.16,0.16,0.16,0.16,948,948,950,950
9642,0,0.03,-0.00,0.00,0.16,0.00,0.00,0.00,0.16,0.16,0.16,0.16,948,948,950,950
9649,0,0.03,-0.00,0.00,0.16,0.00,0.00,0.00,0.16,0.16,0.16,0.16,948,948,950,950
9656,0,0.03,-0.00,0.00,0.16,0.00,0.00,0.00,0.16,0.16,0.16,0.16,948,948,950,950
9662,0,0.03,-0.00,0.00,0.16,0.00,0.00,0.00,0.16,0.16,0.16,0.16,948,948,950,950
9669,0,0.03,-0.00,0.00,0.16,0.00,0.00,0.00,0.16,0.16,0.16,0.16,948,948,950,950
9676,0,0.03,-0.00,0.00,0.16,0.00,0.00,0.00,0.16,0.16,0.16,0.16,948,948,950,950
9683,0,0.03,-0.00,0.00,0.16,0.00,0.00,0.00,0.16,0.16,0.16,0.16,948,948,950,950
9689,0,0.03,-0.00,0.00,0.16,0.00,0.00,0.00,0.16,0.16,0.16,0.16,948,948,950,950
9699,0,0.03,-0.00,0.00,0.16,0.00,0.00,0.00,0.16,0.16,0.16,0.16,948,948,950,950
9706,0,0.03,-0.00,0.00,0.16,0.00,0.00,0.00,0.16,0.16,0.16,0.16,948,948,950,950
9712,0,0.03,-0.00,0.00,0.16,0.00,0.00,0.00,0.16,0.16,0.16,0.16,948,948,950,950
9719,0,0.03,-0.00,0.00,0.16,0.00,0.00,0.00,0.16,0.16,0.16,0.16,948,948,950,950
9726,0,0.03,-0.00,0.00,0.16,0.00,0.00,0.00,0.16,0.16,0.16,0.16,948,948,950,950
9732,0,0.03,-0.00,0.00,0.16,0.00,0.00,0.00,0.16,0.16,0.16,0.16,948,948,950,950
9739,0,0.03,-0.00,0.00,0.16,0.00,0.00,0.00,0.16,0.16,0.16,0.16,948,948,950,950
9745,0,0.03,-0.00,0.00,0.16,0.00,0.00,0.00,0.16,0.16,0.16,0.16,948,948,950,950
9751,0,0.03,-0.00,0.00,0.16,0.00,0.00,0.00,0.16,0.16,0.16,0.16,946,946,952,952
9759,0,0.03,-0.00,0.00,0.16,0.00,0.00,0.00,0.16,0.16,0.16,0.16,948,948,950,950
9766,0,0.03,-0.00,0.00,0.16,0.00,0.00,0.00,0.16,0.16,0.16,0.16,948,948,950,950
9772,0,0.03,-0.00,0.00,0.16,0.00,0.00,0.00,0.16,0.16,0.16,0.16,948,948,950,950
9779,0,0.03,-0.00,0.00,0.16,0.00,0.00,0.00,0.16,0.16,0.16,0.16,948,948,950,950
9786,0,0.03,-0.00,0.00,0.16,0.00,0.00,0.00,0.16,0.16,0.16,0.16,948,948,950,950
9792,0,0.03,-0.00,0.00,0.16,0.00,0.00,0.00,0.16,0.16,0.16,0.16,948,948,950,950
9799,0,0.03,-0.00,0.00,0.16,0.00,0.00,0.00,0.16,0.16,0.16,0.16,948,948,950,950
9806,0,0.03,-0.00,0.00,0.16,0.00,0.00,0.00,0.16,0.16,0.16,0.16,948,948,950,950
9819,0,0.03,-0.00,0.00,0.16,0.00,0.00,0.00,0.16,0.16,0.16,0.16,948,948,950,950
9826,0,0.03,-0.00,0.00,0.16,0.00,0.00,0.00,0.16,0.16,0.16,0.16,948,948,950,950
9833,0,0.03,-0.00,0.00,0.16,-0.00,0.00,0.00,0.16,0.16,0.16,0.16,949,949,949,949
9840,0,0.03,-0.00,0.00,0.16,0.00,0.00,0.00,0.16,0.16,0.16,0.16,948,948,950,950
9846,0,0.03,-0.00,0.00,0.16,0.00,0.00,0.00,0.16,0.16,0.16,0.16,948,948,950,950
9852,0,0.03,-0.00,0.00,0.16,0.00,0.00,0.00,0.16,0.16,0.16,0.16,948,948,950,950
9859,0,0.03,-0.00,0.00,0.16,0.00,0.00,0.00,0.16,0.16,0.16,0.16,948,948,950,950
9866,0,0.03,-0.00,0.00,0.16,0.00,0.00,0.00,0.16,0.16,0.16,0.16,948,948,950,950
9873,0,0.03,-0.00,0.00,0.16,0.00,0.00,0.00,0.16,0.16,0.16,0.16,948,948,950,950
9880,0,0.03,-0.00,0.00,0.16,0.00,0.00,0.00,0.16,0.16,0.16,0.16,948,948,950,950
9887,0,0.03,-0.00,0.00,0.16,0.00,0.00,0.00,0.16,0.16,0.16,0.16,946,946,951,951
9893,0,0.03,-0.00,0.00,0.16,0.00,0.00,0.00,0.16,0.16,0.16,0.16,948,948,950,950
9900,0,0.03,-0.00,0.00,0.16,0.00,0.00,0.00,0.16,0.16,0.16,0.16,948,948,950,950
9907,0,0.03,-0.00,0.00,0.16,0.00,0.00,0.00,0.16,0.16,0.16,0.16,948,948,950,950
9913,0,0.03,-0.00,0.00,0.16,0.00,0.00,0.00,0.16,0.16,0.16,0.16,948,948,950,950
9920,0,0.03,-0.00,0.00,0.16,0.00,0.00,0.00,0.16,0.16,0.16,0.16,948,948,951,951
9927,0,0.03,-0.00,0.00,0.16,0.00,0.00,0.00,0.16,0.16,0.16,0.16,948,948,951,951
9934,0,0.03,-0.00,0.00,0.16,0.00,0.00,0.00,0.16,0.16,0.16,0.16,948,948,951,951
9940,0,0.03,-0.00,0.00,0.16,0.00,0.00,0.00,0.16,0.16,0.16,0.16,948,948,951,951
9948,0,0.03,-0.00,0.00,0.16,0.00,0.00,0.00,0.16,0.16,0.16,0.16,948,948,951,951
9955,0,0.03,-0.00,0.00,0.16,0.00,0.00,0.00,0.16,0.16,0.16,0.16,948,948,951,951
9961,0,0.03,-0.01,0.00,0.16,-0.00,0.00,0.00,0.16,0.16,0.16,0.16,950,950,949,949
9968,0,0.03,-0.01,0.00,0.16,0.00,0.00,0.00,0.16,0.16,0.16,0.16,949,949,951,951
9975,0,0.03,-0.01,0.00,0.16,0.00,0.00,0.00,0.16,0.16,0.16,0.16,948,948,950,950
9982,0,0.03,-0.01,0.00,0.16,0.00,0.00,0.00,0.16,0.16,0.16,0.16,949,949,951,951
9989,0,0.03,-0.01,0.00,0.16,0.00,0.00,0.00,0.16,0.16,0.16,0.16,949,949,951,951
9995,0,0.03,-0.01,0.00,0.16,0.00,0.00,0.00,0.16,0.16,0.16,0.16,949,949,951,951
10001,0,0.03,-0.01,0.00,0.16,0.00,0.00,0.00,0.16,0.16,0.16,0.16,949,949,951,951
10008,0,0.03,-0.01,0.00,0.16,0.00,0.00,0.00,0.16,0.16,0.16,0.16,949,949,951,951
10015,0,0.03,-0.01,0.00,0.16,0.00,0.00,0.00,0.16,0.16,0.16,0.16,949,949,951,951
10021,0,0.03,-0.01,0.00,0.16,0.00,0.00,0.00,0.16,0.16,0.16,0.16,949,949,951,951
10032,0,0.03,-0.01,0.00,0.16,0.00,0.00,0.00,0.16,0.16,0.16,0.16,949,949,951,951
10040,0,0.03,-0.01,0.00,0.16,0.00,0.00,0.00,0.16,0.16,0.16,0.16,949,949,951,951
10046,0,0.03,-0.01,0.00,0.16,0.00,0.00,0.00,0.16,0.16,0.16,0.16,949,949,951,951
10052,0,0.03,-0.01,0.00,0.16,0.00,0.00,0.00,0.16,0.16,0.16,0.16,949,949,951,951
10059,0,0.03,-0.01,0.00,0.16,0.00,0.00,0.00,0.16,0.16,0.16,0.16,949,949,951,951
10067,0,0.03,-0.01,0.00,0.16,0.00,0.00,0.00,0.16,0.16,0.16,0.16,949,949,951,951
10072,0,0.03,-0.01,0.00,0.16,0.00,0.00,0.00,0.16,0.16,0.16,0.16,949,949,951,951
10079,0,0.03,-0.01,0.00,0.16,0.00,0.00,0.00,0.16,0.16,0.16,0.16,949,949,951,951
10086,0,0.03,-0.01,0.00,0.16,0.00,0.00,0.00,0.16,0.16,0.16,0.16,949,949,951,951
10092,0,0.03,-0.01,0.00,0.16,0.00,0.00,0.00,0.16,0.16,0.16,0.16,947,947,952,952
10100,0,0.03,-0.01,0.00,0.16,0.00,0.00,0.00,0.16,0.16,0.16,0.16,948,948,951,951
10107,0,0.03,-0.01,0.00,0.16,0.00,0.00,0.00,0.16,0.16,0.16,0.16,948,948,951,951
10113,0,0.03,-0.01,0.00,0.16,0.00,0.00,0.00,0.16,0.16,0.16,0.16,949,949,952,952
10120,0,0.03,-0.01,0.00,0.16,0.00,0.00,0.00,0.16,0.16,0.16,0.16,949,949,952,952
10127,0,0.03,-0.01,0.00,0.17,-0.00,0.00,0.00,0.17,0.17,0.17,0.17,955,955,955,955
10134,0,0.03,-0.01,0.00,0.17,0.00,0.00,0.00,0.16,0.16,0.17,0.17,953,953,956,956
10140,0,0.03,-0.01,0.00,0.17,0.00,0.00,0.00,0.17,0.17,0.17,0.17,954,954,957,957
10148,0,0.03,-0.01,0.00,0.17,0.00,0.00,0.00,0.17,0.17,0.17,0.17,954,954,957,957
10155,0,0.03,-0.01,0.00,0.17,0.00,0.00,0.00,0.17,0.17,0.17,0.17,954,954,957,957
10161,0,0.03,-0.01,0.00,0.17,0.00,0.00,0.00,0.17,0.17,0.17,0.17,954,954,957,957
10168,0,0.03,-0.01,0.00,0.17,0.00,0.00,0.00,0.17,0.17,0.17,0.17,954,954,957,957
10176,0,0.03,-0.01,0.00,0.17,0.00,0.00,0.00,0.17,0.17,0.17,0.17,954,954,957,957
10182,0,0.03,-0.01,0.00,0.17,0.00,0.00,0.00,0.17,0.17,0.17,0.17,956,956,958,958
10189,0,0.03,-0.01,0.00,0.17,0.00,0.00,0.00,0.17,0.17,0.17,0.17,958,958,960,960
10195,0,0.03,-0.01,0.00,0.17,0.00,0.00,0.00,0.17,0.17,0.18,0.18,960,960,962,962
10202,0,0.03,-0.01,0.00,0.18,0.00,0.00,0.00,0.18,0.18,0.18,0.18,962,962,965,965
10209,0,0.03,-0.01,0.00,0.18,0.00,0.00,0.00,0.18,0.18,0.18,0.18,962,962,965,965
10216,0,0.03,-0.01,0.00,0.18,0.00,0.00,0.00,0.18,0.18,0.18,0.18,962,962,965,965
10222,0,0.03,-0.01,0.00,0.18,0.00,0.00,0.00,0.18,0.18,0.18,0.18,962,962,965,965
10229,0,0.03,-0.01,0.00,0.18,0.00,0.00,0.00,0.18,0.18,0.18,0.18,962,962,965,965
10237,0,0.03,-0.01,0.00,0.18,0.00,0.00,0.00,0.18,0.18,0.18,0.18,967,967,969,969
10249,0,0.03,-0.01,0.00,0.18,0.00,0.00,0.00,0.18,0.18,0.18,0.18,967,967,969,969
10257,0,0.03,-0.01,0.00,0.18,0.00,0.00,0.00,0.18,0.18,0.18,0.18,967,967,970,970
10263,0,0.03,-0.01,0.00,0.18,0.00,0.00,0.00,0.18,0.18,0.18,0.18,967,967,970,970
10270,0,0.03,-0.01,0.00,0.18,0.00,0.00,0.00,0.18,0.18,0.18,0.18,967,967,970,970
10277,0,0.03,-0.01,0.00,0.18,0.00,0.00,0.00,0.18,0.18,0.18,0.18,967,967,970,970
10284,0,0.03,-0.01,0.00,0.18,0.00,0.00,0.00,0.18,0.18,0.19,0.19,966,966,971,971
10291,0,0.03,-0.01,0.00,0.18,0.00,0.00,0.00,0.18,0.18,0.18,0.18,967,967,970,970
10297,0,0.03,-0.01,0.00,0.18,0.00,0.00,0.00,0.18,0.18,0.18,0.18,967,967,969,969
10303,0,0.03,-0.01,0.00,0.18,0.00,0.00,0.00,0.18,0.18,0.18,0.18,967,967,970,970
10310,0,0.03,-0.01,0.00,0.18,0.00,0.00,0.00,0.18,0.18,0.18,0.18,967,967,970,970
10318,0,0.03,-0.01,0.00,0.18,0.00,0.00,0.00,0.18,0.18,0.18,0.18,967,967,970,970
10324,0,0.03,-0.01,0.00,0.18,0.00,0.00,0.00,0.18,0.18,0.18,0.18,967,967,970,970
10331,0,0.03,-0.01,0.00,0.18,0.00,0.00,0.00,0.18,0.18,0.18,0.18,967,967,970,970
10338,0,0.03,-0.01,0.00,0.18,0.00,0.00,0.00,0.18,0.18,0.18,0.18,967,967,970,970
10344,0,0.03,-0.01,0.00,0.18,0.00,0.00,0.00,0.18,0.18,0.18,0.18,967,967,970,970
10351,0,0.03,-0.01,0.00,0.18,0.00,0.00,0.00,0.18,0.18,0.18,0.18,967,967,970,970
10357,0,0.03,-0.01,0.00,0.18,-0.00,0.00,0.00,0.18,0.18,0.18,0.18,969,969,968,968
10363,0,0.03,-0.01,0.00,0.18,0.00,0.00,0.00,0.18,0.18,0.18,0.18,967,967,970,970
10370,0,0.03,-0.01,0.00,0.18,0.00,0.00,0.00,0.18,0.18,0.18,0.18,967,967,970,970
10377,0,0.03,-0.01,0.00,0.18,0.00,0.00,0.00,0.18,0.18,0.18,0.18,967,967,970,970
10383,0,0.03,-0.01,0.00,0.18,0.00,0.00,0.00,0.18,0.18,0.18,0.18,967,967,970,970
10391,0,0.03,-0.01,0.00,0.18,0.00,0.00,0.00,0.18,0.18,0.18,0.18,967,967,970,970
10397,0,0.03,-0.01,0.00,0.18,0.00,0.00,0.00,0.18,0.18,0.18,0.18,967,967,970,970
10403,0,0.03,-0.01,0.00,0.18,0.00,0.00,0.00,0.18,0.18,0.18,0.18,967,967,970,970
10410,0,0.03,-0.01,0.00,0.18,0.00,0.00,0.00,0.18,0.18,0.18,0.18,967,967,970,970
10417,0,0.03,-0.01,0.00,0.18,0.00,0.00,0.00,0.18,0.18,0.18,0.18,967,967,970,970
10423,0,0.03,-0.01,0.00,0.18,0.00,0.00,0.00,0.18,0.18,0.18,0.18,967,967,970,970
10430,0,0.03,-0.01,0.00,0.18,0.00,0.00,0.00,0.18,0.18,0.18,0.18,967,967,970,970
10437,0,0.03,-0.01,0.00,0.18,0.00,0.00,0.00,0.18,0.18,0.18,0.18,967,967,970,970
10443,0,0.03,-0.01,0.00,0.18,0.00,0.00,0.00,0.18,0.18,0.18,0.18,967,967,970,970
10449,0,0.03,-0.01,0.00,0.18,0.00,0.00,0.00,0.18,0.18,0.18,0.18,967,967,970,970
10461,0,0.03,-0.01,0.00,0.18,0.00,0.00,0.00,0.18,0.18,0.19,0.19,967,967,971,971
10469,0,0.03,-0.01,0.00,0.18,0.00,0.00,0.00,0.18,0.18,0.18,0.18,967,967,970,970
10476,0,0.03,-0.01,0.00,0.18,0.00,0.00,0.00,0.18,0.18,0.18,0.18,967,967,970,970
10482,0,0.03,-0.01,0.00,0.18,0.00,0.00,0.00,0.18,0.18,0.18,0.18,967,967,970,970
10489,0,0.03,-0.01,0.00,0.18,0.00,0.00,0.00,0.18,0.18,0.18,0.18,967,967,970,970
10495,0,0.03,-0.01,0.00,0.18,0.00,0.00,0.00,0.18,0.18,0.18,0.18,967,967,970,970
10502,0,0.03,-0.01,0.00,0.18,0.00,0.00,0.00,0.18,0.18,0.19,0.19,966,966,971,971
10508,0,0.03,-0.01,0.00,0.18,0.00,0.00,0.00,0.18,0.18,0.18,0.18,967,967,970,970
10514,0,0.03,-0.01,0.00,0.18,-0.00,0.00,0.00,0.18,0.18,0.18,0.18,969,969,968,968
10521,0,0.03,-0.01,0.00,0.18,0.00,0.00,0.00,0.18,0.18,0.18,0.18,967,967,970,970
10528,0,0.03,-0.01,0.00,0.18,0.00,0.00,0.00,0.18,0.18,0.18,0.18,967,967,970,970
10535,0,0.03,-0.01,0.00,0.18,-0.00,0.00,0.00,0.18,0.18,0.18,0.18,969,969,969,969
10542,0,0.03,-0.01,0.00,0.18,0.00,0.00,0.00,0.18,0.18,0.19,0.19,968,968,971,971
10548,0,0.03,-0.01,0.00,0.19,0.00,0.00,0.00,0.18,0.18,0.19,0.19,969,969,971,971
10554,0,0.03,-0.01,0.00,0.19,0.00,0.00,0.00,0.18,0.18,0.19,0.19,969,969,971,971
10561,0,0.03,-0.01,0.00,0.19,0.00,0.00,0.00,0.18,0.18,0.19,0.19,969,969,971,971
10568,0,0.03,-0.01,0.00,0.19,0.00,0.00,0.00,0.18,0.18,0.19,0.19,969,969,971,971
10575,0,0.03,-0.01,0.00,0.19,-0.00,0.00,0.00,0.19,0.19,0.19,0.19,972,972,972,972
10581,0,0.03,-0.01,0.00,0.19,0.00,0.00,0.00,0.19,0.19,0.19,0.19,971,971,973,973
10589,0,0.03,-0.01,0.00,0.19,0.00,0.00,0.00,0.18,0.18,0.19,0.19,969,969,974,974
10595,0,0.03,-0.01,0.00,0.19,0.00,0.00,0.00,0.18,0.18,0.19,0.19,970,970,975,975
10601,0,0.03,-0.01,0.00,0.19,0.00,0.00,0.00,0.19,0.19,0.19,0.19,971,971,974,974
10607,0,0.03,-0.01,0.00,0.19,0.00,0.00,0.00,0.19,0.19,0.19,0.19,971,971,974,974
10614,0,0.03,-0.01,0.00,0.19,0.00,0.00,0.00,0.18,0.18,0.19,0.19,970,970,975,975
10621,0,0.03,-0.01,0.00,0.19,0.00,0.00,0.00,0.19,0.19,0.19,0.19,971,971,974,974
10628,0,0.03,-0.01,0.00,0.19,0.00,0.00,0.00,0.19,0.19,0.19,0.19,971,971,974,974
10634,0,0.03,-0.01,0.00,0.19,0.00,0.00,0.00,0.19,0.19,0.19,0.19,972,972,975,975
10642,0,0.03,-0.01,0.00,0.19,0.00,0.00,0.00,0.19,0.19,0.19,0.19,972,972,975,975
10648,0,0.03,-0.01,0.00,0.19,-0.00,0.00,0.00,0.19,0.19,0.19,0.19,974,974,973,973
10654,0,0.03,-0.01,0.00,0.19,0.00,0.00,0.00,0.19,0.19,0.19,0.19,972,972,975,975
10661,0,0.03,-0.01,0.00,0.19,0.00,0.00,0.00,0.19,0.19,0.19,0.19,972,972,975,975
10673,0,0.03,-0.01,0.00,0.19,0.00,0.00,0.00,0.19,0.19,0.19,0.19,975,975,976,976
10681,0,0.03,-0.01,0.00,0.19,0.00,0.00,0.00,0.19,0.19,0.19,0.19,975,975,977,977
10688,0,0.03,-0.01,0.00,0.19,0.00,0.00,0.00,0.19,0.19,0.20,0.20,977,977,980,980
10694,0,0.03,-0.01,0.00,0.20,0.00,0.00,0.00,0.20,0.20,0.20,0.20,979,979,981,981
10701,0,0.03,-0.01,0.00,0.20,0.00,0.00,0.00,0.20,0.20,0.20,0.20,979,979,981,981
10707,0,0.03,-0.01,0.00,0.20,0.00,0.00,0.00,0.19,0.19,0.20,0.20,977,977,983,983
10712,0,0.03,-0.01,0.00,0.20,0.00,0.00,0.00,0.20,0.20,0.20,0.20,979,979,981,981
10720,0,0.03,-0.01,0.00,0.20,0.00,0.00,0.00,0.20,0.20,0.20,0.20,981,981,984,984
10726,0,0.03,-0.01,0.00,0.20,0.00,0.00,0.00,0.20,0.20,0.20,0.20,984,984,986,986
10732,0,0.03,-0.01,0.00,0.20,0.00,0.00,0.00,0.20,0.20,0.20,0.20,984,984,986,986
10739,0,0.03,-0.01,0.00,0.20,0.00,0.00,0.00,0.20,0.20,0.20,0.20,984,984,986,986
10746,0,0.03,-0.01,0.00,0.20,0.00,0.00,0.00,0.20,0.20,0.20,0.20,984,984,986,986
10752,0,0.03,-0.01,0.00,0.20,0.00,0.00,0.00,0.20,0.20,0.20,0.20,984,984,986,986
10759,0,0.03,-0.01,0.00,0.21,0.00,0.00,0.00,0.21,0.21,0.21,0.21,988,988,990,990
10765,0,0.03,-0.01,0.00,0.21,0.00,0.00,0.00,0.21,0.21,0.21,0.21,989,989,992,992
10772,0,0.03,-0.01,0.00,0.21,0.00,0.00,0.00,0.21,0.21,0.21,0.21,989,989,992,992
10779,0,0.03,-0.01,0.00,0.21,0.00,0.00,0.00,0.21,0.21,0.21,0.21,988,988,993,993
10784,0,0.03,-0.01,0.00,0.21,0.00,0.00,0.00,0.21,0.21,0.21,0.21,989,989,992,992
10792,0,0.03,-0.01,0.00,0.21,0.00,0.00,0.00,0.21,0.21,0.21,0.21,989,989,992,992
10798,0,0.03,-0.01,0.00,0.21,0.00,0.00,0.00,0.21,0.21,0.22,0.22,990,990,996,996
10804,0,0.03,-0.01,0.00,0.21,0.00,0.00,0.00,0.21,0.21,0.22,0.22,990,990,996,996
10811,0,0.03,-0.01,0.00,0.21,0.00,0.00,0.00,0.21,0.21,0.22,0.22,993,993,995,995
10818,0,0.03,-0.01,0.00,0.21,0.00,0.00,0.00,0.21,0.21,0.22,0.22,993,993,995,995
10824,0,0.03,-0.01,0.00,0.21,0.00,0.00,0.00,0.21,0.21,0.22,0.22,993,993,995,995
10832,0,0.03,-0.01,0.00,0.21,0.00,0.00,0.00,0.21,0.21,0.22,0.22,993,993,995,995
10839,0,0.03,-0.01,0.00,0.21,0.00,0.00,0.00,0.21,0.21,0.22,0.22,993,993,995,995
10845,0,0.03,-0.01,0.00,0.21,0.00,0.00,0.00,0.21,0.21,0.22,0.22,991,991,997,997
10852,0,0.03,-0.01,0.00,0.21,0.00,0.00,0.00,0.21,0.21,0.22,0.22,993,993,995,995
10858,0,0.03,-0.01,0.00,0.22,0.00,0.00,0.00,0.21,0.21,0.22,0.22,993,993,996,996
10864,0,0.03,-0.01,0.00,0.22,0.00,0.00,0.00,0.21,0.21,0.22,0.22,994,994,997,997
10871,0,0.03,-0.01,0.00,0.22,0.00,0.00,0.00,0.21,0.21,0.22,0.22,994,994,997,997
10881,0,0.03,-0.01,0.00,0.22,0.00,0.00,0.00,0.21,0.21,0.22,0.22,994,994,997,997
10888,0,0.04,-0.01,0.00,0.22,0.00,0.00,0.00,0.21,0.21,0.22,0.22,994,994,999,999
10894,0,0.04,-0.01,0.00,0.22,0.00,0.00,0.00,0.21,0.21,0.22,0.22,993,993,999,999
10901,0,0.04,-0.01,0.00,0.22,0.00,0.00,0.00,0.22,0.22,0.22,0.22,995,995,998,998
10907,0,0.04,-0.01,0.00,0.22,0.00,0.00,0.00,0.22,0.22,0.22,0.22,995,995,998,998
10913,0,0.04,-0.01,0.00,0.22,0.00,0.00,0.00,0.21,0.21,0.22,0.22,993,993,999,999
10920,0,0.04,-0.01,0.00,0.22,0.00,0.00,0.00,0.22,0.22,0.23,0.23,1001,1001,1005,1005
10928,0,0.04,-0.01,0.00,0.22,0.00,0.00,0.00,0.22,0.22,0.23,0.23,999,999,1007,1007
10934,0,0.04,-0.01,0.00,0.22,0.00,0.00,0.00,0.22,0.22,0.23,0.23,1000,1000,1006,1006
10941,0,0.04,-0.01,0.00,0.22,0.00,0.00,0.00,0.22,0.22,0.23,0.23,1001,1001,1005,1005
10947,0,0.04,-0.01,0.00,0.22,0.00,0.00,0.00,0.22,0.22,0.23,0.23,1000,1000,1006,1006
10953,0,0.04,-0.01,0.00,0.22,0.00,0.00,0.00,0.22,0.22,0.23,0.23,1000,1000,1006,1006
10960,0,0.04,-0.01,0.00,0.22,0.00,0.00,0.00,0.22,0.22,0.23,0.23,1001,1001,1005,1005
10966,0,0.04,-0.01,0.00,0.23,0.00,0.00,0.00,0.22,0.22,0.23,0.23,1001,1001,1007,1007
10972,0,0.04,-0.01,0.00,0.23,0.00,0.00,0.00,0.22,0.22,0.23,0.23,1002,1002,1006,1006
10980,0,0.05,-0.01,0.00,0.23,0.00,0.00,0.00,0.22,0.22,0.23,0.23,1001,1001,1007,1007
10987,0,0.05,-0.01,0.00,0.23,0.00,0.00,0.00,0.22,0.22,0.23,0.23,999,999,1008,1008
10993,0,0.05,-0.01,-0.00,0.23,0.00,0.00,0.00,0.22,0.22,0.23,0.23,1002,1002,1006,1006
10999,0,0.05,-0.01,-0.00,0.23,0.00,0.00,0.00,0.22,0.22,0.23,0.23,1002,1002,1006,1006
11006,0,0.05,-0.01,-0.00,0.23,0.00,0.00,0.00,0.22,0.22,0.23,0.23,1002,1002,1006,1006
11012,0,0.05,-0.01,-0.00,0.23,0.00,0.00,0.00,0.22,0.22,0.23,0.23,1002,1002,1006,1006
11020,0,0.05,-0.01,-0.00,0.23,0.00,0.00,0.00,0.22,0.22,0.23,0.23,1002,1002,1006,1006
11026,0,0.05,-0.01,-0.00,0.23,0.00,0.00,0.00,0.22,0.22,0.23,0.23,1000,1000,1007,1007
11033,0,0.05,-0.01,-0.00,0.23,0.00,0.00,0.00,0.22,0.22,0.23,0.23,1002,1002,1006,1006
11040,0,0.05,-0.02,-0.00,0.23,0.00,0.00,0.00,0.22,0.22,0.23,0.23,1000,1000,1007,1007
11046,0,0.05,-0.02,-0.00,0.23,0.00,0.00,0.00,0.22,0.22,0.23,0.23,1000,1000,1007,1007
11052,0,0.05,-0.02,-0.00,0.23,0.00,0.00,0.00,0.22,0.22,0.23,0.23,1002,1002,1006,1006
11058,0,0.05,-0.02,-0.00,0.23,0.00,0.00,0.00,0.22,0.22,0.23,0.23,1002,1002,1006,1006
11065,0,0.05,-0.02,-0.00,0.23,0.00,0.00,0.00,0.22,0.22,0.23,0.23,1003,1003,1007,1007
11073,0,0.05,-0.02,-0.00,0.23,0.00,0.00,0.00,0.22,0.22,0.23,0.23,1003,1003,1007,1007
11084,0,0.05,-0.02,-0.00,0.23,0.00,0.00,0.00,0.22,0.22,0.23,0.23,1002,1002,1006,1006
11092,0,0.05,-0.02,-0.00,0.23,0.00,0.00,0.00,0.22,0.22,0.23,0.23,1002,1002,1006,1006
11098,0,0.05,-0.02,-0.00,0.23,0.00,0.00,0.00,0.22,0.22,0.23,0.23,1002,1002,1006,1006
11104,0,0.05,-0.02,-0.00,0.23,0.00,0.00,0.00,0.23,0.23,0.23,0.23,1004,1004,1005,1005
11110,0,0.05,-0.02,-0.00,0.23,0.00,0.00,0.00,0.22,0.22,0.23,0.23,1003,1003,1007,1007
11116,0,0.05,-0.02,-0.00,0.23,0.00,0.00,0.00,0.23,0.23,0.23,0.23,1004,1004,1005,1005
11123,0,0.05,-0.02,-0.00,0.23,0.00,0.00,0.00,0.22,0.22,0.23,0.23,1003,1003,1007,1007
11130,0,0.05,-0.03,-0.00,0.23,0.00,0.00,0.00,0.22,0.22,0.23,0.23,1003,1003,1007,1007
11136,0,0.05,-0.03,-0.00,0.23,0.00,0.00,0.00,0.23,0.23,0.23,0.23,1003,1003,1004,1004
11143,0,0.05,-0.03,-0.00,0.23,0.00,0.00,0.00,0.22,0.22,0.23,0.23,1002,1002,1006,1006
11149,0,0.05,-0.03,-0.00,0.23,0.00,0.00,0.00,0.23,0.23,0.23,0.23,1004,1004,1005,1005
11156,0,0.05,-0.03,-0.00,0.23,0.00,0.00,0.00,0.22,0.22,0.23,0.23,1003,1003,1007,1007
11163,0,0.05,-0.03,-0.00,0.23,0.00,0.00,0.00,0.22,0.22,0.23,0.23,1003,1003,1007,1007
11170,0,0.05,-0.03,-0.00,0.23,0.00,0.00,0.00,0.22,0.22,0.23,0.23,1003,1003,1007,1007
11176,0,0.05,-0.03,-0.00,0.23,0.00,0.00,0.00,0.23,0.23,0.23,0.23,1004,1004,1005,1005
11183,0,0.05,-0.03,-0.00,0.23,0.00,0.00,0.00,0.22,0.22,0.23,0.23,1002,1002,1006,1006
11190,0,0.05,-0.04,-0.01,0.23,0.00,0.00,0.00,0.22,0.22,0.23,0.23,1002,1002,1006,1006
11197,0,0.05,-0.04,-0.01,0.23,0.00,0.00,0.00,0.22,0.22,0.23,0.23,1000,1000,1007,1007
11203,0,0.05,-0.04,-0.01,0.23,0.00,0.00,0.00,0.22,0.22,0.23,0.23,1002,1002,1006,1006
11209,0,0.05,-0.04,-0.01,0.23,0.00,0.00,0.00,0.22,0.22,0.23,0.23,1002,1002,1006,1006
11216,0,0.05,-0.04,-0.01,0.23,0.00,0.00,0.00,0.22,0.22,0.23,0.23,1000,1000,1007,1007
11223,0,0.05,-0.04,-0.01,0.23,0.00,0.00,0.00,0.22,0.22,0.23,0.23,1002,1002,1006,1006
11230,0,0.05,-0.04,-0.01,0.23,0.00,0.00,0.00,0.22,0.22,0.23,0.23,1001,1001,1007,1007
11236,0,0.05,-0.05,-0.01,0.23,0.00,0.00,0.00,0.22,0.22,0.23,0.23,1001,1001,1008,1008
11243,0,0.05,-0.05,-0.01,0.23,0.00,0.00,0.00,0.22,0.22,0.23,0.23,1003,1003,1007,1007
11250,0,0.05,-0.05,-0.01,0.23,0.00,0.00,0.00,0.22,0.22,0.23,0.23,1001,1001,1008,1008
11256,0,0.05,-0.05,-0.01,0.23,0.00,0.00,0.00,0.22,0.22,0.23,0.23,1003,1003,1007,1007
11262,0,0.05,-0.05,-0.01,0.23,0.00,0.00,0.00,0.22,0.22,0.23,0.23,1003,1003,1007,1007
11270,0,0.05,-0.05,-0.01,0.23,0.00,0.00,0.00,0.22,0.22,0.23,0.23,1001,1001,1008,1008
11276,0,0.05,-0.05,-0.01,0.23,0.00,0.00,0.00,0.22,0.22,0.23,0.23,1000,1000,1007,1007
11283,0,0.05,-0.05,-0.01,0.23,0.00,0.00,0.00,0.22,0.22,0.23,0.23,1002,1002,1006,1006
11295,0,0.05,-0.06,-0.01,0.23,0.00,0.00,0.00,0.22,0.22,0.23,0.23,1001,1001,1007,1007
11301,0,0.05,-0.06,-0.01,0.23,0.00,0.00,0.00,0.22,0.22,0.23,0.23,1002,1002,1006,1006
11308,0,0.05,-0.06,-0.01,0.23,0.00,0.00,0.00,0.22,0.22,0.23,0.23,1002,1002,1006,1006
11314,0,0.05,-0.06,-0.00,0.23,0.00,0.00,0.00,0.22,0.22,0.23,0.23,1002,1002,1006,1006
11321,0,0.05,-0.06,-0.00,0.23,0.00,0.00,0.00,0.22,0.22,0.23,0.23,1002,1002,1006,1006
11329,0,0.05,-0.06,-0.00,0.23,0.00,0.00,0.00,0.22,0.22,0.23,0.23,1002,1002,1006,1006
11335,0,0.05,-0.07,-0.00,0.23,0.00,0.00,0.00,0.22,0.22,0.23,0.23,1002,1002,1006,1006
11342,0,0.05,-0.07,-0.00,0.23,0.00,0.00,0.00,0.22,0.22,0.23,0.23,1002,1002,1006,1006
11348,0,0.05,-0.07,-0.00,0.23,0.00,0.00,0.00,0.22,0.22,0.23,0.23,1002,1002,1006,1006
11355,0,0.06,-0.07,-0.00,0.23,0.00,0.00,0.00,0.22,0.22,0.23,0.23,1000,1000,1007,1007
11360,0,0.06,-0.07,-0.00,0.23,0.00,0.00,0.00,0.22,0.22,0.23,0.23,1002,1002,1006,1006
11367,0,0.06,-0.07,-0.00,0.23,0.00,0.00,0.00,0.22,0.22,0.23,0.23,1002,1002,1006,1006
11373,0,0.06,-0.07,-0.00,0.23,0.00,0.00,0.00,0.22,0.22,0.23,0.23,1002,1002,1006,1006
11380,0,0.06,-0.08,-0.00,0.23,0.00,0.00,0.00,0.22,0.22,0.23,0.23,1002,1002,1006,1006
11386,0,0.06,-0.08,-0.00,0.23,0.00,0.00,0.00,0.22,0.22,0.23,0.23,1002,1002,1006,1006
11393,0,0.06,-0.08,-0.00,0.23,0.00,0.00,0.00,0.22,0.22,0.23,0.23,1002,1002,1006,1006
11400,0,0.06,-0.08,-0.00,0.23,0.00,0.00,0.00,0.22,0.22,0.23,0.23,1002,1002,1006,1006
11406,0,0.06,-0.08,-0.00,0.23,0.00,0.00,0.00,0.22,0.22,0.23,0.23,1000,1000,1008,1008
11412,0,0.06,-0.08,-0.00,0.23,0.00,0.00,0.00,0.22,0.22,0.23,0.23,1001,1001,1006,1006
11419,0,0.06,-0.08,-0.00,0.23,0.00,0.00,0.00,0.22,0.22,0.23,0.23,1000,1000,1007,1007
11425,0,0.06,-0.09,-0.00,0.23,0.00,0.00,0.00,0.22,0.22,0.23,0.23,1000,1000,1008,1008
11432,0,0.06,-0.09,-0.00,0.23,0.00,0.00,0.00,0.22,0.22,0.23,0.23,1001,1001,1006,1006
11439,0,0.06,-0.09,0.00,0.23,0.00,0.00,0.00,0.22,0.22,0.23,0.23,1000,1000,1008,1008
11445,0,0.06,-0.09,0.00,0.23,0.00,0.00,0.00,0.22,0.22,0.23,0.23,1001,1001,1006,1006
11451,0,0.06,-0.09,0.00,0.23,0.00,0.00,0.00,0.22,0.22,0.23,0.23,1001,1001,1006,1006
11458,0,0.06,-0.09,0.00,0.23,0.00,0.00,0.00,0.22,0.22,0.23,0.23,1001,1001,1006,1006
11464,0,0.06,-0.09,0.00,0.23,0.00,0.00,0.00,0.22,0.22,0.23,0.23,1003,1003,1005,1005
11471,0,0.06,-0.09,0.00,0.23,0.00,0.00,0.00,0.22,0.22,0.23,0.23,1001,1001,1006,1006
11478,0,0.06,-0.09,0.00,0.23,0.00,0.00,0.00,0.22,0.22,0.23,0.23,1003,1003,1005,1005
11484,0,0.06,-0.09,0.01,0.23,0.00,0.00,0.00,0.22,0.22,0.23,0.23,1001,1001,1006,1006
11492,0,0.06,-0.09,0.01,0.23,0.00,0.00,0.00,0.22,0.22,0.23,0.23,1001,1001,1006,1006
11504,0,0.06,-0.09,0.02,0.23,0.00,0.00,0.00,0.23,0.23,0.23,0.23,1003,1003,1005,1005
11510,0,0.05,-0.09,0.02,0.23,-0.00,0.00,0.00,0.23,0.23,0.23,0.23,1004,1004,1003,1003
11517,0,0.05,-0.09,0.02,0.23,-0.00,0.00,0.00,0.23,0.23,0.23,0.23,1005,1005,1003,1003
11524,0,0.05,-0.09,0.02,0.23,0.00,0.00,0.00,0.22,0.22,0.23,0.23,1002,1002,1006,1006
11531,0,0.05,-0.09,0.03,0.23,-0.00,0.00,0.00,0.23,0.23,0.22,0.22,1006,1006,1002,1002
11537,0,0.05,-0.09,0.03,0.23,-0.00,0.00,0.00,0.23,0.23,0.22,0.22,1005,1005,1003,1003
11544,0,0.05,-0.09,0.03,0.23,0.00,0.00,0.00,0.22,0.22,0.23,0.23,1002,1002,1006,1006
11550,0,0.04,-0.09,0.03,0.23,-0.00,0.00,0.00,0.23,0.23,0.22,0.22,1005,1005,1003,1003
11557,0,0.04,-0.09,0.04,0.23,0.00,0.00,0.00,0.23,0.23,0.23,0.23,1003,1003,1004,1004
11564,0,0.04,-0.09,0.04,0.23,0.00,0.00,0.00,0.22,0.22,0.23,0.23,1002,1002,1006,1006
11571,0,0.04,-0.09,0.04,0.23,-0.00,0.00,0.00,0.23,0.23,0.22,0.22,1005,1005,1003,1003
11577,0,0.04,-0.09,0.05,0.23,0.00,0.00,0.00,0.22,0.22,0.23,0.23,1002,1002,1005,1005
11584,0,0.04,-0.09,0.05,0.23,0.00,0.00,0.00,0.22,0.22,0.23,0.23,1002,1002,1005,1005
11591,0,0.04,-0.09,0.05,0.23,0.00,0.00,0.00,0.22,0.22,0.23,0.23,1002,1002,1005,1005
11597,0,0.04,-0.09,0.06,0.23,0.00,0.00,0.00,0.22,0.22,0.23,0.23,1001,1001,1007,1007
11604,0,0.04,-0.09,0.06,0.23,0.00,0.00,0.00,0.22,0.22,0.23,0.23,1002,1002,1005,1005
11610,0,0.04,-0.08,0.06,0.23,0.00,0.00,0.00,0.22,0.22,0.23,0.23,1001,1001,1007,1007
11616,0,0.04,-0.08,0.07,0.23,0.00,0.00,0.00,0.22,0.22,0.23,0.23,999,999,1008,1008
11624,0,0.04,-0.08,0.07,0.23,0.00,0.00,0.00,0.22,0.22,0.23,0.23,1002,1002,1006,1006
11631,0,0.05,-0.08,0.08,0.23,0.00,0.00,0.00,0.22,0.22,0.23,0.23,998,998,1009,1009
11637,0,0.05,-0.08,0.08,0.23,0.00,0.00,0.00,0.22,0.22,0.23,0.23,997,997,1010,1010
11644,0,0.05,-0.08,0.08,0.23,0.00,0.00,0.00,0.22,0.22,0.23,0.23,1002,1002,1006,1006
11651,0,0.05,-0.08,0.09,0.23,0.00,0.00,0.00,0.22,0.22,0.23,0.23,997,997,1010,1010
11657,0,0.06,-0.07,0.10,0.23,0.00,0.00,0.00,0.22,0.22,0.23,0.23,999,999,1009,1009
11664,0,0.06,-0.07,0.10,0.23,0.00,0.00,0.00,0.22,0.22,0.23,0.23,1001,1001,1006,1006
11671,0,0.06,-0.07,0.10,0.23,0.00,0.00,0.00,0.22,0.22,0.23,0.23,999,999,1009,1009
11677,0,0.06,-0.07,0.11,0.23,0.00,0.00,0.00,0.22,0.22,0.23,0.23,1000,1000,1008,1008
11684,0,0.06,-0.07,0.11,0.23,0.00,0.00,0.00,0.22,0.22,0.23,0.23,1001,1001,1006,1006
11691,0,0.06,-0.06,0.12,0.23,0.00,0.00,0.00,0.22,0.22,0.23,0.23,1003,1003,1005,1005
11697,0,0.06,-0.06,0.13,0.23,0.00,0.00,0.00,0.22,0.22,0.23,0.23,1003,1003,1005,1005
11703,0,0.06,-0.06,0.13,0.23,0.00,0.00,0.00,0.22,0.22,0.23,0.23,1001,1001,1006,1006
11715,0,0.05,-0.06,0.14,0.23,-0.00,0.00,0.00,0.23,0.23,0.22,0.22,1005,1005,1002,1002
11723,0,0.05,-0.06,0.14,0.23,0.00,0.00,0.00,0.22,0.22,0.23,0.23,1002,1002,1006,1006
11730,0,0.05,-0.05,0.15,0.23,-0.00,0.00,0.00,0.23,0.23,0.22,0.22,1005,1005,1002,1002
11736,0,0.05,-0.05,0.16,0.23,-0.00,0.00,0.00,0.23,0.23,0.22,0.22,1005,1005,1003,1003
11743,0,0.05,-0.05,0.16,0.23,0.00,0.00,0.00,0.22,0.22,0.23,0.23,1002,1002,1006,1006
11749,0,0.04,-0.06,0.16,0.23,-0.00,0.00,0.00,0.23,0.23,0.22,0.22,1005,1005,1003,1003
11755,0,0.04,-0.06,0.17,0.23,-0.00,0.00,0.00,0.23,0.23,0.22,0.22,1005,1005,1003,1003
11761,0,0.04,-0.06,0.17,0.23,0.00,0.00,0.00,0.22,0.22,0.23,0.23,1002,1002,1006,1006
11767,0,0.04,-0.06,0.18,0.23,0.00,0.00,0.00,0.23,0.23,0.23,0.23,1004,1004,1004,1004
11774,0,0.04,-0.06,0.18,0.23,0.00,0.00,0.00,0.22,0.22,0.23,0.23,1002,1002,1005,1005
11781,0,0.04,-0.06,0.19,0.23,0.00,0.00,0.00,0.23,0.23,0.23,0.23,1003,1003,1004,1004
11788,0,0.04,-0.06,0.20,0.23,-0.00,0.00,0.00,0.23,0.23,0.22,0.22,1007,1007,1001,1001
11795,0,0.04,-0.06,0.20,0.23,0.00,0.00,0.00,0.22,0.22,0.23,0.23,1002,1002,1005,1005
11801,0,0.03,-0.06,0.21,0.23,-0.00,0.00,0.00,0.23,0.23,0.22,0.22,1005,1005,1002,1002
11807,0,0.03,-0.06,0.21,0.23,-0.00,0.00,0.00,0.23,0.23,0.22,0.22,1007,1007,1001,1001
11813,0,0.03,-0.06,0.21,0.23,0.00,0.00,0.00,0.22,0.22,0.23,0.23,1002,1002,1005,1005
11821,0,0.03,-0.06,0.22,0.23,-0.00,0.00,0.00,0.23,0.23,0.23,0.23,1004,1004,1004,1004
11827,0,0.03,-0.06,0.23,0.23,0.00,0.00,0.00,0.22,0.22,0.23,0.23,1001,1001,1006,1006
11834,0,0.03,-0.06,0.23,0.23,0.00,0.00,0.00,0.22,0.22,0.23,0.23,1002,1002,1005,1005
11841,0,0.03,-0.06,0.24,0.23,0.00,0.00,0.00,0.22,0.22,0.23,0.23,999,999,1009,1009
11848,0,0.04,-0.06,0.25,0.23,0.00,0.00,0.00,0.22,0.22,0.23,0.23,996,996,1011,1011
11854,0,0.04,-0.06,0.25,0.23,0.00,0.00,0.00,0.22,0.22,0.23,0.23,1002,1002,1005,1005
11860,0,0.04,-0.05,0.26,0.23,0.00,0.00,0.00,0.22,0.22,0.23,0.23,998,998,1010,1010
11867,0,0.05,-0.05,0.27,0.23,0.00,0.00,0.00,0.22,0.22,0.24,0.24,996,996,1011,1011
11874,0,0.05,-0.05,0.27,0.23,0.00,0.00,0.00,0.22,0.22,0.23,0.23,1002,1002,1006,1006
11881,0,0.05,-0.05,0.28,0.23,0.00,0.00,0.00,0.22,0.22,0.23,0.23,997,997,1011,1011
11887,0,0.05,-0.04,0.29,0.23,0.00,0.00,0.00,0.22,0.22,0.23,0.23,997,997,1010,1010
11895,0,0.05,-0.04,0.29,0.23,0.00,0.00,0.00,0.22,0.22,0.23,0.23,1002,1002,1006,1006
11901,0,0.06,-0.04,0.31,0.23,0.00,0.00,0.00,0.22,0.22,0.23,0.23,997,997,1010,1010
11907,0,0.06,-0.04,0.32,0.23,0.00,0.00,0.00,0.22,0.22,0.23,0.23,998,998,1009,1009
11913,0,0.06,-0.04,0.32,0.23,0.00,0.00,0.00,0.22,0.22,0.23,0.23,1001,1001,1006,1006
11925,0,0.06,-0.04,0.34,0.23,0.00,0.00,0.00,0.22,0.22,0.23,0.23,997,997,1010,1010
